{"type":"FeatureCollection","features":[{"type":"Feature","geometry":{"type":"Point","coordinates":[141.3383657,43.10835]},"properties":{"id":0,"name":"Asabu (麻生)","display_name":"Asabu (麻生)","line":"Namboku","order":0,"alternate_names":["麻生","Asabu"]},"id":0},{"type":"Feature","geometry":{"type":"Point","coordinates":[141.3420504,43.1002108]},"properties":{"id":1,"name":"Kita-Sanjūyo-Jō (北34条)","display_name":"Kita-Sanjūyo-Jō (北34条)","line":"Namboku","order":1,"alternate_names":["北34条","Kita-Sanjūyo-Jō"]},"id":1},{"type":"Feature","geometry":{"type":"Point","coordinates":[141.3447646,43.0894913]},"properties":{"id":2,"name":"Kita-Nijūyo-Jō (北24条)","display_name":"Kita-Nijūyo-Jō (北24条)","line":"Namboku","order":2,"alternate_names":["北24条","Kita-Nijūyo-Jō"]},"id":2},{"type":"Feature","geometry":{"type":"Point","coordinates":[141.3467756,43.0815747]},"properties":{"id":3,"name":"Kita-Jūhachi-Jō (北18条)","display_name":"Kita-Jūhachi-Jō (北18条)","line":"Namboku","order":3,"alternate_names":["北18条","Kita-Jūhachi-Jō"]},"id":3},{"type":"Feature","geometry":{"type":"Point","coordinates":[141.348474,43.07477]},"properties":{"id":4,"name":"Kita-Jūni-Jō (北12条)","display_name":"Kita-Jūni-Jō (北12条)","line":"Namboku","order":4,"alternate_names":["北12条","Kita-Jūni-Jō"]},"id":4},{"type":"Feature","geometry":{"type":"Point","coordinates":[141.3506993,43.0659497]},"properties":{"id":5,"name":"Sapporo (さっぽろ)","display_name":"Sapporo (さっぽろ)","line":"Namboku","order":5,"alternate_names":["さっぽろ","Sapporo"]},"id":5},{"type":"Feature","geometry":{"type":"Point","coordinates":[141.3521469,43.0602455]},"properties":{"id":6,"name":"Ōdōri (大通)","display_name":"Ōdōri (大通)","line":"Namboku","order":6,"alternate_names":["大通","Ōdōri"]},"id":6},{"type":"Feature","geometry":{"type":"Point","coordinates":[141.3533762,43.0553612]},"properties":{"id":7,"name":"Susukino (すすきの)","display_name":"Susukino (すすきの)","line":"Namboku","order":7,"alternate_names":["すすきの","Susukino"]},"id":7},{"type":"Feature","geometry":{"type":"Point","coordinates":[141.355121,43.0483303]},"properties":{"id":8,"name":"Nakajima-Kōen (中島公園)","display_name":"Nakajima-Kōen (中島公園)","line":"Namboku","order":8,"alternate_names":["中島公園","Nakajima-Kōen"]},"id":8},{"type":"Feature","geometry":{"type":"Point","coordinates":[141.3559841,43.0402123]},"properties":{"id":9,"name":"Horohira-Bashi (幌平橋)","display_name":"Horohira-Bashi (幌平橋)","line":"Namboku","order":9,"alternate_names":["幌平橋","Horohira-Bashi"]},"id":9},{"type":"Feature","geometry":{"type":"Point","coordinates":[141.3559382,43.0401791]},"properties":{"id":10,"name":"Horohira-Bashi (幌平橋)","display_name":"Horohira-Bashi (幌平橋)","line":"Namboku","order":9,"alternate_names":["幌平橋","Horohira-Bashi"]},"id":10},{"type":"Feature","geometry":{"type":"Point","coordinates":[141.3559757,43.040188]},"properties":{"id":11,"name":"Horohira-Bashi (幌平橋)","display_name":"Horohira-Bashi (幌平橋)","line":"Namboku","order":9,"alternate_names":["幌平橋","Horohira-Bashi"]},"id":11},{"type":"Feature","geometry":{"type":"Point","coordinates":[141.3611751,43.0375259]},"properties":{"id":12,"name":"Nakanoshima (中の島)","display_name":"Nakanoshima (中の島)","line":"Namboku","order":10,"alternate_names":["中の島","Nakanoshima"]},"id":12},{"type":"Feature","geometry":{"type":"Point","coordinates":[141.3682992,43.0345721]},"properties":{"id":13,"name":"Hiragishi (平岸)","display_name":"Hiragishi (平岸)","line":"Namboku","order":11,"alternate_names":["平岸","Hiragishi"]},"id":13},{"type":"Feature","geometry":{"type":"Point","coordinates":[141.3712576,43.0265267]},"properties":{"id":14,"name":"Minami-Hiragishi (南平岸)","display_name":"Minami-Hiragishi (南平岸)","line":"Namboku","order":12,"alternate_names":["南平岸","Minami-Hiragishi"]},"id":14},{"type":"Feature","geometry":{"type":"Point","coordinates":[141.3673238,43.017203]},"properties":{"id":15,"name":"Sumikawa (澄川)","display_name":"Sumikawa (澄川)","line":"Namboku","order":13,"alternate_names":["澄川","Sumikawa"]},"id":15},{"type":"Feature","geometry":{"type":"Point","coordinates":[141.3647881,43.006332]},"properties":{"id":16,"name":"Jieitai-Mae (自衛隊前)","display_name":"Jieitai-Mae (自衛隊前)","line":"Namboku","order":14,"alternate_names":["自衛隊前","Jieitai-Mae"]},"id":16},{"type":"Feature","geometry":{"type":"Point","coordinates":[141.3584296,42.991171]},"properties":{"id":17,"name":"Makomanai (真駒内)","display_name":"Makomanai (真駒内)","line":"Namboku","order":15,"alternate_names":["真駒内","Makomanai"]},"id":17},{"type":"Feature","geometry":{"type":"Point","coordinates":[141.2779708,43.0895027]},"properties":{"id":18,"name":"Miyanosawa (宮の沢)","display_name":"Miyanosawa (宮の沢)","line":"Tozai","order":0,"alternate_names":["宮の沢","Miyanosawa"]},"id":18},{"type":"Feature","geometry":{"type":"Point","coordinates":[141.2902111,43.0816113]},"properties":{"id":19,"name":"Hassamu-Minami (発寒南)","display_name":"Hassamu-Minami (発寒南)","line":"Tozai","order":1,"alternate_names":["発寒南","Hassamu-Minami"]},"id":19},{"type":"Feature","geometry":{"type":"Point","coordinates":[141.3044451,43.0754562]},"properties":{"id":20,"name":"Kotoni (琴似)","display_name":"Kotoni (琴似)","line":"Tozai","order":2,"alternate_names":["琴似","Kotoni"]},"id":20},{"type":"Feature","geometry":{"type":"Point","coordinates":[141.3136177,43.0704837]},"properties":{"id":21,"name":"Nijūyon-Ken (二十四軒)","display_name":"Nijūyon-Ken (二十四軒)","line":"Tozai","order":3,"alternate_names":["二十四軒","Nijūyon-Ken"]},"id":21},{"type":"Feature","geometry":{"type":"Point","coordinates":[141.3146519,43.0610033]},"properties":{"id":22,"name":"Nishi-Nijūhatchōme (西28丁目)","display_name":"Nishi-Nijūhatchōme (西28丁目)","line":"Tozai","order":4,"alternate_names":["西28丁目","Nishi-Nijūhatchōme"]},"id":22},{"type":"Feature","geometry":{"type":"Point","coordinates":[141.3194466,43.0557606]},"properties":{"id":23,"name":"Maruyama-Kōen (円山公園)","display_name":"Maruyama-Kōen (円山公園)","line":"Tozai","order":5,"alternate_names":["円山公園","Maruyama-Kōen"]},"id":23},{"type":"Feature","geometry":{"type":"Point","coordinates":[141.3303519,43.0572345]},"properties":{"id":24,"name":"Nishi-Jūhatchōme (西18丁目)","display_name":"Nishi-Jūhatchōme (西18丁目)","line":"Tozai","order":6,"alternate_names":["西18丁目","Nishi-Jūhatchōme"]},"id":24},{"type":"Feature","geometry":{"type":"Point","coordinates":[141.3413893,43.0587183]},"properties":{"id":25,"name":"Nishi-Jūitchōme (西11丁目)","display_name":"Nishi-Jūitchōme (西11丁目)","line":"Tozai","order":7,"alternate_names":["西11丁目","Nishi-Jūitchōme"]},"id":25},{"type":"Feature","geometry":{"type":"Point","coordinates":[141.3521469,43.0602455]},"properties":{"id":26,"name":"Ōdōri (大通)","display_name":"Ōdōri (大通)","line":"Tozai","order":8,"alternate_names":["大通","Ōdōri"]},"id":26},{"type":"Feature","geometry":{"type":"Point","coordinates":[141.3520002,43.0601674]},"properties":{"id":27,"name":"Ōdōri (大通)","display_name":"Ōdōri (大通)","line":"Tozai","order":8,"alternate_names":["大通","Ōdōri"]},"id":27},{"type":"Feature","geometry":{"type":"Point","coordinates":[141.3553152,43.0607232]},"properties":{"id":28,"name":"Ōdōri (大通)","display_name":"Ōdōri (大通)","line":"Tozai","order":8,"alternate_names":["大通","Ōdōri"]},"id":28},{"type":"Feature","geometry":{"type":"Point","coordinates":[141.3619632,43.0615553]},"properties":{"id":29,"name":"Bus Center-Mae (バスセンター前)","display_name":"Bus Center-Mae (バスセンター前)","line":"Tozai","order":9,"alternate_names":["バスセンター前","Bus Center-Mae"]},"id":29},{"type":"Feature","geometry":{"type":"Point","coordinates":[141.3727984,43.0573613]},"properties":{"id":30,"name":"Kikusui (菊水)","display_name":"Kikusui (菊水)","line":"Tozai","order":10,"alternate_names":["菊水","Kikusui"]},"id":30},{"type":"Feature","geometry":{"type":"Point","coordinates":[141.3847501,43.0518604]},"properties":{"id":31,"name":"Higashi-Sapporo (東札幌)","display_name":"Higashi-Sapporo (東札幌)","line":"Tozai","order":11,"alternate_names":["東札幌","Higashi-Sapporo"]},"id":31},{"type":"Feature","geometry":{"type":"Point","coordinates":[141.3956562,43.0464407]},"properties":{"id":32,"name":"Shiroishi (白石)","display_name":"Shiroishi (白石)","line":"Tozai","order":12,"alternate_names":["白石","Shiroishi"]},"id":32},{"type":"Feature","geometry":{"type":"Point","coordinates":[141.4110048,43.0403678]},"properties":{"id":33,"name":"Nangō-Nana-Chōme (南郷7丁目)","display_name":"Nangō-Nana-Chōme (南郷7丁目)","line":"Tozai","order":13,"alternate_names":["南郷7丁目","Nangō-Nana-Chōme"]},"id":33},{"type":"Feature","geometry":{"type":"Point","coordinates":[141.4229173,43.0357867]},"properties":{"id":34,"name":"Nangō-Jūsan-Chōme (南郷13丁目)","display_name":"Nangō-Jūsan-Chōme (南郷13丁目)","line":"Tozai","order":14,"alternate_names":["南郷13丁目","Nangō-Jūsan-Chōme"]},"id":34},{"type":"Feature","geometry":{"type":"Point","coordinates":[141.4352699,43.0303624]},"properties":{"id":35,"name":"Nangō-Jūhatchōme (南郷18丁目)","display_name":"Nangō-Jūhatchōme (南郷18丁目)","line":"Tozai","order":15,"alternate_names":["南郷18丁目","Nangō-Jūhatchōme"]},"id":35},{"type":"Feature","geometry":{"type":"Point","coordinates":[141.4531646,43.0279802]},"properties":{"id":36,"name":"Ōyachi (大谷地)","display_name":"Ōyachi (大谷地)","line":"Tozai","order":16,"alternate_names":["大谷地","Ōyachi"]},"id":36},{"type":"Feature","geometry":{"type":"Point","coordinates":[141.4644004,43.032269]},"properties":{"id":37,"name":"Hibarigaoka (ひばりが丘)","display_name":"Hibarigaoka (ひばりが丘)","line":"Tozai","order":17,"alternate_names":["ひばりが丘","Hibarigaoka"]},"id":37},{"type":"Feature","geometry":{"type":"Point","coordinates":[141.4739808,43.0388569]},"properties":{"id":38,"name":"Shin-Sapporo (新さっぽろ)","display_name":"Shin-Sapporo (新さっぽろ)","line":"Tozai","order":18,"alternate_names":["新さっぽろ","Shin-Sapporo"]},"id":38},{"type":"Feature","geometry":{"type":"Point","coordinates":[141.3671293,43.1130049]},"properties":{"id":39,"name":"Sakaemachi (栄町)","display_name":"Sakaemachi (栄町)","line":"Toho","order":0,"alternate_names":["栄町","Sakaemachi"]},"id":39},{"type":"Feature","geometry":{"type":"Point","coordinates":[141.3690944,43.1047351]},"properties":{"id":40,"name":"Shindō-Higashi (新道東)","display_name":"Shindō-Higashi (新道東)","line":"Toho","order":1,"alternate_names":["新道東","Shindō-Higashi"]},"id":40},{"type":"Feature","geometry":{"type":"Point","coordinates":[141.3717109,43.0940846]},"properties":{"id":41,"name":"Motomachi (元町)","display_name":"Motomachi (元町)","line":"Toho","order":2,"alternate_names":["元町","Motomachi"]},"id":41},{"type":"Feature","geometry":{"type":"Point","coordinates":[141.3744736,43.0824253]},"properties":{"id":42,"name":"Kanjō-Dōri-Higashi (環状通東)","display_name":"Kanjō-Dōri-Higashi (環状通東)","line":"Toho","order":3,"alternate_names":["環状通東","Kanjō-Dōri-Higashi"]},"id":42},{"type":"Feature","geometry":{"type":"Point","coordinates":[141.3653588,43.078262]},"properties":{"id":43,"name":"Higashi-Kuyakusho-Mae (東区役所前)","display_name":"Higashi-Kuyakusho-Mae (東区役所前)","line":"Toho","order":4,"alternate_names":["東区役所前","Higashi-Kuyakusho-Mae"]},"id":43},{"type":"Feature","geometry":{"type":"Point","coordinates":[141.3549659,43.0768485]},"properties":{"id":44,"name":"Kita-Jūsan-Jō-Higashi (北13条東)","display_name":"Kita-Jūsan-Jō-Higashi (北13条東)","line":"Toho","order":5,"alternate_names":["北13条東","Kita-Jūsan-Jō-Higashi"]},"id":44},{"type":"Feature","geometry":{"type":"Point","coordinates":[141.3506993,43.0659497]},"properties":{"id":45,"name":"Sapporo (さっぽろ)","display_name":"Sapporo (さっぽろ)","line":"Toho","order":6,"alternate_names":["さっぽろ","Sapporo"]},"id":45},{"type":"Feature","geometry":{"type":"Point","coordinates":[141.3539084,43.0662545]},"properties":{"id":46,"name":"Sapporo (さっぽろ)","display_name":"Sapporo (さっぽろ)","line":"Toho","order":6,"alternate_names":["さっぽろ","Sapporo"]},"id":46},{"type":"Feature","geometry":{"type":"Point","coordinates":[141.3521469,43.0602455]},"properties":{"id":47,"name":"Ōdōri (大通)","display_name":"Ōdōri (大通)","line":"Toho","order":7,"alternate_names":["大通","Ōdōri"]},"id":47},{"type":"Feature","geometry":{"type":"Point","coordinates":[141.3553152,43.0607232]},"properties":{"id":48,"name":"Ōdōri (大通)","display_name":"Ōdōri (大通)","line":"Toho","order":7,"alternate_names":["大通","Ōdōri"]},"id":48},{"type":"Feature","geometry":{"type":"Point","coordinates":[141.3570077,43.0541601]},"properties":{"id":49,"name":"Hōsui-Susukino (豊水すすきの)","display_name":"Hōsui-Susukino (豊水すすきの)","line":"Toho","order":8,"alternate_names":["豊水すすきの","Hōsui-Susukino"]},"id":49},{"type":"Feature","geometry":{"type":"Point","coordinates":[141.3689744,43.0477726]},"properties":{"id":50,"name":"Gakuen-Mae (学園前)","display_name":"Gakuen-Mae (学園前)","line":"Toho","order":9,"alternate_names":["学園前","Gakuen-Mae"]},"id":50},{"type":"Feature","geometry":{"type":"Point","coordinates":[141.3761634,43.0421169]},"properties":{"id":51,"name":"Toyohira-Kōen (豊平公園)","display_name":"Toyohira-Kōen (豊平公園)","line":"Toho","order":10,"alternate_names":["豊平公園","Toyohira-Kōen"]},"id":51},{"type":"Feature","geometry":{"type":"Point","coordinates":[141.3856156,43.0362633]},"properties":{"id":52,"name":"Misono (美園)","display_name":"Misono (美園)","line":"Toho","order":11,"alternate_names":["美園","Misono"]},"id":52},{"type":"Feature","geometry":{"type":"Point","coordinates":[141.3966683,43.0299184]},"properties":{"id":53,"name":"Tsukisamu-Chūō (月寒中央)","display_name":"Tsukisamu-Chūō (月寒中央)","line":"Toho","order":12,"alternate_names":["月寒中央","Tsukisamu-Chūō"]},"id":53},{"type":"Feature","geometry":{"type":"Point","coordinates":[141.4028775,43.021849]},"properties":{"id":54,"name":"Fukuzumi (福住)","display_name":"Fukuzumi (福住)","line":"Toho","order":13,"alternate_names":["福住","Fukuzumi"]},"id":54},{"type":"Feature","geometry":{"type":"Point","coordinates":[141.3519003,43.0589264]},"properties":{"id":55,"name":"Nishi-Yon-Chōme (西4丁目)","display_name":"Nishi-Yon-Chōme (西4丁目)","line":"Streetcar","order":0,"alternate_names":["西4丁目","Nishi-Yon-Chōme"]},"id":55},{"type":"Feature","geometry":{"type":"Point","coordinates":[141.3524364,43.0587174]},"properties":{"id":56,"name":"Nishi-Yon-Chōme (西4丁目)","display_name":"Nishi-Yon-Chōme (西4丁目)","line":"Streetcar","order":0,"alternate_names":["西4丁目","Nishi-Yon-Chōme"]},"id":56},{"type":"Feature","geometry":{"type":"Point","coordinates":[141.3465699,43.0581741]},"properties":{"id":57,"name":"Nishi-Hatchōme (西8丁目)","display_name":"Nishi-Hatchōme (西8丁目)","line":"Streetcar","order":1,"alternate_names":["西8丁目","Nishi-Hatchōme"]},"id":57},{"type":"Feature","geometry":{"type":"Point","coordinates":[141.3458826,43.0581065]},"properties":{"id":58,"name":"Nishi-Hatchōme (西8丁目)","display_name":"Nishi-Hatchōme (西8丁目)","line":"Streetcar","order":1,"alternate_names":["西8丁目","Nishi-Hatchōme"]},"id":58},{"type":"Feature","geometry":{"type":"Point","coordinates":[141.3418559,43.0575293]},"properties":{"id":59,"name":"Chūō-Kuyakusho-Mae (中央区役所前)","display_name":"Chūō-Kuyakusho-Mae (中央区役所前)","line":"Streetcar","order":2,"alternate_names":["中央区役所前","Chūō-Kuyakusho-Mae"]},"id":59},{"type":"Feature","geometry":{"type":"Point","coordinates":[141.3409621,43.0574372]},"properties":{"id":60,"name":"Chūō-Kuyakusho-Mae (中央区役所前)","display_name":"Chūō-Kuyakusho-Mae (中央区役所前)","line":"Streetcar","order":2,"alternate_names":["中央区役所前","Chūō-Kuyakusho-Mae"]},"id":60},{"type":"Feature","geometry":{"type":"Point","coordinates":[141.3352356,43.0564124]},"properties":{"id":61,"name":"Nishi-Jūgo-Chōme (西15丁目)","display_name":"Nishi-Jūgo-Chōme (西15丁目)","line":"Streetcar","order":3,"alternate_names":["西15丁目","Nishi-Jūgo-Chōme"]},"id":61},{"type":"Feature","geometry":{"type":"Point","coordinates":[141.3352288,43.0562486]},"properties":{"id":62,"name":"Nishi-Jūgo-Chōme (西15丁目)","display_name":"Nishi-Jūgo-Chōme (西15丁目)","line":"Streetcar","order":3,"alternate_names":["西15丁目","Nishi-Jūgo-Chōme"]},"id":62},{"type":"Feature","geometry":{"type":"Point","coordinates":[141.3350833,43.0511219]},"properties":{"id":63,"name":"Nishisen-Roku-Jō (西線6条)","display_name":"Nishisen-Roku-Jō (西線6条)","line":"Streetcar","order":4,"alternate_names":["西線6条","Nishisen-Roku-Jō"]},"id":63},{"type":"Feature","geometry":{"type":"Point","coordinates":[141.3350719,43.0515065]},"properties":{"id":64,"name":"Nishisen-Roku-Jō (西線6条)","display_name":"Nishisen-Roku-Jō (西線6条)","line":"Streetcar","order":4,"alternate_names":["西線6条","Nishisen-Roku-Jō"]},"id":64},{"type":"Feature","geometry":{"type":"Point","coordinates":[141.3355152,43.0477094]},"properties":{"id":65,"name":"Nishisen-Ku-Jō Asahiyama-Kōen-Dōri (西線9条旭山公園通)","display_name":"Nishisen-Ku-Jō Asahiyama-Kōen-Dōri (西線9条旭山公園通)","line":"Streetcar","order":5,"alternate_names":["西線9条旭山公園通","Nishisen-Ku-Jō Asahiyama-Kōen-Dōri"]},"id":65},{"type":"Feature","geometry":{"type":"Point","coordinates":[141.3354937,43.048196]},"properties":{"id":66,"name":"Nishisen-Ku-Jō Asahiyama-Kōen-Dōri (西線9条旭山公園通)","display_name":"Nishisen-Ku-Jō Asahiyama-Kōen-Dōri (西線9条旭山公園通)","line":"Streetcar","order":5,"alternate_names":["西線9条旭山公園通","Nishisen-Ku-Jō Asahiyama-Kōen-Dōri"]},"id":66},{"type":"Feature","geometry":{"type":"Point","coordinates":[141.3359383,43.0444271]},"properties":{"id":67,"name":"Nishisen-Jūichi-Jō (西線11条)","display_name":"Nishisen-Jūichi-Jō (西線11条)","line":"Streetcar","order":6,"alternate_names":["西線11条","Nishisen-Jūichi-Jō"]},"id":67},{"type":"Feature","geometry":{"type":"Point","coordinates":[141.3359182,43.044874]},"properties":{"id":68,"name":"Nishisen-Jūichi-Jō (西線11条)","display_name":"Nishisen-Jūichi-Jō (西線11条)","line":"Streetcar","order":6,"alternate_names":["西線11条","Nishisen-Jūichi-Jō"]},"id":68},{"type":"Feature","geometry":{"type":"Point","coordinates":[141.3364955,43.040089]},"properties":{"id":69,"name":"Nishisen-Jūyo-Jō (西線14条)","display_name":"Nishisen-Jūyo-Jō (西線14条)","line":"Streetcar","order":7,"alternate_names":["西線14条","Nishisen-Jūyo-Jō"]},"id":69},{"type":"Feature","geometry":{"type":"Point","coordinates":[141.336474,43.0405438]},"properties":{"id":70,"name":"Nishisen-Jūyo-Jō (西線14条)","display_name":"Nishisen-Jūyo-Jō (西線14条)","line":"Streetcar","order":7,"alternate_names":["西線14条","Nishisen-Jūyo-Jō"]},"id":70},{"type":"Feature","geometry":{"type":"Point","coordinates":[141.3369213,43.036717]},"properties":{"id":71,"name":"Nishisen-Jūroku-Jō (西線16条)","display_name":"Nishisen-Jūroku-Jō (西線16条)","line":"Streetcar","order":8,"alternate_names":["西線16条","Nishisen-Jūroku-Jō"]},"id":71},{"type":"Feature","geometry":{"type":"Point","coordinates":[141.3368958,43.0371954]},"properties":{"id":72,"name":"Nishisen-Jūroku-Jō (西線16条)","display_name":"Nishisen-Jūroku-Jō (西線16条)","line":"Streetcar","order":8,"alternate_names":["西線16条","Nishisen-Jūroku-Jō"]},"id":72},{"type":"Feature","geometry":{"type":"Point","coordinates":[141.3373464,43.0334317]},"properties":{"id":73,"name":"Ropeway-Iriguchi (ロープウェイ入口)","display_name":"Ropeway-Iriguchi (ロープウェイ入口)","line":"Streetcar","order":9,"alternate_names":["ロープウェイ入口","Ropeway-Iriguchi"]},"id":73},{"type":"Feature","geometry":{"type":"Point","coordinates":[141.3373357,43.0338219]},"properties":{"id":74,"name":"Ropeway-Iriguchi (ロープウェイ入口)","display_name":"Ropeway-Iriguchi (ロープウェイ入口)","line":"Streetcar","order":9,"alternate_names":["ロープウェイ入口","Ropeway-Iriguchi"]},"id":74},{"type":"Feature","geometry":{"type":"Point","coordinates":[141.3377459,43.0306324]},"properties":{"id":75,"name":"Densha-Jigyōsho-Mae (電車事業所前)","display_name":"Densha-Jigyōsho-Mae (電車事業所前)","line":"Streetcar","order":10,"alternate_names":["電車事業所前","Densha-Jigyōsho-Mae"]},"id":75},{"type":"Feature","geometry":{"type":"Point","coordinates":[141.3377016,43.03063]},"properties":{"id":76,"name":"Densha-Jigyōsho-Mae (電車事業所前)","display_name":"Densha-Jigyōsho-Mae (電車事業所前)","line":"Streetcar","order":10,"alternate_names":["電車事業所前","Densha-Jigyōsho-Mae"]},"id":76},{"type":"Feature","geometry":{"type":"Point","coordinates":[141.3412444,43.030541]},"properties":{"id":77,"name":"Chūō-Toshokan-Mae (中央図書館前)","display_name":"Chūō-Toshokan-Mae (中央図書館前)","line":"Streetcar","order":11,"alternate_names":["中央図書館前","Chūō-Toshokan-Mae"]},"id":77},{"type":"Feature","geometry":{"type":"Point","coordinates":[141.3417925,43.0305527]},"properties":{"id":78,"name":"Chūō-Toshokan-Mae (中央図書館前)","display_name":"Chūō-Toshokan-Mae (中央図書館前)","line":"Streetcar","order":11,"alternate_names":["中央図書館前","Chūō-Toshokan-Mae"]},"id":78},{"type":"Feature","geometry":{"type":"Point","coordinates":[141.3445084,43.0307645]},"properties":{"id":79,"name":"Ishiyama-Dōri (石山通)","display_name":"Ishiyama-Dōri (石山通)","line":"Streetcar","order":12,"alternate_names":["石山通","Ishiyama-Dōri"]},"id":79},{"type":"Feature","geometry":{"type":"Point","coordinates":[141.3452152,43.0307883]},"properties":{"id":80,"name":"Ishiyama-Dōri (石山通)","display_name":"Ishiyama-Dōri (石山通)","line":"Streetcar","order":12,"alternate_names":["石山通","Ishiyama-Dōri"]},"id":80},{"type":"Feature","geometry":{"type":"Point","coordinates":[141.3479981,43.0310072]},"properties":{"id":81,"name":"Higashi-Tonden-Dōri (東屯田通)","display_name":"Higashi-Tonden-Dōri (東屯田通)","line":"Streetcar","order":13,"alternate_names":["東屯田通","Higashi-Tonden-Dōri"]},"id":81},{"type":"Feature","geometry":{"type":"Point","coordinates":[141.3486453,43.0310277]},"properties":{"id":82,"name":"Higashi-Tonden-Dōri (東屯田通)","display_name":"Higashi-Tonden-Dōri (東屯田通)","line":"Streetcar","order":13,"alternate_names":["東屯田通","Higashi-Tonden-Dōri"]},"id":82},{"type":"Feature","geometry":{"type":"Point","coordinates":[141.351889,43.03245]},"properties":{"id":83,"name":"Kōnan-Shōgakkō-Mae (幌南小学校前)","display_name":"Kōnan-Shōgakkō-Mae (幌南小学校前)","line":"Streetcar","order":14,"alternate_names":["幌南小学校前","Kōnan-Shōgakkō-Mae"]},"id":83},{"type":"Feature","geometry":{"type":"Point","coordinates":[141.3519722,43.0321317]},"properties":{"id":84,"name":"Kōnan-Shōgakkō-Mae (幌南小学校前)","display_name":"Kōnan-Shōgakkō-Mae (幌南小学校前)","line":"Streetcar","order":14,"alternate_names":["幌南小学校前","Kōnan-Shōgakkō-Mae"]},"id":84},{"type":"Feature","geometry":{"type":"Point","coordinates":[141.351601,43.0349098]},"properties":{"id":85,"name":"Yamahana-Jūku-Jō (山鼻19条)","display_name":"Yamahana-Jūku-Jō (山鼻19条)","line":"Streetcar","order":15,"alternate_names":["山鼻19条","Yamahana-Jūku-Jō"]},"id":85},{"type":"Feature","geometry":{"type":"Point","coordinates":[141.3516453,43.0343166]},"properties":{"id":86,"name":"Yamahana-Jūku-Jō (山鼻19条)","display_name":"Yamahana-Jūku-Jō (山鼻19条)","line":"Streetcar","order":15,"alternate_names":["山鼻19条","Yamahana-Jūku-Jō"]},"id":86},{"type":"Feature","geometry":{"type":"Point","coordinates":[141.3511753,43.0381513]},"properties":{"id":87,"name":"Seishūgakuen-Mae (静修学園前)","display_name":"Seishūgakuen-Mae (静修学園前)","line":"Streetcar","order":16,"alternate_names":["静修学園前","Seishūgakuen-Mae"]},"id":87},{"type":"Feature","geometry":{"type":"Point","coordinates":[141.3511886,43.0377828]},"properties":{"id":88,"name":"Seishūgakuen-Mae (静修学園前)","display_name":"Seishūgakuen-Mae (静修学園前)","line":"Streetcar","order":16,"alternate_names":["静修学園前","Seishūgakuen-Mae"]},"id":88},{"type":"Feature","geometry":{"type":"Point","coordinates":[141.3507273,43.0415336]},"properties":{"id":89,"name":"Gyōkei-Dōri (行啓通)","display_name":"Gyōkei-Dōri (行啓通)","line":"Streetcar","order":17,"alternate_names":["行啓通","Gyōkei-Dōri"]},"id":89},{"type":"Feature","geometry":{"type":"Point","coordinates":[141.3507495,43.0411276]},"properties":{"id":90,"name":"Gyōkei-Dōri (行啓通)","display_name":"Gyōkei-Dōri (行啓通)","line":"Streetcar","order":17,"alternate_names":["行啓通","Gyōkei-Dōri"]},"id":90},{"type":"Feature","geometry":{"type":"Point","coordinates":[141.3501822,43.0454294]},"properties":{"id":91,"name":"Nakajima-Kōen-Dōri (中島公園通)","display_name":"Nakajima-Kōen-Dōri (中島公園通)","line":"Streetcar","order":18,"alternate_names":["中島公園通","Nakajima-Kōen-Dōri"]},"id":91},{"type":"Feature","geometry":{"type":"Point","coordinates":[141.350164,43.0457819]},"properties":{"id":92,"name":"Nakajima-Kōen-Dōri (中島公園通)","display_name":"Nakajima-Kōen-Dōri (中島公園通)","line":"Streetcar","order":18,"alternate_names":["中島公園通","Nakajima-Kōen-Dōri"]},"id":92},{"type":"Feature","geometry":{"type":"Point","coordinates":[141.3497573,43.0489299]},"properties":{"id":93,"name":"Yamahana-Ku-Jō (山鼻9条)","display_name":"Yamahana-Ku-Jō (山鼻9条)","line":"Streetcar","order":19,"alternate_names":["山鼻9条","Yamahana-Ku-Jō"]},"id":93},{"type":"Feature","geometry":{"type":"Point","coordinates":[141.3497956,43.048351]},"properties":{"id":94,"name":"Yamahana-Ku-Jō (山鼻9条)","display_name":"Yamahana-Ku-Jō (山鼻9条)","line":"Streetcar","order":19,"alternate_names":["山鼻9条","Yamahana-Ku-Jō"]},"id":94},{"type":"Feature","geometry":{"type":"Point","coordinates":[141.3495099,43.0512628]},"properties":{"id":95,"name":"Higashi-Honganji-Mae (東本願寺前)","display_name":"Higashi-Honganji-Mae (東本願寺前)","line":"Streetcar","order":20,"alternate_names":["東本願寺前","Higashi-Honganji-Mae"]},"id":95},{"type":"Feature","geometry":{"type":"Point","coordinates":[141.3494798,43.0516865]},"properties":{"id":96,"name":"Higashi-Honganji-Mae (東本願寺前)","display_name":"Higashi-Honganji-Mae (東本願寺前)","line":"Streetcar","order":20,"alternate_names":["東本願寺前","Higashi-Honganji-Mae"]},"id":96},{"type":"Feature","geometry":{"type":"Point","coordinates":[141.3490764,43.055104]},"properties":{"id":97,"name":"Shiseikan-Shōgakkō-Mae (資生館小学校前)","display_name":"Shiseikan-Shōgakkō-Mae (資生館小学校前)","line":"Streetcar","order":21,"alternate_names":["資生館小学校前","Shiseikan-Shōgakkō-Mae"]},"id":97},{"type":"Feature","geometry":{"type":"Point","coordinates":[141.3490912,43.0550614]},"properties":{"id":98,"name":"Shiseikan-Shōgakkō-Mae (資生館小学校前)","display_name":"Shiseikan-Shōgakkō-Mae (資生館小学校前)","line":"Streetcar","order":21,"alternate_names":["資生館小学校前","Shiseikan-Shōgakkō-Mae"]},"id":98},{"type":"Feature","geometry":{"type":"Point","coordinates":[141.3527889,43.0555952]},"properties":{"id":99,"name":"Susukino (すすきの)","display_name":"Susukino (すすきの)","line":"Streetcar","order":22,"alternate_names":["すすきの","Susukino"]},"id":99},{"type":"Feature","geometry":{"type":"Point","coordinates":[141.3527913,43.0555834]},"properties":{"id":100,"name":"Susukino (すすきの)","display_name":"Susukino (すすきの)","line":"Streetcar","order":22,"alternate_names":["すすきの","Susukino"]},"id":100},{"type":"Feature","geometry":{"type":"Point","coordinates":[141.3528531,43.0570501]},"properties":{"id":101,"name":"Tanuki Kōji (狸小路)","display_name":"Tanuki Kōji (狸小路)","line":"Streetcar","order":23,"alternate_names":["狸小路","Tanuki Kōji"]},"id":101},{"type":"Feature","geometry":{"type":"Point","coordinates":[141.3529668,43.0575597]},"properties":{"id":102,"name":"Tanuki Kōji (狸小路)","display_name":"Tanuki Kōji (狸小路)","line":"Streetcar","order":23,"alternate_names":["狸小路","Tanuki Kōji"]},"id":102}]}