{
  "type": "FeatureCollection",
  "features": [
    {
      "type": "Feature",
      "geometry": {
        "type": "Point",
        "coordinates": [
          -74.013664,
          40.702068
        ]
      },
      "properties": {
        "id": 1,
        "name": "South Ferry",
        "line": "NewYorkSubway1",
        "order": 0
      },
      "id": 1
    },
    {
      "type": "Feature",
      "geometry": {
        "type": "Point",
        "coordinates": [
          -74.01378,
          40.707512
        ]
      },
      "properties": {
        "id": 2,
        "name": "Rector St",
        "line": "NewYorkSubway1",
        "order": 7
      },
      "id": 2
    },
    {
      "type": "Feature",
      "geometry": {
        "type": "Point",
        "coordinates": [
          -74.012188,
          40.711835
        ]
      },
      "properties": {
        "id": 3,
        "name": "WTC Cortlandt",
        "line": "NewYorkSubway1",
        "order": 10
      },
      "id": 3
    },
    {
      "type": "Feature",
      "geometry": {
        "type": "Point",
        "coordinates": [
          -74.009268,
          40.715479
        ]
      },
      "properties": {
        "id": 4,
        "name": "Chambers St",
        "line": "NewYorkSubway1",
        "order": 17
      },
      "id": 4
    },
    {
      "type": "Feature",
      "geometry": {
        "type": "Point",
        "coordinates": [
          -74.006886,
          40.719318
        ]
      },
      "properties": {
        "id": 5,
        "name": "Franklin St",
        "line": "NewYorkSubway1",
        "order": 21
      },
      "id": 5
    },
    {
      "type": "Feature",
      "geometry": {
        "type": "Point",
        "coordinates": [
          -74.006288,
          40.722855
        ]
      },
      "properties": {
        "id": 6,
        "name": "Canal St",
        "line": "NewYorkSubway1",
        "order": 23
      },
      "id": 6
    },
    {
      "type": "Feature",
      "geometry": {
        "type": "Point",
        "coordinates": [
          -74.005376,
          40.728252
        ]
      },
      "properties": {
        "id": 7,
        "name": "Houston St",
        "line": "NewYorkSubway1",
        "order": 24
      },
      "id": 7
    },
    {
      "type": "Feature",
      "geometry": {
        "type": "Point",
        "coordinates": [
          -74.002907,
          40.733422
        ]
      },
      "properties": {
        "id": 8,
        "name": "Christopher St - Stonewall",
        "line": "NewYorkSubway1",
        "order": 28,
        "alternate_names": [
          "Christopher St - Sheridan Sq"
        ]
      },
      "id": 8
    },
    {
      "type": "Feature",
      "geometry": {
        "type": "Point",
        "coordinates": [
          -74.000199,
          40.737825
        ]
      },
      "properties": {
        "id": 9,
        "name": "14 St",
        "line": "NewYorkSubway1",
        "order": 31
      },
      "id": 9
    },
    {
      "type": "Feature",
      "geometry": {
        "type": "Point",
        "coordinates": [
          -73.997863,
          40.741037
        ]
      },
      "properties": {
        "id": 10,
        "name": "18 St",
        "line": "NewYorkSubway1",
        "order": 32
      },
      "id": 10
    },
    {
      "type": "Feature",
      "geometry": {
        "type": "Point",
        "coordinates": [
          -73.995651,
          40.744078
        ]
      },
      "properties": {
        "id": 11,
        "name": "23 St",
        "line": "NewYorkSubway1",
        "order": 33
      },
      "id": 11
    },
    {
      "type": "Feature",
      "geometry": {
        "type": "Point",
        "coordinates": [
          -73.993368,
          40.747216
        ]
      },
      "properties": {
        "id": 12,
        "name": "28 St",
        "line": "NewYorkSubway1",
        "order": 34
      },
      "id": 12
    },
    {
      "type": "Feature",
      "geometry": {
        "type": "Point",
        "coordinates": [
          -73.991068,
          40.750378
        ]
      },
      "properties": {
        "id": 13,
        "name": "34 St - Penn Station",
        "line": "NewYorkSubway1",
        "order": 35
      },
      "id": 13
    },
    {
      "type": "Feature",
      "geometry": {
        "type": "Point",
        "coordinates": [
          -73.987494,
          40.75529
        ]
      },
      "properties": {
        "id": 14,
        "name": "Times Sq - 42 St",
        "line": "NewYorkSubway1",
        "order": 36
      },
      "id": 14
    },
    {
      "type": "Feature",
      "geometry": {
        "type": "Point",
        "coordinates": [
          -73.983846,
          40.761727
        ]
      },
      "properties": {
        "id": 15,
        "name": "50 St",
        "line": "NewYorkSubway1",
        "order": 42
      },
      "id": 15
    },
    {
      "type": "Feature",
      "geometry": {
        "type": "Point",
        "coordinates": [
          -73.981933,
          40.768246
        ]
      },
      "properties": {
        "id": 16,
        "name": "59 St - Columbus Circle",
        "line": "NewYorkSubway1",
        "order": 49
      },
      "id": 16
    },
    {
      "type": "Feature",
      "geometry": {
        "type": "Point",
        "coordinates": [
          -73.982195,
          40.77344
        ]
      },
      "properties": {
        "id": 17,
        "name": "66 St - Lincoln Center",
        "line": "NewYorkSubway1",
        "order": 52
      },
      "id": 17
    },
    {
      "type": "Feature",
      "geometry": {
        "type": "Point",
        "coordinates": [
          -73.981965,
          40.778453
        ]
      },
      "properties": {
        "id": 18,
        "name": "72 St",
        "line": "NewYorkSubway1",
        "order": 55
      },
      "id": 18
    },
    {
      "type": "Feature",
      "geometry": {
        "type": "Point",
        "coordinates": [
          -73.979917,
          40.783934
        ]
      },
      "properties": {
        "id": 19,
        "name": "79 St",
        "line": "NewYorkSubway1",
        "order": 61
      },
      "id": 19
    },
    {
      "type": "Feature",
      "geometry": {
        "type": "Point",
        "coordinates": [
          -73.976212,
          40.788641
        ]
      },
      "properties": {
        "id": 20,
        "name": "86 St",
        "line": "NewYorkSubway1",
        "order": 64
      },
      "id": 20
    },
    {
      "type": "Feature",
      "geometry": {
        "type": "Point",
        "coordinates": [
          -73.972327,
          40.793921
        ]
      },
      "properties": {
        "id": 21,
        "name": "96 St",
        "line": "NewYorkSubway1",
        "order": 66
      },
      "id": 21
    },
    {
      "type": "Feature",
      "geometry": {
        "type": "Point",
        "coordinates": [
          -73.968388,
          40.799449
        ]
      },
      "properties": {
        "id": 22,
        "name": "103 St",
        "line": "NewYorkSubway1",
        "order": 68
      },
      "id": 22
    },
    {
      "type": "Feature",
      "geometry": {
        "type": "Point",
        "coordinates": [
          -73.966847,
          40.803967
        ]
      },
      "properties": {
        "id": 23,
        "name": "Cathedral Pkwy",
        "line": "NewYorkSubway1",
        "order": 77
      },
      "id": 23
    },
    {
      "type": "Feature",
      "geometry": {
        "type": "Point",
        "coordinates": [
          -73.964107,
          40.807721
        ]
      },
      "properties": {
        "id": 24,
        "name": "116 St - Columbia University",
        "line": "NewYorkSubway1",
        "order": 78
      },
      "id": 24
    },
    {
      "type": "Feature",
      "geometry": {
        "type": "Point",
        "coordinates": [
          -73.958368,
          40.815579
        ]
      },
      "properties": {
        "id": 25,
        "name": "125 St - Broadway",
        "line": "NewYorkSubway1",
        "order": 79,
        "alternate_names": [
          "125 St",
          "Broadway - 125 St"
        ]
      },
      "id": 25
    },
    {
      "type": "Feature",
      "geometry": {
        "type": "Point",
        "coordinates": [
          -73.953674,
          40.822007
        ]
      },
      "properties": {
        "id": 26,
        "name": "137 St - City College",
        "line": "NewYorkSubway1",
        "order": 80
      },
      "id": 26
    },
    {
      "type": "Feature",
      "geometry": {
        "type": "Point",
        "coordinates": [
          -73.950357,
          40.82655
        ]
      },
      "properties": {
        "id": 27,
        "name": "145 St",
        "line": "NewYorkSubway1",
        "order": 81
      },
      "id": 27
    },
    {
      "type": "Feature",
      "geometry": {
        "type": "Point",
        "coordinates": [
          -73.944887,
          40.83404
        ]
      },
      "properties": {
        "id": 28,
        "name": "157 St",
        "line": "NewYorkSubway1",
        "order": 82
      },
      "id": 28
    },
    {
      "type": "Feature",
      "geometry": {
        "type": "Point",
        "coordinates": [
          -73.940128,
          40.840554
        ]
      },
      "properties": {
        "id": 29,
        "name": "168 St - Washington Hts",
        "line": "NewYorkSubway1",
        "order": 83
      },
      "id": 29
    },
    {
      "type": "Feature",
      "geometry": {
        "type": "Point",
        "coordinates": [
          -73.933591,
          40.849503
        ]
      },
      "properties": {
        "id": 30,
        "name": "181 St",
        "line": "NewYorkSubway1",
        "order": 84
      },
      "id": 30
    },
    {
      "type": "Feature",
      "geometry": {
        "type": "Point",
        "coordinates": [
          -73.92941,
          40.855224
        ]
      },
      "properties": {
        "id": 31,
        "name": "191 St",
        "line": "NewYorkSubway1",
        "order": 85
      },
      "id": 31
    },
    {
      "type": "Feature",
      "geometry": {
        "type": "Point",
        "coordinates": [
          -73.925533,
          40.86053
        ]
      },
      "properties": {
        "id": 32,
        "name": "Dyckman St",
        "line": "NewYorkSubway1",
        "order": 86
      },
      "id": 32
    },
    {
      "type": "Feature",
      "geometry": {
        "type": "Point",
        "coordinates": [
          -73.918818,
          40.864619
        ]
      },
      "properties": {
        "id": 33,
        "name": "207 St",
        "line": "NewYorkSubway1",
        "order": 96
      },
      "id": 33
    },
    {
      "type": "Feature",
      "geometry": {
        "type": "Point",
        "coordinates": [
          -73.915275,
          40.869442
        ]
      },
      "properties": {
        "id": 34,
        "name": "215 St",
        "line": "NewYorkSubway1",
        "order": 97
      },
      "id": 34
    },
    {
      "type": "Feature",
      "geometry": {
        "type": "Point",
        "coordinates": [
          -73.909832,
          40.874562
        ]
      },
      "properties": {
        "id": 35,
        "name": "Marble Hill - 225 St",
        "line": "NewYorkSubway1",
        "order": 103
      },
      "id": 35
    },
    {
      "type": "Feature",
      "geometry": {
        "type": "Point",
        "coordinates": [
          -73.904837,
          40.878857
        ]
      },
      "properties": {
        "id": 36,
        "name": "231 St",
        "line": "NewYorkSubway1",
        "order": 111
      },
      "id": 36
    },
    {
      "type": "Feature",
      "geometry": {
        "type": "Point",
        "coordinates": [
          -73.900883,
          40.884671
        ]
      },
      "properties": {
        "id": 37,
        "name": "238 St",
        "line": "NewYorkSubway1",
        "order": 114
      },
      "id": 37
    },
    {
      "type": "Feature",
      "geometry": {
        "type": "Point",
        "coordinates": [
          -73.898583,
          40.889248
        ]
      },
      "properties": {
        "id": 38,
        "name": "Van Cortlandt Park - 242 St",
        "line": "NewYorkSubway1",
        "order": 116
      },
      "id": 38
    },
    {
      "type": "Feature",
      "geometry": {
        "type": "Point",
        "coordinates": [
          -73.947642,
          40.632836
        ]
      },
      "properties": {
        "id": 39,
        "name": "Flatbush Av - Brooklyn College",
        "line": "NewYorkSubway2",
        "order": 0
      },
      "id": 39
    },
    {
      "type": "Feature",
      "geometry": {
        "type": "Point",
        "coordinates": [
          -73.948404,
          40.639967
        ]
      },
      "properties": {
        "id": 40,
        "name": "Newkirk Av",
        "line": "NewYorkSubway2",
        "order": 1
      },
      "id": 40
    },
    {
      "type": "Feature",
      "geometry": {
        "type": "Point",
        "coordinates": [
          -73.948953,
          40.645098
        ]
      },
      "properties": {
        "id": 41,
        "name": "Beverly Rd",
        "line": "NewYorkSubway2",
        "order": 2
      },
      "id": 41
    },
    {
      "type": "Feature",
      "geometry": {
        "type": "Point",
        "coordinates": [
          -73.949567,
          40.650843
        ]
      },
      "properties": {
        "id": 42,
        "name": "Church Av",
        "line": "NewYorkSubway2",
        "order": 3
      },
      "id": 42
    },
    {
      "type": "Feature",
      "geometry": {
        "type": "Point",
        "coordinates": [
          -73.950189,
          40.656653
        ]
      },
      "properties": {
        "id": 43,
        "name": "Winthrop St",
        "line": "NewYorkSubway2",
        "order": 4
      },
      "id": 43
    },
    {
      "type": "Feature",
      "geometry": {
        "type": "Point",
        "coordinates": [
          -73.95084,
          40.662743
        ]
      },
      "properties": {
        "id": 44,
        "name": "Sterling St",
        "line": "NewYorkSubway2",
        "order": 5
      },
      "id": 44
    },
    {
      "type": "Feature",
      "geometry": {
        "type": "Point",
        "coordinates": [
          -73.950684,
          40.667883
        ]
      },
      "properties": {
        "id": 45,
        "name": "President St - Medgar Evers College",
        "line": "NewYorkSubway2",
        "order": 8,
        "alternate_names": [
          "President St"
        ]
      },
      "id": 45
    },
    {
      "type": "Feature",
      "geometry": {
        "type": "Point",
        "coordinates": [
          -73.958129,
          40.670688
        ]
      },
      "properties": {
        "id": 46,
        "name": "Franklin Av - Medgar Evers College",
        "line": "NewYorkSubway2",
        "order": 19,
        "alternate_names": [
          "Franklin Av"
        ]
      },
      "id": 46
    },
    {
      "type": "Feature",
      "geometry": {
        "type": "Point",
        "coordinates": [
          -73.964375,
          40.671987
        ]
      },
      "properties": {
        "id": 47,
        "name": "Eastern Pkwy - Brooklyn Museum",
        "line": "NewYorkSubway2",
        "order": 20
      },
      "id": 47
    },
    {
      "type": "Feature",
      "geometry": {
        "type": "Point",
        "coordinates": [
          -73.971046,
          40.675235
        ]
      },
      "properties": {
        "id": 48,
        "name": "Grand Army Plaza",
        "line": "NewYorkSubway2",
        "order": 27
      },
      "id": 48
    },
    {
      "type": "Feature",
      "geometry": {
        "type": "Point",
        "coordinates": [
          -73.975104,
          40.680827
        ]
      },
      "properties": {
        "id": 49,
        "name": "Bergen St",
        "line": "NewYorkSubway2",
        "order": 29
      },
      "id": 49
    },
    {
      "type": "Feature",
      "geometry": {
        "type": "Point",
        "coordinates": [
          -73.977667,
          40.684359
        ]
      },
      "properties": {
        "id": 50,
        "name": "Atlantic Av - Barclays Ctr",
        "line": "NewYorkSubway2",
        "order": 30
      },
      "id": 50
    },
    {
      "type": "Feature",
      "geometry": {
        "type": "Point",
        "coordinates": [
          -73.980489,
          40.688247
        ]
      },
      "properties": {
        "id": 51,
        "name": "Nevins St",
        "line": "NewYorkSubway2",
        "order": 31
      },
      "id": 51
    },
    {
      "type": "Feature",
      "geometry": {
        "type": "Point",
        "coordinates": [
          -73.985065,
          40.690545
        ]
      },
      "properties": {
        "id": 52,
        "name": "Hoyt St",
        "line": "NewYorkSubway2",
        "order": 35
      },
      "id": 52
    },
    {
      "type": "Feature",
      "geometry": {
        "type": "Point",
        "coordinates": [
          -73.989993,
          40.693221
        ]
      },
      "properties": {
        "id": 53,
        "name": "Borough Hall",
        "line": "NewYorkSubway2",
        "order": 40
      },
      "id": 53
    },
    {
      "type": "Feature",
      "geometry": {
        "type": "Point",
        "coordinates": [
          -73.993082,
          40.697474
        ]
      },
      "properties": {
        "id": 54,
        "name": "Clark St",
        "line": "NewYorkSubway2",
        "order": 46
      },
      "id": 54
    },
    {
      "type": "Feature",
      "geometry": {
        "type": "Point",
        "coordinates": [
          -74.009167,
          40.70672
        ]
      },
      "properties": {
        "id": 55,
        "name": "Wall St",
        "line": "NewYorkSubway2",
        "order": 60
      },
      "id": 55
    },
    {
      "type": "Feature",
      "geometry": {
        "type": "Point",
        "coordinates": [
          -74.006583,
          40.709423
        ]
      },
      "properties": {
        "id": 56,
        "name": "Fulton St",
        "line": "NewYorkSubway2",
        "order": 62
      },
      "id": 56
    },
    {
      "type": "Feature",
      "geometry": {
        "type": "Point",
        "coordinates": [
          -74.008812,
          40.71305
        ]
      },
      "properties": {
        "id": 57,
        "name": "Park Pl",
        "line": "NewYorkSubway2",
        "order": 71
      },
      "id": 57
    },
    {
      "type": "Feature",
      "geometry": {
        "type": "Point",
        "coordinates": [
          -74.009264,
          40.715477
        ]
      },
      "properties": {
        "id": 58,
        "name": "Chambers St",
        "line": "NewYorkSubway2",
        "order": 78
      },
      "id": 58
    },
    {
      "type": "Feature",
      "geometry": {
        "type": "Point",
        "coordinates": [
          -74.000198,
          40.737825
        ]
      },
      "properties": {
        "id": 59,
        "name": "14 St",
        "line": "NewYorkSubway2",
        "order": 87
      },
      "id": 59
    },
    {
      "type": "Feature",
      "geometry": {
        "type": "Point",
        "coordinates": [
          -73.991057,
          40.750373
        ]
      },
      "properties": {
        "id": 60,
        "name": "34 St - Penn Station",
        "line": "NewYorkSubway2",
        "order": 88
      },
      "id": 60
    },
    {
      "type": "Feature",
      "geometry": {
        "type": "Point",
        "coordinates": [
          -73.987491,
          40.755288
        ]
      },
      "properties": {
        "id": 61,
        "name": "Times Sq - 42 St",
        "line": "NewYorkSubway2",
        "order": 90
      },
      "id": 61
    },
    {
      "type": "Feature",
      "geometry": {
        "type": "Point",
        "coordinates": [
          -73.98197,
          40.778453
        ]
      },
      "properties": {
        "id": 62,
        "name": "72 St",
        "line": "NewYorkSubway2",
        "order": 107
      },
      "id": 62
    },
    {
      "type": "Feature",
      "geometry": {
        "type": "Point",
        "coordinates": [
          -73.972324,
          40.793919
        ]
      },
      "properties": {
        "id": 63,
        "name": "96 St",
        "line": "NewYorkSubway2",
        "order": 116
      },
      "id": 63
    },
    {
      "type": "Feature",
      "geometry": {
        "type": "Point",
        "coordinates": [
          -73.952174,
          40.798665
        ]
      },
      "properties": {
        "id": 64,
        "name": "110 St - Malcolm X Plaza",
        "line": "NewYorkSubway2",
        "order": 136,
        "alternate_names": [
          "Central Park North - 110 St"
        ]
      },
      "id": 64
    },
    {
      "type": "Feature",
      "geometry": {
        "type": "Point",
        "coordinates": [
          -73.94962,
          40.802096
        ]
      },
      "properties": {
        "id": 65,
        "name": "116 St",
        "line": "NewYorkSubway2",
        "order": 139
      },
      "id": 65
    },
    {
      "type": "Feature",
      "geometry": {
        "type": "Point",
        "coordinates": [
          -73.945495,
          40.807754
        ]
      },
      "properties": {
        "id": 66,
        "name": "125 St - Lenox Av",
        "line": "NewYorkSubway2",
        "order": 140,
        "alternate_names": [
          "125 St",
          "Lenox Av"
        ]
      },
      "id": 66
    },
    {
      "type": "Feature",
      "geometry": {
        "type": "Point",
        "coordinates": [
          -73.940773,
          40.81423
        ]
      },
      "properties": {
        "id": 67,
        "name": "135 St",
        "line": "NewYorkSubway2",
        "order": 141
      },
      "id": 67
    },
    {
      "type": "Feature",
      "geometry": {
        "type": "Point",
        "coordinates": [
          -73.926716,
          40.818413
        ]
      },
      "properties": {
        "id": 68,
        "name": "149 St - Hostos",
        "line": "NewYorkSubway2",
        "order": 153,
        "alternate_names": [
          "149 St - Grand Concourse"
        ]
      },
      "id": 68
    },
    {
      "type": "Feature",
      "geometry": {
        "type": "Point",
        "coordinates": [
          -73.917757,
          40.816109
        ]
      },
      "properties": {
        "id": 69,
        "name": "3 Av - 149 St",
        "line": "NewYorkSubway2",
        "order": 154
      },
      "id": 69
    },
    {
      "type": "Feature",
      "geometry": {
        "type": "Point",
        "coordinates": [
          -73.907813,
          40.816496
        ]
      },
      "properties": {
        "id": 70,
        "name": "Jackson Av",
        "line": "NewYorkSubway2",
        "order": 172
      },
      "id": 70
    },
    {
      "type": "Feature",
      "geometry": {
        "type": "Point",
        "coordinates": [
          -73.901773,
          40.819588
        ]
      },
      "properties": {
        "id": 71,
        "name": "Prospect Av",
        "line": "NewYorkSubway2",
        "order": 175
      },
      "id": 71
    },
    {
      "type": "Feature",
      "geometry": {
        "type": "Point",
        "coordinates": [
          -73.896736,
          40.822182
        ]
      },
      "properties": {
        "id": 72,
        "name": "Intervale Av",
        "line": "NewYorkSubway2",
        "order": 176
      },
      "id": 72
    },
    {
      "type": "Feature",
      "geometry": {
        "type": "Point",
        "coordinates": [
          -73.893064,
          40.824073
        ]
      },
      "properties": {
        "id": 73,
        "name": "Simpson St",
        "line": "NewYorkSubway2",
        "order": 177
      },
      "id": 73
    },
    {
      "type": "Feature",
      "geometry": {
        "type": "Point",
        "coordinates": [
          -73.891857,
          40.829992
        ]
      },
      "properties": {
        "id": 74,
        "name": "Freeman St",
        "line": "NewYorkSubway2",
        "order": 183
      },
      "id": 74
    },
    {
      "type": "Feature",
      "geometry": {
        "type": "Point",
        "coordinates": [
          -73.88773,
          40.837285
        ]
      },
      "properties": {
        "id": 75,
        "name": "174 St",
        "line": "NewYorkSubway2",
        "order": 189
      },
      "id": 75
    },
    {
      "type": "Feature",
      "geometry": {
        "type": "Point",
        "coordinates": [
          -73.880049,
          40.840295
        ]
      },
      "properties": {
        "id": 76,
        "name": "West Farms Sq - E Tremont Av",
        "line": "NewYorkSubway2",
        "order": 203
      },
      "id": 76
    },
    {
      "type": "Feature",
      "geometry": {
        "type": "Point",
        "coordinates": [
          -73.87349,
          40.841895
        ]
      },
      "properties": {
        "id": 77,
        "name": "E 180 St",
        "line": "NewYorkSubway2",
        "order": 219
      },
      "id": 77
    },
    {
      "type": "Feature",
      "geometry": {
        "type": "Point",
        "coordinates": [
          -73.868454,
          40.848827
        ]
      },
      "properties": {
        "id": 78,
        "name": "Bronx Park East",
        "line": "NewYorkSubway2",
        "order": 225
      },
      "id": 78
    },
    {
      "type": "Feature",
      "geometry": {
        "type": "Point",
        "coordinates": [
          -73.86762,
          40.857192
        ]
      },
      "properties": {
        "id": 79,
        "name": "Pelham Pkwy",
        "line": "NewYorkSubway2",
        "order": 229
      },
      "id": 79
    },
    {
      "type": "Feature",
      "geometry": {
        "type": "Point",
        "coordinates": [
          -73.867357,
          40.865462
        ]
      },
      "properties": {
        "id": 80,
        "name": "Allerton Av",
        "line": "NewYorkSubway2",
        "order": 230
      },
      "id": 80
    },
    {
      "type": "Feature",
      "geometry": {
        "type": "Point",
        "coordinates": [
          -73.86717,
          40.871356
        ]
      },
      "properties": {
        "id": 81,
        "name": "Burke Av",
        "line": "NewYorkSubway2",
        "order": 231
      },
      "id": 81
    },
    {
      "type": "Feature",
      "geometry": {
        "type": "Point",
        "coordinates": [
          -73.866252,
          40.877848
        ]
      },
      "properties": {
        "id": 82,
        "name": "Gun Hill Rd",
        "line": "NewYorkSubway2",
        "order": 235
      },
      "id": 82
    },
    {
      "type": "Feature",
      "geometry": {
        "type": "Point",
        "coordinates": [
          -73.862637,
          40.883896
        ]
      },
      "properties": {
        "id": 83,
        "name": "219 St",
        "line": "NewYorkSubway2",
        "order": 237
      },
      "id": 83
    },
    {
      "type": "Feature",
      "geometry": {
        "type": "Point",
        "coordinates": [
          -73.860349,
          40.888025
        ]
      },
      "properties": {
        "id": 84,
        "name": "225 St",
        "line": "NewYorkSubway2",
        "order": 238
      },
      "id": 84
    },
    {
      "type": "Feature",
      "geometry": {
        "type": "Point",
        "coordinates": [
          -73.857483,
          40.893196
        ]
      },
      "properties": {
        "id": 85,
        "name": "233 St",
        "line": "NewYorkSubway2",
        "order": 239
      },
      "id": 85
    },
    {
      "type": "Feature",
      "geometry": {
        "type": "Point",
        "coordinates": [
          -73.854377,
          40.898379
        ]
      },
      "properties": {
        "id": 86,
        "name": "Nereid Av",
        "line": "NewYorkSubway2",
        "order": 242
      },
      "id": 86
    },
    {
      "type": "Feature",
      "geometry": {
        "type": "Point",
        "coordinates": [
          -73.85062,
          40.903125
        ]
      },
      "properties": {
        "id": 87,
        "name": "Wakefield - 241 St",
        "line": "NewYorkSubway2",
        "order": 245
      },
      "id": 87
    },
    {
      "type": "Feature",
      "geometry": {
        "type": "Point",
        "coordinates": [
          -73.93647,
          40.82388
        ]
      },
      "properties": {
        "id": 149,
        "name": "Harlem - 148 St",
        "line": "NewYorkSubway3",
        "order": 0
      },
      "id": 149
    },
    {
      "type": "Feature",
      "geometry": {
        "type": "Point",
        "coordinates": [
          -73.936245,
          40.820421
        ]
      },
      "properties": {
        "id": 150,
        "name": "145 St",
        "line": "NewYorkSubway3",
        "order": 8
      },
      "id": 150
    },
    {
      "type": "Feature",
      "geometry": {
        "type": "Point",
        "coordinates": [
          -73.940765,
          40.814227
        ]
      },
      "properties": {
        "id": 151,
        "name": "135 St",
        "line": "NewYorkSubway3",
        "order": 10
      },
      "id": 151
    },
    {
      "type": "Feature",
      "geometry": {
        "type": "Point",
        "coordinates": [
          -73.945495,
          40.807754
        ]
      },
      "properties": {
        "id": 152,
        "name": "125 St - Lenox Av",
        "line": "NewYorkSubway3",
        "order": 11,
        "alternate_names": [
          "125 St",
          "Lenox Av"
        ]
      },
      "id": 152
    },
    {
      "type": "Feature",
      "geometry": {
        "type": "Point",
        "coordinates": [
          -73.949618,
          40.802095
        ]
      },
      "properties": {
        "id": 153,
        "name": "116 St",
        "line": "NewYorkSubway3",
        "order": 12
      },
      "id": 153
    },
    {
      "type": "Feature",
      "geometry": {
        "type": "Point",
        "coordinates": [
          -73.952174,
          40.798665
        ]
      },
      "properties": {
        "id": 154,
        "name": "110 St - Malcolm X Plaza",
        "line": "NewYorkSubway3",
        "order": 15,
        "alternate_names": [
          "Central Park North - 110 St"
        ]
      },
      "id": 154
    },
    {
      "type": "Feature",
      "geometry": {
        "type": "Point",
        "coordinates": [
          -73.972127,
          40.794189
        ]
      },
      "properties": {
        "id": 155,
        "name": "96 St",
        "line": "NewYorkSubway3",
        "order": 34
      },
      "id": 155
    },
    {
      "type": "Feature",
      "geometry": {
        "type": "Point",
        "coordinates": [
          -73.981965,
          40.778453
        ]
      },
      "properties": {
        "id": 156,
        "name": "72 St",
        "line": "NewYorkSubway3",
        "order": 43
      },
      "id": 156
    },
    {
      "type": "Feature",
      "geometry": {
        "type": "Point",
        "coordinates": [
          -73.986834,
          40.756197
        ]
      },
      "properties": {
        "id": 157,
        "name": "Times Sq - 42 St",
        "line": "NewYorkSubway3",
        "order": 60
      },
      "id": 157
    },
    {
      "type": "Feature",
      "geometry": {
        "type": "Point",
        "coordinates": [
          -73.991068,
          40.750378
        ]
      },
      "properties": {
        "id": 158,
        "name": "34 St - Penn Station",
        "line": "NewYorkSubway3",
        "order": 62
      },
      "id": 158
    },
    {
      "type": "Feature",
      "geometry": {
        "type": "Point",
        "coordinates": [
          -74.000199,
          40.737825
        ]
      },
      "properties": {
        "id": 159,
        "name": "14 St",
        "line": "NewYorkSubway3",
        "order": 63
      },
      "id": 159
    },
    {
      "type": "Feature",
      "geometry": {
        "type": "Point",
        "coordinates": [
          -74.009264,
          40.715477
        ]
      },
      "properties": {
        "id": 160,
        "name": "Chambers St",
        "line": "NewYorkSubway3",
        "order": 72
      },
      "id": 160
    },
    {
      "type": "Feature",
      "geometry": {
        "type": "Point",
        "coordinates": [
          -74.008812,
          40.71305
        ]
      },
      "properties": {
        "id": 161,
        "name": "Park Pl",
        "line": "NewYorkSubway3",
        "order": 79
      },
      "id": 161
    },
    {
      "type": "Feature",
      "geometry": {
        "type": "Point",
        "coordinates": [
          -74.006472,
          40.709535
        ]
      },
      "properties": {
        "id": 162,
        "name": "Fulton St",
        "line": "NewYorkSubway3",
        "order": 88
      },
      "id": 162
    },
    {
      "type": "Feature",
      "geometry": {
        "type": "Point",
        "coordinates": [
          -74.009177,
          40.706725
        ]
      },
      "properties": {
        "id": 163,
        "name": "Wall St",
        "line": "NewYorkSubway3",
        "order": 92
      },
      "id": 163
    },
    {
      "type": "Feature",
      "geometry": {
        "type": "Point",
        "coordinates": [
          -73.993082,
          40.697474
        ]
      },
      "properties": {
        "id": 164,
        "name": "Clark St",
        "line": "NewYorkSubway3",
        "order": 106
      },
      "id": 164
    },
    {
      "type": "Feature",
      "geometry": {
        "type": "Point",
        "coordinates": [
          -73.989993,
          40.693221
        ]
      },
      "properties": {
        "id": 165,
        "name": "Borough Hall",
        "line": "NewYorkSubway3",
        "order": 112
      },
      "id": 165
    },
    {
      "type": "Feature",
      "geometry": {
        "type": "Point",
        "coordinates": [
          -73.985065,
          40.690545
        ]
      },
      "properties": {
        "id": 166,
        "name": "Hoyt St",
        "line": "NewYorkSubway3",
        "order": 117
      },
      "id": 166
    },
    {
      "type": "Feature",
      "geometry": {
        "type": "Point",
        "coordinates": [
          -73.980489,
          40.688247
        ]
      },
      "properties": {
        "id": 167,
        "name": "Nevins St",
        "line": "NewYorkSubway3",
        "order": 121
      },
      "id": 167
    },
    {
      "type": "Feature",
      "geometry": {
        "type": "Point",
        "coordinates": [
          -73.977667,
          40.684359
        ]
      },
      "properties": {
        "id": 168,
        "name": "Atlantic Av - Barclays Ctr",
        "line": "NewYorkSubway3",
        "order": 122
      },
      "id": 168
    },
    {
      "type": "Feature",
      "geometry": {
        "type": "Point",
        "coordinates": [
          -73.975104,
          40.680827
        ]
      },
      "properties": {
        "id": 169,
        "name": "Bergen St",
        "line": "NewYorkSubway3",
        "order": 123
      },
      "id": 169
    },
    {
      "type": "Feature",
      "geometry": {
        "type": "Point",
        "coordinates": [
          -73.971046,
          40.675235
        ]
      },
      "properties": {
        "id": 170,
        "name": "Grand Army Plaza",
        "line": "NewYorkSubway3",
        "order": 124
      },
      "id": 170
    },
    {
      "type": "Feature",
      "geometry": {
        "type": "Point",
        "coordinates": [
          -73.964375,
          40.671987
        ]
      },
      "properties": {
        "id": 171,
        "name": "Eastern Pkwy - Brooklyn Museum",
        "line": "NewYorkSubway3",
        "order": 131
      },
      "id": 171
    },
    {
      "type": "Feature",
      "geometry": {
        "type": "Point",
        "coordinates": [
          -73.958129,
          40.670688
        ]
      },
      "properties": {
        "id": 172,
        "name": "Franklin Av - Medgar Evers College",
        "line": "NewYorkSubway3",
        "order": 133,
        "alternate_names": [
          "Franklin Av"
        ]
      },
      "id": 172
    },
    {
      "type": "Feature",
      "geometry": {
        "type": "Point",
        "coordinates": [
          -73.950465,
          40.669856
        ]
      },
      "properties": {
        "id": 173,
        "name": "Nostrand Av",
        "line": "NewYorkSubway3",
        "order": 136
      },
      "id": 173
    },
    {
      "type": "Feature",
      "geometry": {
        "type": "Point",
        "coordinates": [
          -73.942161,
          40.669403
        ]
      },
      "properties": {
        "id": 174,
        "name": "Kingston Av",
        "line": "NewYorkSubway3",
        "order": 137
      },
      "id": 174
    },
    {
      "type": "Feature",
      "geometry": {
        "type": "Point",
        "coordinates": [
          -73.932942,
          40.6689
        ]
      },
      "properties": {
        "id": 175,
        "name": "Crown Hts - Utica Av",
        "line": "NewYorkSubway3",
        "order": 138
      },
      "id": 175
    },
    {
      "type": "Feature",
      "geometry": {
        "type": "Point",
        "coordinates": [
          -73.922608,
          40.664719
        ]
      },
      "properties": {
        "id": 176,
        "name": "Sutter Av - Rutland Rd",
        "line": "NewYorkSubway3",
        "order": 147
      },
      "id": 176
    },
    {
      "type": "Feature",
      "geometry": {
        "type": "Point",
        "coordinates": [
          -73.916326,
          40.661451
        ]
      },
      "properties": {
        "id": 177,
        "name": "Saratoga Av",
        "line": "NewYorkSubway3",
        "order": 154
      },
      "id": 177
    },
    {
      "type": "Feature",
      "geometry": {
        "type": "Point",
        "coordinates": [
          -73.908945,
          40.662546
        ]
      },
      "properties": {
        "id": 178,
        "name": "Rockaway Av",
        "line": "NewYorkSubway3",
        "order": 155
      },
      "id": 178
    },
    {
      "type": "Feature",
      "geometry": {
        "type": "Point",
        "coordinates": [
          -73.902446,
          40.66351
        ]
      },
      "properties": {
        "id": 179,
        "name": "Junius St",
        "line": "NewYorkSubway3",
        "order": 156
      },
      "id": 179
    },
    {
      "type": "Feature",
      "geometry": {
        "type": "Point",
        "coordinates": [
          -73.894894,
          40.664631
        ]
      },
      "properties": {
        "id": 180,
        "name": "Pennsylvania Av",
        "line": "NewYorkSubway3",
        "order": 157
      },
      "id": 180
    },
    {
      "type": "Feature",
      "geometry": {
        "type": "Point",
        "coordinates": [
          -73.889394,
          40.665446
        ]
      },
      "properties": {
        "id": 181,
        "name": "Van Siclen Av",
        "line": "NewYorkSubway3",
        "order": 158
      },
      "id": 181
    },
    {
      "type": "Feature",
      "geometry": {
        "type": "Point",
        "coordinates": [
          -73.884079,
          40.666235
        ]
      },
      "properties": {
        "id": 182,
        "name": "New Lots Av",
        "line": "NewYorkSubway3",
        "order": 159
      },
      "id": 182
    },
    {
      "type": "Feature",
      "geometry": {
        "type": "Point",
        "coordinates": [
          -73.878751,
          40.886037
        ]
      },
      "properties": {
        "id": 183,
        "name": "Woodlawn",
        "line": "NewYorkSubway4",
        "order": 0
      },
      "id": 183
    },
    {
      "type": "Feature",
      "geometry": {
        "type": "Point",
        "coordinates": [
          -73.884656,
          40.87975
        ]
      },
      "properties": {
        "id": 184,
        "name": "Mosholu Pkwy",
        "line": "NewYorkSubway4",
        "order": 4
      },
      "id": 184
    },
    {
      "type": "Feature",
      "geometry": {
        "type": "Point",
        "coordinates": [
          -73.890064,
          40.873412
        ]
      },
      "properties": {
        "id": 185,
        "name": "Bedford Park Blvd - Lehman College",
        "line": "NewYorkSubway4",
        "order": 11
      },
      "id": 185
    },
    {
      "type": "Feature",
      "geometry": {
        "type": "Point",
        "coordinates": [
          -73.897176,
          40.867761
        ]
      },
      "properties": {
        "id": 186,
        "name": "Kingsbridge Rd",
        "line": "NewYorkSubway4",
        "order": 19
      },
      "id": 186
    },
    {
      "type": "Feature",
      "geometry": {
        "type": "Point",
        "coordinates": [
          -73.901032,
          40.862802
        ]
      },
      "properties": {
        "id": 187,
        "name": "Fordham Rd",
        "line": "NewYorkSubway4",
        "order": 20
      },
      "id": 187
    },
    {
      "type": "Feature",
      "geometry": {
        "type": "Point",
        "coordinates": [
          -73.903869,
          40.858403
        ]
      },
      "properties": {
        "id": 188,
        "name": "183 St",
        "line": "NewYorkSubway4",
        "order": 22
      },
      "id": 188
    },
    {
      "type": "Feature",
      "geometry": {
        "type": "Point",
        "coordinates": [
          -73.907686,
          40.853454
        ]
      },
      "properties": {
        "id": 189,
        "name": "Burnside Av",
        "line": "NewYorkSubway4",
        "order": 26
      },
      "id": 189
    },
    {
      "type": "Feature",
      "geometry": {
        "type": "Point",
        "coordinates": [
          -73.911785,
          40.848476
        ]
      },
      "properties": {
        "id": 190,
        "name": "176 St",
        "line": "NewYorkSubway4",
        "order": 28
      },
      "id": 190
    },
    {
      "type": "Feature",
      "geometry": {
        "type": "Point",
        "coordinates": [
          -73.91468,
          40.844432
        ]
      },
      "properties": {
        "id": 191,
        "name": "Mt Eden Av",
        "line": "NewYorkSubway4",
        "order": 29
      },
      "id": 191
    },
    {
      "type": "Feature",
      "geometry": {
        "type": "Point",
        "coordinates": [
          -73.917796,
          40.840077
        ]
      },
      "properties": {
        "id": 192,
        "name": "170 St",
        "line": "NewYorkSubway4",
        "order": 30
      },
      "id": 192
    },
    {
      "type": "Feature",
      "geometry": {
        "type": "Point",
        "coordinates": [
          -73.921388,
          40.835533
        ]
      },
      "properties": {
        "id": 193,
        "name": "167 St",
        "line": "NewYorkSubway4",
        "order": 36
      },
      "id": 193
    },
    {
      "type": "Feature",
      "geometry": {
        "type": "Point",
        "coordinates": [
          -73.925834,
          40.827995
        ]
      },
      "properties": {
        "id": 194,
        "name": "161 St - Yankee Stadium",
        "line": "NewYorkSubway4",
        "order": 37
      },
      "id": 194
    },
    {
      "type": "Feature",
      "geometry": {
        "type": "Point",
        "coordinates": [
          -73.927269,
          40.818558
        ]
      },
      "properties": {
        "id": 195,
        "name": "149 St - Hostos",
        "line": "NewYorkSubway4",
        "order": 47,
        "alternate_names": [
          "149 St - Grand Concourse"
        ]
      },
      "id": 195
    },
    {
      "type": "Feature",
      "geometry": {
        "type": "Point",
        "coordinates": [
          -73.929849,
          40.813224
        ]
      },
      "properties": {
        "id": 196,
        "name": "138 St - Grand Concourse",
        "line": "NewYorkSubway4",
        "order": 52
      },
      "id": 196
    },
    {
      "type": "Feature",
      "geometry": {
        "type": "Point",
        "coordinates": [
          -73.937592,
          40.804137
        ]
      },
      "properties": {
        "id": 197,
        "name": "125 St",
        "line": "NewYorkSubway4",
        "order": 56
      },
      "id": 197
    },
    {
      "type": "Feature",
      "geometry": {
        "type": "Point",
        "coordinates": [
          -73.955585,
          40.77949
        ]
      },
      "properties": {
        "id": 202,
        "name": "86 St",
        "line": "NewYorkSubway4",
        "order": 61
      },
      "id": 202
    },
    {
      "type": "Feature",
      "geometry": {
        "type": "Point",
        "coordinates": [
          -73.96773,
          40.76285
        ]
      },
      "properties": {
        "id": 205,
        "name": "Lexington Av/59 St",
        "line": "NewYorkSubway4",
        "order": 64,
        "alternate_names": [
          "59 St Lexington Av"
        ]
      },
      "id": 205
    },
    {
      "type": "Feature",
      "geometry": {
        "type": "Point",
        "coordinates": [
          -73.976851,
          40.751783
        ]
      },
      "properties": {
        "id": 207,
        "name": "Grand Central - 42 St",
        "line": "NewYorkSubway4",
        "order": 70,
        "alternate_names": [
          "Grand Central",
          "Grand Central Madison"
        ]
      },
      "id": 207
    },
    {
      "type": "Feature",
      "geometry": {
        "type": "Point",
        "coordinates": [
          -73.989938,
          40.734674
        ]
      },
      "properties": {
        "id": 211,
        "name": "14 St - Union Sq",
        "line": "NewYorkSubway4",
        "order": 80
      },
      "id": 211
    },
    {
      "type": "Feature",
      "geometry": {
        "type": "Point",
        "coordinates": [
          -74.004131,
          40.713065
        ]
      },
      "properties": {
        "id": 216,
        "name": "Brooklyn Bridge - City Hall",
        "line": "NewYorkSubway4",
        "order": 106
      },
      "id": 216
    },
    {
      "type": "Feature",
      "geometry": {
        "type": "Point",
        "coordinates": [
          -74.009042,
          40.710905
        ]
      },
      "properties": {
        "id": 217,
        "name": "Fulton St",
        "line": "NewYorkSubway4",
        "order": 114
      },
      "id": 217
    },
    {
      "type": "Feature",
      "geometry": {
        "type": "Point",
        "coordinates": [
          -74.011865,
          40.707558
        ]
      },
      "properties": {
        "id": 218,
        "name": "Wall St",
        "line": "NewYorkSubway4",
        "order": 117
      },
      "id": 218
    },
    {
      "type": "Feature",
      "geometry": {
        "type": "Point",
        "coordinates": [
          -74.014059,
          40.704815
        ]
      },
      "properties": {
        "id": 219,
        "name": "Bowling Green",
        "line": "NewYorkSubway4",
        "order": 120
      },
      "id": 219
    },
    {
      "type": "Feature",
      "geometry": {
        "type": "Point",
        "coordinates": [
          -73.990209,
          40.692414
        ]
      },
      "properties": {
        "id": 220,
        "name": "Borough Hall",
        "line": "NewYorkSubway4",
        "order": 134
      },
      "id": 220
    },
    {
      "type": "Feature",
      "geometry": {
        "type": "Point",
        "coordinates": [
          -73.980489,
          40.688247
        ]
      },
      "properties": {
        "id": 221,
        "name": "Nevins St",
        "line": "NewYorkSubway4",
        "order": 142
      },
      "id": 221
    },
    {
      "type": "Feature",
      "geometry": {
        "type": "Point",
        "coordinates": [
          -73.977667,
          40.684359
        ]
      },
      "properties": {
        "id": 222,
        "name": "Atlantic Av - Barclays Ctr",
        "line": "NewYorkSubway4",
        "order": 143
      },
      "id": 222
    },
    {
      "type": "Feature",
      "geometry": {
        "type": "Point",
        "coordinates": [
          -73.975104,
          40.680827
        ]
      },
      "properties": {
        "id": 223,
        "name": "Bergen St",
        "line": "NewYorkSubway4",
        "order": 144
      },
      "id": 223
    },
    {
      "type": "Feature",
      "geometry": {
        "type": "Point",
        "coordinates": [
          -73.971046,
          40.675235
        ]
      },
      "properties": {
        "id": 224,
        "name": "Grand Army Plaza",
        "line": "NewYorkSubway4",
        "order": 145
      },
      "id": 224
    },
    {
      "type": "Feature",
      "geometry": {
        "type": "Point",
        "coordinates": [
          -73.964375,
          40.671987
        ]
      },
      "properties": {
        "id": 225,
        "name": "Eastern Pkwy - Brooklyn Museum",
        "line": "NewYorkSubway4",
        "order": 152
      },
      "id": 225
    },
    {
      "type": "Feature",
      "geometry": {
        "type": "Point",
        "coordinates": [
          -73.958129,
          40.670688
        ]
      },
      "properties": {
        "id": 226,
        "name": "Franklin Av - Medgar Evers College",
        "line": "NewYorkSubway4",
        "order": 154,
        "alternate_names": [
          "Franklin Av"
        ]
      },
      "id": 226
    },
    {
      "type": "Feature",
      "geometry": {
        "type": "Point",
        "coordinates": [
          -73.950465,
          40.669856
        ]
      },
      "properties": {
        "id": 227,
        "name": "Nostrand Av",
        "line": "NewYorkSubway4",
        "order": 157
      },
      "id": 227
    },
    {
      "type": "Feature",
      "geometry": {
        "type": "Point",
        "coordinates": [
          -73.942161,
          40.669403
        ]
      },
      "properties": {
        "id": 228,
        "name": "Kingston Av",
        "line": "NewYorkSubway4",
        "order": 158
      },
      "id": 228
    },
    {
      "type": "Feature",
      "geometry": {
        "type": "Point",
        "coordinates": [
          -73.932942,
          40.6689
        ]
      },
      "properties": {
        "id": 229,
        "name": "Crown Hts - Utica Av",
        "line": "NewYorkSubway4",
        "order": 159
      },
      "id": 229
    },
    {
      "type": "Feature",
      "geometry": {
        "type": "Point",
        "coordinates": [
          -73.830834,
          40.8883
        ]
      },
      "properties": {
        "id": 237,
        "name": "Eastchester - Dyre Av",
        "line": "NewYorkSubway5",
        "order": 0
      },
      "id": 237
    },
    {
      "type": "Feature",
      "geometry": {
        "type": "Point",
        "coordinates": [
          -73.838598,
          40.878666
        ]
      },
      "properties": {
        "id": 238,
        "name": "Baychester Av",
        "line": "NewYorkSubway5",
        "order": 4
      },
      "id": 238
    },
    {
      "type": "Feature",
      "geometry": {
        "type": "Point",
        "coordinates": [
          -73.846382,
          40.869525
        ]
      },
      "properties": {
        "id": 239,
        "name": "Gun Hill Rd",
        "line": "NewYorkSubway5",
        "order": 5
      },
      "id": 239
    },
    {
      "type": "Feature",
      "geometry": {
        "type": "Point",
        "coordinates": [
          -73.855358,
          40.858984
        ]
      },
      "properties": {
        "id": 240,
        "name": "Pelham Pkwy",
        "line": "NewYorkSubway5",
        "order": 6
      },
      "id": 240
    },
    {
      "type": "Feature",
      "geometry": {
        "type": "Point",
        "coordinates": [
          -73.860497,
          40.854365
        ]
      },
      "properties": {
        "id": 241,
        "name": "Morris Park",
        "line": "NewYorkSubway5",
        "order": 10
      },
      "id": 241
    },
    {
      "type": "Feature",
      "geometry": {
        "type": "Point",
        "coordinates": [
          -73.87349,
          40.841895
        ]
      },
      "properties": {
        "id": 242,
        "name": "E 180 St",
        "line": "NewYorkSubway5",
        "order": 19
      },
      "id": 242
    },
    {
      "type": "Feature",
      "geometry": {
        "type": "Point",
        "coordinates": [
          -73.880049,
          40.840295
        ]
      },
      "properties": {
        "id": 243,
        "name": "West Farms Sq - E Tremont Av",
        "line": "NewYorkSubway5",
        "order": 34
      },
      "id": 243
    },
    {
      "type": "Feature",
      "geometry": {
        "type": "Point",
        "coordinates": [
          -73.887734,
          40.837288
        ]
      },
      "properties": {
        "id": 244,
        "name": "174 St",
        "line": "NewYorkSubway5",
        "order": 49
      },
      "id": 244
    },
    {
      "type": "Feature",
      "geometry": {
        "type": "Point",
        "coordinates": [
          -73.891857,
          40.829992
        ]
      },
      "properties": {
        "id": 245,
        "name": "Freeman St",
        "line": "NewYorkSubway5",
        "order": 56
      },
      "id": 245
    },
    {
      "type": "Feature",
      "geometry": {
        "type": "Point",
        "coordinates": [
          -73.893069,
          40.824079
        ]
      },
      "properties": {
        "id": 246,
        "name": "Simpson St",
        "line": "NewYorkSubway5",
        "order": 62
      },
      "id": 246
    },
    {
      "type": "Feature",
      "geometry": {
        "type": "Point",
        "coordinates": [
          -73.89674,
          40.822186
        ]
      },
      "properties": {
        "id": 247,
        "name": "Intervale Av",
        "line": "NewYorkSubway5",
        "order": 63
      },
      "id": 247
    },
    {
      "type": "Feature",
      "geometry": {
        "type": "Point",
        "coordinates": [
          -73.901774,
          40.819589
        ]
      },
      "properties": {
        "id": 248,
        "name": "Prospect Av",
        "line": "NewYorkSubway5",
        "order": 64
      },
      "id": 248
    },
    {
      "type": "Feature",
      "geometry": {
        "type": "Point",
        "coordinates": [
          -73.907813,
          40.816496
        ]
      },
      "properties": {
        "id": 249,
        "name": "Jackson Av",
        "line": "NewYorkSubway5",
        "order": 67
      },
      "id": 249
    },
    {
      "type": "Feature",
      "geometry": {
        "type": "Point",
        "coordinates": [
          -73.917757,
          40.816109
        ]
      },
      "properties": {
        "id": 250,
        "name": "3 Av - 149 St",
        "line": "NewYorkSubway5",
        "order": 80
      },
      "id": 250
    },
    {
      "type": "Feature",
      "geometry": {
        "type": "Point",
        "coordinates": [
          -73.926717,
          40.818411
        ]
      },
      "properties": {
        "id": 251,
        "name": "149 St - Hostos",
        "line": "NewYorkSubway5",
        "order": 82,
        "alternate_names": [
          "149 St - Grand Concourse"
        ]
      },
      "id": 251
    },
    {
      "type": "Feature",
      "geometry": {
        "type": "Point",
        "coordinates": [
          -73.929849,
          40.813224
        ]
      },
      "properties": {
        "id": 252,
        "name": "138 St - Grand Concourse",
        "line": "NewYorkSubway5",
        "order": 98
      },
      "id": 252
    },
    {
      "type": "Feature",
      "geometry": {
        "type": "Point",
        "coordinates": [
          -73.937592,
          40.804137
        ]
      },
      "properties": {
        "id": 253,
        "name": "125 St",
        "line": "NewYorkSubway5",
        "order": 102
      },
      "id": 253
    },
    {
      "type": "Feature",
      "geometry": {
        "type": "Point",
        "coordinates": [
          -73.955585,
          40.77949
        ]
      },
      "properties": {
        "id": 254,
        "name": "86 St",
        "line": "NewYorkSubway5",
        "order": 103
      },
      "id": 254
    },
    {
      "type": "Feature",
      "geometry": {
        "type": "Point",
        "coordinates": [
          -73.967966,
          40.762526
        ]
      },
      "properties": {
        "id": 255,
        "name": "Lexington Av/59 St",
        "line": "NewYorkSubway5",
        "order": 104,
        "alternate_names": [
          "59 St Lexington Av"
        ]
      },
      "id": 255
    },
    {
      "type": "Feature",
      "geometry": {
        "type": "Point",
        "coordinates": [
          -73.976853,
          40.751787
        ]
      },
      "properties": {
        "id": 256,
        "name": "Grand Central - 42 St",
        "line": "NewYorkSubway5",
        "order": 108,
        "alternate_names": [
          "Grand Central",
          "Grand Central Madison"
        ]
      },
      "id": 256
    },
    {
      "type": "Feature",
      "geometry": {
        "type": "Point",
        "coordinates": [
          -73.989938,
          40.734674
        ]
      },
      "properties": {
        "id": 257,
        "name": "14 St - Union Sq",
        "line": "NewYorkSubway5",
        "order": 115
      },
      "id": 257
    },
    {
      "type": "Feature",
      "geometry": {
        "type": "Point",
        "coordinates": [
          -74.004131,
          40.713065
        ]
      },
      "properties": {
        "id": 258,
        "name": "Brooklyn Bridge - City Hall",
        "line": "NewYorkSubway5",
        "order": 137
      },
      "id": 258
    },
    {
      "type": "Feature",
      "geometry": {
        "type": "Point",
        "coordinates": [
          -74.009509,
          40.710368
        ]
      },
      "properties": {
        "id": 259,
        "name": "Fulton St",
        "line": "NewYorkSubway5",
        "order": 146
      },
      "id": 259
    },
    {
      "type": "Feature",
      "geometry": {
        "type": "Point",
        "coordinates": [
          -74.011865,
          40.707558
        ]
      },
      "properties": {
        "id": 260,
        "name": "Wall St",
        "line": "NewYorkSubway5",
        "order": 148
      },
      "id": 260
    },
    {
      "type": "Feature",
      "geometry": {
        "type": "Point",
        "coordinates": [
          -74.014059,
          40.704815
        ]
      },
      "properties": {
        "id": 261,
        "name": "Bowling Green",
        "line": "NewYorkSubway5",
        "order": 151
      },
      "id": 261
    },
    {
      "type": "Feature",
      "geometry": {
        "type": "Point",
        "coordinates": [
          -73.990151,
          40.692405
        ]
      },
      "properties": {
        "id": 262,
        "name": "Borough Hall",
        "line": "NewYorkSubway5",
        "order": 165
      },
      "id": 262
    },
    {
      "type": "Feature",
      "geometry": {
        "type": "Point",
        "coordinates": [
          -73.980489,
          40.688247
        ]
      },
      "properties": {
        "id": 263,
        "name": "Nevins St",
        "line": "NewYorkSubway5",
        "order": 172
      },
      "id": 263
    },
    {
      "type": "Feature",
      "geometry": {
        "type": "Point",
        "coordinates": [
          -73.977667,
          40.684359
        ]
      },
      "properties": {
        "id": 264,
        "name": "Atlantic Av - Barclays Ctr",
        "line": "NewYorkSubway5",
        "order": 173
      },
      "id": 264
    },
    {
      "type": "Feature",
      "geometry": {
        "type": "Point",
        "coordinates": [
          -73.958129,
          40.670688
        ]
      },
      "properties": {
        "id": 265,
        "name": "Franklin Av - Medgar Evers College",
        "line": "NewYorkSubway5",
        "order": 181,
        "alternate_names": [
          "Franklin Av"
        ]
      },
      "id": 265
    },
    {
      "type": "Feature",
      "geometry": {
        "type": "Point",
        "coordinates": [
          -73.950684,
          40.667883
        ]
      },
      "properties": {
        "id": 266,
        "name": "President St - Medgar Evers College",
        "line": "NewYorkSubway5",
        "order": 192,
        "alternate_names": [
          "President St"
        ]
      },
      "id": 266
    },
    {
      "type": "Feature",
      "geometry": {
        "type": "Point",
        "coordinates": [
          -73.95084,
          40.662743
        ]
      },
      "properties": {
        "id": 267,
        "name": "Sterling St",
        "line": "NewYorkSubway5",
        "order": 195
      },
      "id": 267
    },
    {
      "type": "Feature",
      "geometry": {
        "type": "Point",
        "coordinates": [
          -73.950189,
          40.656653
        ]
      },
      "properties": {
        "id": 268,
        "name": "Winthrop St",
        "line": "NewYorkSubway5",
        "order": 196
      },
      "id": 268
    },
    {
      "type": "Feature",
      "geometry": {
        "type": "Point",
        "coordinates": [
          -73.949567,
          40.650843
        ]
      },
      "properties": {
        "id": 269,
        "name": "Church Av",
        "line": "NewYorkSubway5",
        "order": 197
      },
      "id": 269
    },
    {
      "type": "Feature",
      "geometry": {
        "type": "Point",
        "coordinates": [
          -73.948953,
          40.645098
        ]
      },
      "properties": {
        "id": 270,
        "name": "Beverly Rd",
        "line": "NewYorkSubway5",
        "order": 198
      },
      "id": 270
    },
    {
      "type": "Feature",
      "geometry": {
        "type": "Point",
        "coordinates": [
          -73.948404,
          40.639967
        ]
      },
      "properties": {
        "id": 271,
        "name": "Newkirk Av",
        "line": "NewYorkSubway5",
        "order": 199
      },
      "id": 271
    },
    {
      "type": "Feature",
      "geometry": {
        "type": "Point",
        "coordinates": [
          -73.947642,
          40.632836
        ]
      },
      "properties": {
        "id": 272,
        "name": "Flatbush Av - Brooklyn College",
        "line": "NewYorkSubway5",
        "order": 200
      },
      "id": 272
    },
    {
      "type": "Feature",
      "geometry": {
        "type": "Point",
        "coordinates": [
          -73.854376,
          40.898379
        ]
      },
      "properties": {
        "id": 298,
        "name": "Nereid Av",
        "line": "NewYorkSubway5",
        "order": 0
      },
      "id": 298
    },
    {
      "type": "Feature",
      "geometry": {
        "type": "Point",
        "coordinates": [
          -73.857483,
          40.893196
        ]
      },
      "properties": {
        "id": 299,
        "name": "233 St",
        "line": "NewYorkSubway5",
        "order": 3
      },
      "id": 299
    },
    {
      "type": "Feature",
      "geometry": {
        "type": "Point",
        "coordinates": [
          -73.860349,
          40.888025
        ]
      },
      "properties": {
        "id": 300,
        "name": "225 St",
        "line": "NewYorkSubway5",
        "order": 4
      },
      "id": 300
    },
    {
      "type": "Feature",
      "geometry": {
        "type": "Point",
        "coordinates": [
          -73.862637,
          40.883896
        ]
      },
      "properties": {
        "id": 301,
        "name": "219 St",
        "line": "NewYorkSubway5",
        "order": 5
      },
      "id": 301
    },
    {
      "type": "Feature",
      "geometry": {
        "type": "Point",
        "coordinates": [
          -73.86717,
          40.871356
        ]
      },
      "properties": {
        "id": 303,
        "name": "Burke Av",
        "line": "NewYorkSubway5",
        "order": 11
      },
      "id": 303
    },
    {
      "type": "Feature",
      "geometry": {
        "type": "Point",
        "coordinates": [
          -73.867357,
          40.865462
        ]
      },
      "properties": {
        "id": 304,
        "name": "Allerton Av",
        "line": "NewYorkSubway5",
        "order": 12
      },
      "id": 304
    },
    {
      "type": "Feature",
      "geometry": {
        "type": "Point",
        "coordinates": [
          -73.868454,
          40.848827
        ]
      },
      "properties": {
        "id": 306,
        "name": "Bronx Park East",
        "line": "NewYorkSubway5",
        "order": 17
      },
      "id": 306
    },
    {
      "type": "Feature",
      "geometry": {
        "type": "Point",
        "coordinates": [
          -73.828121,
          40.852462
        ]
      },
      "properties": {
        "id": 367,
        "name": "Pelham Bay Park",
        "line": "NewYorkSubway6",
        "order": 0
      },
      "id": 367
    },
    {
      "type": "Feature",
      "geometry": {
        "type": "Point",
        "coordinates": [
          -73.832572,
          40.846812
        ]
      },
      "properties": {
        "id": 368,
        "name": "Buhre Av",
        "line": "NewYorkSubway6",
        "order": 10
      },
      "id": 368
    },
    {
      "type": "Feature",
      "geometry": {
        "type": "Point",
        "coordinates": [
          -73.83633,
          40.843869
        ]
      },
      "properties": {
        "id": 369,
        "name": "Middletown Rd",
        "line": "NewYorkSubway6",
        "order": 11
      },
      "id": 369
    },
    {
      "type": "Feature",
      "geometry": {
        "type": "Point",
        "coordinates": [
          -73.842954,
          40.839893
        ]
      },
      "properties": {
        "id": 370,
        "name": "Westchester Sq - E Tremont Av",
        "line": "NewYorkSubway6",
        "order": 16
      },
      "id": 370
    },
    {
      "type": "Feature",
      "geometry": {
        "type": "Point",
        "coordinates": [
          -73.847037,
          40.836489
        ]
      },
      "properties": {
        "id": 371,
        "name": "Zerega Av",
        "line": "NewYorkSubway6",
        "order": 17
      },
      "id": 371
    },
    {
      "type": "Feature",
      "geometry": {
        "type": "Point",
        "coordinates": [
          -73.851222,
          40.834254
        ]
      },
      "properties": {
        "id": 372,
        "name": "Castle Hill Av",
        "line": "NewYorkSubway6",
        "order": 23
      },
      "id": 372
    },
    {
      "type": "Feature",
      "geometry": {
        "type": "Point",
        "coordinates": [
          -73.860815,
          40.833222
        ]
      },
      "properties": {
        "id": 373,
        "name": "Parkchester",
        "line": "NewYorkSubway6",
        "order": 24
      },
      "id": 373
    },
    {
      "type": "Feature",
      "geometry": {
        "type": "Point",
        "coordinates": [
          -73.867621,
          40.831514
        ]
      },
      "properties": {
        "id": 374,
        "name": "St. Lawrence Av",
        "line": "NewYorkSubway6",
        "order": 27
      },
      "id": 374
    },
    {
      "type": "Feature",
      "geometry": {
        "type": "Point",
        "coordinates": [
          -73.874522,
          40.829532
        ]
      },
      "properties": {
        "id": 375,
        "name": "Morrison Av- Sound View",
        "line": "NewYorkSubway6",
        "order": 28
      },
      "id": 375
    },
    {
      "type": "Feature",
      "geometry": {
        "type": "Point",
        "coordinates": [
          -73.879159,
          40.828586
        ]
      },
      "properties": {
        "id": 376,
        "name": "Elder Av",
        "line": "NewYorkSubway6",
        "order": 31
      },
      "id": 376
    },
    {
      "type": "Feature",
      "geometry": {
        "type": "Point",
        "coordinates": [
          -73.886281,
          40.826525
        ]
      },
      "properties": {
        "id": 377,
        "name": "Whitlock Av",
        "line": "NewYorkSubway6",
        "order": 40
      },
      "id": 377
    },
    {
      "type": "Feature",
      "geometry": {
        "type": "Point",
        "coordinates": [
          -73.890552,
          40.820954
        ]
      },
      "properties": {
        "id": 378,
        "name": "Hunts Point Av",
        "line": "NewYorkSubway6",
        "order": 51
      },
      "id": 378
    },
    {
      "type": "Feature",
      "geometry": {
        "type": "Point",
        "coordinates": [
          -73.896437,
          40.816105
        ]
      },
      "properties": {
        "id": 379,
        "name": "Longwood Av",
        "line": "NewYorkSubway6",
        "order": 55
      },
      "id": 379
    },
    {
      "type": "Feature",
      "geometry": {
        "type": "Point",
        "coordinates": [
          -73.904093,
          40.812113
        ]
      },
      "properties": {
        "id": 380,
        "name": "E 149 St",
        "line": "NewYorkSubway6",
        "order": 61
      },
      "id": 380
    },
    {
      "type": "Feature",
      "geometry": {
        "type": "Point",
        "coordinates": [
          -73.907652,
          40.808718
        ]
      },
      "properties": {
        "id": 381,
        "name": "E 143 St - St Mary's St",
        "line": "NewYorkSubway6",
        "order": 66
      },
      "id": 381
    },
    {
      "type": "Feature",
      "geometry": {
        "type": "Point",
        "coordinates": [
          -73.914041,
          40.80537
        ]
      },
      "properties": {
        "id": 382,
        "name": "Cypress Av",
        "line": "NewYorkSubway6",
        "order": 77
      },
      "id": 382
    },
    {
      "type": "Feature",
      "geometry": {
        "type": "Point",
        "coordinates": [
          -73.919242,
          40.807564
        ]
      },
      "properties": {
        "id": 383,
        "name": "Brook Av",
        "line": "NewYorkSubway6",
        "order": 78
      },
      "id": 383
    },
    {
      "type": "Feature",
      "geometry": {
        "type": "Point",
        "coordinates": [
          -73.926139,
          40.810474
        ]
      },
      "properties": {
        "id": 384,
        "name": "3 Av - 138 St",
        "line": "NewYorkSubway6",
        "order": 79
      },
      "id": 384
    },
    {
      "type": "Feature",
      "geometry": {
        "type": "Point",
        "coordinates": [
          -73.937592,
          40.804137
        ]
      },
      "properties": {
        "id": 385,
        "name": "125 St",
        "line": "NewYorkSubway6",
        "order": 92
      },
      "id": 385
    },
    {
      "type": "Feature",
      "geometry": {
        "type": "Point",
        "coordinates": [
          -73.941614,
          40.798628
        ]
      },
      "properties": {
        "id": 386,
        "name": "116 St",
        "line": "NewYorkSubway6",
        "order": 93
      },
      "id": 386
    },
    {
      "type": "Feature",
      "geometry": {
        "type": "Point",
        "coordinates": [
          -73.944249,
          40.795019
        ]
      },
      "properties": {
        "id": 387,
        "name": "110 St",
        "line": "NewYorkSubway6",
        "order": 94
      },
      "id": 387
    },
    {
      "type": "Feature",
      "geometry": {
        "type": "Point",
        "coordinates": [
          -73.947476,
          40.790599
        ]
      },
      "properties": {
        "id": 388,
        "name": "103 St",
        "line": "NewYorkSubway6",
        "order": 95
      },
      "id": 388
    },
    {
      "type": "Feature",
      "geometry": {
        "type": "Point",
        "coordinates": [
          -73.951072,
          40.785673
        ]
      },
      "properties": {
        "id": 389,
        "name": "96 St",
        "line": "NewYorkSubway6",
        "order": 96
      },
      "id": 389
    },
    {
      "type": "Feature",
      "geometry": {
        "type": "Point",
        "coordinates": [
          -73.955585,
          40.77949
        ]
      },
      "properties": {
        "id": 390,
        "name": "86 St",
        "line": "NewYorkSubway6",
        "order": 97
      },
      "id": 390
    },
    {
      "type": "Feature",
      "geometry": {
        "type": "Point",
        "coordinates": [
          -73.95987,
          40.773618
        ]
      },
      "properties": {
        "id": 391,
        "name": "77 St",
        "line": "NewYorkSubway6",
        "order": 98
      },
      "id": 391
    },
    {
      "type": "Feature",
      "geometry": {
        "type": "Point",
        "coordinates": [
          -73.963868,
          40.76814
        ]
      },
      "properties": {
        "id": 392,
        "name": "68 St - Hunter College",
        "line": "NewYorkSubway6",
        "order": 99
      },
      "id": 392
    },
    {
      "type": "Feature",
      "geometry": {
        "type": "Point",
        "coordinates": [
          -73.96773,
          40.76285
        ]
      },
      "properties": {
        "id": 393,
        "name": "Lexington Av/59 St",
        "line": "NewYorkSubway6",
        "order": 100,
        "alternate_names": [
          "59 St Lexington Av"
        ]
      },
      "id": 393
    },
    {
      "type": "Feature",
      "geometry": {
        "type": "Point",
        "coordinates": [
          -73.97192,
          40.757107
        ]
      },
      "properties": {
        "id": 394,
        "name": "51 St",
        "line": "NewYorkSubway6",
        "order": 102
      },
      "id": 394
    },
    {
      "type": "Feature",
      "geometry": {
        "type": "Point",
        "coordinates": [
          -73.976851,
          40.751783
        ]
      },
      "properties": {
        "id": 395,
        "name": "Grand Central - 42 St",
        "line": "NewYorkSubway6",
        "order": 106,
        "alternate_names": [
          "Grand Central",
          "Grand Central Madison"
        ]
      },
      "id": 395
    },
    {
      "type": "Feature",
      "geometry": {
        "type": "Point",
        "coordinates": [
          -73.982069,
          40.746078
        ]
      },
      "properties": {
        "id": 396,
        "name": "33 St",
        "line": "NewYorkSubway6",
        "order": 110
      },
      "id": 396
    },
    {
      "type": "Feature",
      "geometry": {
        "type": "Point",
        "coordinates": [
          -73.984262,
          40.743069
        ]
      },
      "properties": {
        "id": 397,
        "name": "28 St",
        "line": "NewYorkSubway6",
        "order": 111
      },
      "id": 397
    },
    {
      "type": "Feature",
      "geometry": {
        "type": "Point",
        "coordinates": [
          -73.986598,
          40.739864
        ]
      },
      "properties": {
        "id": 398,
        "name": "23 St - Baruch College",
        "line": "NewYorkSubway6",
        "order": 112,
        "alternate_names": [
          "23 St"
        ]
      },
      "id": 398
    },
    {
      "type": "Feature",
      "geometry": {
        "type": "Point",
        "coordinates": [
          -73.989938,
          40.734674
        ]
      },
      "properties": {
        "id": 399,
        "name": "14 St - Union Sq",
        "line": "NewYorkSubway6",
        "order": 116
      },
      "id": 399
    },
    {
      "type": "Feature",
      "geometry": {
        "type": "Point",
        "coordinates": [
          -73.991073,
          40.730057
        ]
      },
      "properties": {
        "id": 400,
        "name": "Astor Pl",
        "line": "NewYorkSubway6",
        "order": 123
      },
      "id": 400
    },
    {
      "type": "Feature",
      "geometry": {
        "type": "Point",
        "coordinates": [
          -73.994659,
          40.725915
        ]
      },
      "properties": {
        "id": 401,
        "name": "Bleecker St",
        "line": "NewYorkSubway6",
        "order": 127
      },
      "id": 401
    },
    {
      "type": "Feature",
      "geometry": {
        "type": "Point",
        "coordinates": [
          -73.997148,
          40.722304
        ]
      },
      "properties": {
        "id": 402,
        "name": "Spring St",
        "line": "NewYorkSubway6",
        "order": 132
      },
      "id": 402
    },
    {
      "type": "Feature",
      "geometry": {
        "type": "Point",
        "coordinates": [
          -74.000182,
          40.718797
        ]
      },
      "properties": {
        "id": 403,
        "name": "Canal St",
        "line": "NewYorkSubway6",
        "order": 135
      },
      "id": 403
    },
    {
      "type": "Feature",
      "geometry": {
        "type": "Point",
        "coordinates": [
          -74.004131,
          40.713065
        ]
      },
      "properties": {
        "id": 404,
        "name": "Brooklyn Bridge - City Hall",
        "line": "NewYorkSubway6",
        "order": 142
      },
      "id": 404
    },
    {
      "type": "Feature",
      "geometry": {
        "type": "Point",
        "coordinates": [
          -73.927376,
          40.818381
        ]
      },
      "properties": {
        "id": 425,
        "name": "149 St - Hostos",
        "line": "NewYorkSubway6",
        "order": 66,
        "alternate_names": [
          "149 St - Grand Concourse"
        ]
      },
      "id": 425
    },
    {
      "type": "Feature",
      "geometry": {
        "type": "Point",
        "coordinates": [
          -74.004131,
          40.713065
        ]
      },
      "properties": {
        "id": 426,
        "name": "Brooklyn Bridge - City Hall",
        "line": "NewYorkSubway6X",
        "order": 0
      },
      "id": 426
    },
    {
      "type": "Feature",
      "geometry": {
        "type": "Point",
        "coordinates": [
          -74.000182,
          40.718797
        ]
      },
      "properties": {
        "id": 427,
        "name": "Canal St",
        "line": "NewYorkSubway6X",
        "order": 7
      },
      "id": 427
    },
    {
      "type": "Feature",
      "geometry": {
        "type": "Point",
        "coordinates": [
          -73.997148,
          40.722304
        ]
      },
      "properties": {
        "id": 428,
        "name": "Spring St",
        "line": "NewYorkSubway6X",
        "order": 10
      },
      "id": 428
    },
    {
      "type": "Feature",
      "geometry": {
        "type": "Point",
        "coordinates": [
          -73.994659,
          40.725915
        ]
      },
      "properties": {
        "id": 429,
        "name": "Bleecker St",
        "line": "NewYorkSubway6X",
        "order": 14
      },
      "id": 429
    },
    {
      "type": "Feature",
      "geometry": {
        "type": "Point",
        "coordinates": [
          -73.991073,
          40.730057
        ]
      },
      "properties": {
        "id": 430,
        "name": "Astor Pl",
        "line": "NewYorkSubway6X",
        "order": 19
      },
      "id": 430
    },
    {
      "type": "Feature",
      "geometry": {
        "type": "Point",
        "coordinates": [
          -73.989938,
          40.734671
        ]
      },
      "properties": {
        "id": 431,
        "name": "14 St - Union Sq",
        "line": "NewYorkSubway6X",
        "order": 26
      },
      "id": 431
    },
    {
      "type": "Feature",
      "geometry": {
        "type": "Point",
        "coordinates": [
          -73.986598,
          40.739864
        ]
      },
      "properties": {
        "id": 432,
        "name": "23 St - Baruch College",
        "line": "NewYorkSubway6X",
        "order": 30,
        "alternate_names": [
          "23 St"
        ]
      },
      "id": 432
    },
    {
      "type": "Feature",
      "geometry": {
        "type": "Point",
        "coordinates": [
          -73.984262,
          40.743069
        ]
      },
      "properties": {
        "id": 433,
        "name": "28 St",
        "line": "NewYorkSubway6X",
        "order": 31
      },
      "id": 433
    },
    {
      "type": "Feature",
      "geometry": {
        "type": "Point",
        "coordinates": [
          -73.982069,
          40.746078
        ]
      },
      "properties": {
        "id": 434,
        "name": "33 St",
        "line": "NewYorkSubway6X",
        "order": 32
      },
      "id": 434
    },
    {
      "type": "Feature",
      "geometry": {
        "type": "Point",
        "coordinates": [
          -73.9769,
          40.751771
        ]
      },
      "properties": {
        "id": 435,
        "name": "Grand Central - 42 St",
        "line": "NewYorkSubway6X",
        "order": 36,
        "alternate_names": [
          "Grand Central",
          "Grand Central Madison"
        ]
      },
      "id": 435
    },
    {
      "type": "Feature",
      "geometry": {
        "type": "Point",
        "coordinates": [
          -73.97192,
          40.757107
        ]
      },
      "properties": {
        "id": 436,
        "name": "51 St",
        "line": "NewYorkSubway6X",
        "order": 40
      },
      "id": 436
    },
    {
      "type": "Feature",
      "geometry": {
        "type": "Point",
        "coordinates": [
          -73.96773,
          40.76285
        ]
      },
      "properties": {
        "id": 437,
        "name": "Lexington Av/59 St",
        "line": "NewYorkSubway6X",
        "order": 42,
        "alternate_names": [
          "59 St Lexington Av"
        ]
      },
      "id": 437
    },
    {
      "type": "Feature",
      "geometry": {
        "type": "Point",
        "coordinates": [
          -73.963868,
          40.76814
        ]
      },
      "properties": {
        "id": 438,
        "name": "68 St - Hunter College",
        "line": "NewYorkSubway6X",
        "order": 43
      },
      "id": 438
    },
    {
      "type": "Feature",
      "geometry": {
        "type": "Point",
        "coordinates": [
          -73.95987,
          40.773618
        ]
      },
      "properties": {
        "id": 439,
        "name": "77 St",
        "line": "NewYorkSubway6X",
        "order": 44
      },
      "id": 439
    },
    {
      "type": "Feature",
      "geometry": {
        "type": "Point",
        "coordinates": [
          -73.955585,
          40.77949
        ]
      },
      "properties": {
        "id": 440,
        "name": "86 St",
        "line": "NewYorkSubway6X",
        "order": 45
      },
      "id": 440
    },
    {
      "type": "Feature",
      "geometry": {
        "type": "Point",
        "coordinates": [
          -73.951072,
          40.785673
        ]
      },
      "properties": {
        "id": 441,
        "name": "96 St",
        "line": "NewYorkSubway6X",
        "order": 46
      },
      "id": 441
    },
    {
      "type": "Feature",
      "geometry": {
        "type": "Point",
        "coordinates": [
          -73.947476,
          40.790599
        ]
      },
      "properties": {
        "id": 442,
        "name": "103 St",
        "line": "NewYorkSubway6X",
        "order": 47
      },
      "id": 442
    },
    {
      "type": "Feature",
      "geometry": {
        "type": "Point",
        "coordinates": [
          -73.944249,
          40.795019
        ]
      },
      "properties": {
        "id": 443,
        "name": "110 St",
        "line": "NewYorkSubway6X",
        "order": 48
      },
      "id": 443
    },
    {
      "type": "Feature",
      "geometry": {
        "type": "Point",
        "coordinates": [
          -73.941614,
          40.798628
        ]
      },
      "properties": {
        "id": 444,
        "name": "116 St",
        "line": "NewYorkSubway6X",
        "order": 49
      },
      "id": 444
    },
    {
      "type": "Feature",
      "geometry": {
        "type": "Point",
        "coordinates": [
          -73.937592,
          40.804137
        ]
      },
      "properties": {
        "id": 445,
        "name": "125 St",
        "line": "NewYorkSubway6X",
        "order": 50
      },
      "id": 445
    },
    {
      "type": "Feature",
      "geometry": {
        "type": "Point",
        "coordinates": [
          -73.926139,
          40.810474
        ]
      },
      "properties": {
        "id": 446,
        "name": "3 Av - 138 St",
        "line": "NewYorkSubway6X",
        "order": 63
      },
      "id": 446
    },
    {
      "type": "Feature",
      "geometry": {
        "type": "Point",
        "coordinates": [
          -73.890552,
          40.820954
        ]
      },
      "properties": {
        "id": 447,
        "name": "Hunts Point Av",
        "line": "NewYorkSubway6X",
        "order": 86
      },
      "id": 447
    },
    {
      "type": "Feature",
      "geometry": {
        "type": "Point",
        "coordinates": [
          -73.860815,
          40.833222
        ]
      },
      "properties": {
        "id": 448,
        "name": "Parkchester",
        "line": "NewYorkSubway6X",
        "order": 109
      },
      "id": 448
    },
    {
      "type": "Feature",
      "geometry": {
        "type": "Point",
        "coordinates": [
          -73.851222,
          40.834254
        ]
      },
      "properties": {
        "id": 449,
        "name": "Castle Hill Av",
        "line": "NewYorkSubway6X",
        "order": 110
      },
      "id": 449
    },
    {
      "type": "Feature",
      "geometry": {
        "type": "Point",
        "coordinates": [
          -73.847037,
          40.836489
        ]
      },
      "properties": {
        "id": 450,
        "name": "Zerega Av",
        "line": "NewYorkSubway6X",
        "order": 116
      },
      "id": 450
    },
    {
      "type": "Feature",
      "geometry": {
        "type": "Point",
        "coordinates": [
          -73.842954,
          40.839893
        ]
      },
      "properties": {
        "id": 451,
        "name": "Westchester Sq - E Tremont Av",
        "line": "NewYorkSubway6X",
        "order": 117
      },
      "id": 451
    },
    {
      "type": "Feature",
      "geometry": {
        "type": "Point",
        "coordinates": [
          -73.83633,
          40.843869
        ]
      },
      "properties": {
        "id": 452,
        "name": "Middletown Rd",
        "line": "NewYorkSubway6X",
        "order": 122
      },
      "id": 452
    },
    {
      "type": "Feature",
      "geometry": {
        "type": "Point",
        "coordinates": [
          -73.832572,
          40.846812
        ]
      },
      "properties": {
        "id": 453,
        "name": "Buhre Av",
        "line": "NewYorkSubway6X",
        "order": 123
      },
      "id": 453
    },
    {
      "type": "Feature",
      "geometry": {
        "type": "Point",
        "coordinates": [
          -73.828121,
          40.852462
        ]
      },
      "properties": {
        "id": 454,
        "name": "Pelham Bay Park",
        "line": "NewYorkSubway6X",
        "order": 133
      },
      "id": 454
    },
    {
      "type": "Feature",
      "geometry": {
        "type": "Point",
        "coordinates": [
          -73.867621,
          40.831514
        ]
      },
      "properties": {
        "id": 462,
        "name": "St. Lawrence Av",
        "line": "NewYorkSubway6X",
        "order": 27
      },
      "id": 462
    },
    {
      "type": "Feature",
      "geometry": {
        "type": "Point",
        "coordinates": [
          -73.874522,
          40.829532
        ]
      },
      "properties": {
        "id": 463,
        "name": "Morrison Av- Sound View",
        "line": "NewYorkSubway6X",
        "order": 28
      },
      "id": 463
    },
    {
      "type": "Feature",
      "geometry": {
        "type": "Point",
        "coordinates": [
          -73.879159,
          40.828586
        ]
      },
      "properties": {
        "id": 464,
        "name": "Elder Av",
        "line": "NewYorkSubway6X",
        "order": 31
      },
      "id": 464
    },
    {
      "type": "Feature",
      "geometry": {
        "type": "Point",
        "coordinates": [
          -73.886281,
          40.826525
        ]
      },
      "properties": {
        "id": 465,
        "name": "Whitlock Av",
        "line": "NewYorkSubway6X",
        "order": 40
      },
      "id": 465
    },
    {
      "type": "Feature",
      "geometry": {
        "type": "Point",
        "coordinates": [
          -74.001877,
          40.755958
        ]
      },
      "properties": {
        "id": 488,
        "name": "34 St - Hudson Yards",
        "line": "NewYorkSubway7",
        "order": 0
      },
      "id": 488
    },
    {
      "type": "Feature",
      "geometry": {
        "type": "Point",
        "coordinates": [
          -73.987685,
          40.755485
        ]
      },
      "properties": {
        "id": 489,
        "name": "Times Sq - 42 St",
        "line": "NewYorkSubway7",
        "order": 5
      },
      "id": 489
    },
    {
      "type": "Feature",
      "geometry": {
        "type": "Point",
        "coordinates": [
          -73.98195,
          40.753839
        ]
      },
      "properties": {
        "id": 490,
        "name": "5 Av",
        "line": "NewYorkSubway7",
        "order": 14
      },
      "id": 490
    },
    {
      "type": "Feature",
      "geometry": {
        "type": "Point",
        "coordinates": [
          -73.979214,
          40.752735
        ]
      },
      "properties": {
        "id": 491,
        "name": "Grand Central - 42 St",
        "line": "NewYorkSubway7",
        "order": 17,
        "alternate_names": [
          "Grand Central",
          "Grand Central Madison"
        ]
      },
      "id": 491
    },
    {
      "type": "Feature",
      "geometry": {
        "type": "Point",
        "coordinates": [
          -73.953574,
          40.742647
        ]
      },
      "properties": {
        "id": 492,
        "name": "Vernon Blvd - Jackson Av",
        "line": "NewYorkSubway7",
        "order": 25
      },
      "id": 492
    },
    {
      "type": "Feature",
      "geometry": {
        "type": "Point",
        "coordinates": [
          -73.948916,
          40.742215
        ]
      },
      "properties": {
        "id": 493,
        "name": "Hunters Point Av",
        "line": "NewYorkSubway7",
        "order": 28
      },
      "id": 493
    },
    {
      "type": "Feature",
      "geometry": {
        "type": "Point",
        "coordinates": [
          -73.945299,
          40.74703
        ]
      },
      "properties": {
        "id": 494,
        "name": "Court Sq",
        "line": "NewYorkSubway7",
        "order": 36
      },
      "id": 494
    },
    {
      "type": "Feature",
      "geometry": {
        "type": "Point",
        "coordinates": [
          -73.940191,
          40.750596
        ]
      },
      "properties": {
        "id": 495,
        "name": "Queensboro Plaza",
        "line": "NewYorkSubway7",
        "order": 43
      },
      "id": 495
    },
    {
      "type": "Feature",
      "geometry": {
        "type": "Point",
        "coordinates": [
          -73.930996,
          40.744592
        ]
      },
      "properties": {
        "id": 496,
        "name": "33 St - Rawson St",
        "line": "NewYorkSubway7",
        "order": 54,
        "alternate_names": [
          "33 St"
        ]
      },
      "id": 496
    },
    {
      "type": "Feature",
      "geometry": {
        "type": "Point",
        "coordinates": [
          -73.924014,
          40.743793
        ]
      },
      "properties": {
        "id": 497,
        "name": "40 St - Lowery St",
        "line": "NewYorkSubway7",
        "order": 55,
        "alternate_names": [
          "40 St"
        ]
      },
      "id": 497
    },
    {
      "type": "Feature",
      "geometry": {
        "type": "Point",
        "coordinates": [
          -73.918483,
          40.74316
        ]
      },
      "properties": {
        "id": 498,
        "name": "46 St - Bliss St",
        "line": "NewYorkSubway7",
        "order": 56,
        "alternate_names": [
          "46 St"
        ]
      },
      "id": 498
    },
    {
      "type": "Feature",
      "geometry": {
        "type": "Point",
        "coordinates": [
          -73.912558,
          40.744166
        ]
      },
      "properties": {
        "id": 499,
        "name": "52 St - Lincoln Av",
        "line": "NewYorkSubway7",
        "order": 60,
        "alternate_names": [
          "52 St"
        ]
      },
      "id": 499
    },
    {
      "type": "Feature",
      "geometry": {
        "type": "Point",
        "coordinates": [
          -73.90299,
          40.745678
        ]
      },
      "properties": {
        "id": 500,
        "name": "Woodside - 61 St",
        "line": "NewYorkSubway7",
        "order": 63
      },
      "id": 500
    },
    {
      "type": "Feature",
      "geometry": {
        "type": "Point",
        "coordinates": [
          -73.896408,
          40.746354
        ]
      },
      "properties": {
        "id": 501,
        "name": "69 St - Fisk Av",
        "line": "NewYorkSubway7",
        "order": 65,
        "alternate_names": [
          "69 St"
        ]
      },
      "id": 501
    },
    {
      "type": "Feature",
      "geometry": {
        "type": "Point",
        "coordinates": [
          -73.8914,
          40.746883
        ]
      },
      "properties": {
        "id": 502,
        "name": "74 St - Broadway",
        "line": "NewYorkSubway7",
        "order": 66
      },
      "id": 502
    },
    {
      "type": "Feature",
      "geometry": {
        "type": "Point",
        "coordinates": [
          -73.883704,
          40.747697
        ]
      },
      "properties": {
        "id": 503,
        "name": "82 St - Jackson Hts",
        "line": "NewYorkSubway7",
        "order": 67
      },
      "id": 503
    },
    {
      "type": "Feature",
      "geometry": {
        "type": "Point",
        "coordinates": [
          -73.87662,
          40.748446
        ]
      },
      "properties": {
        "id": 504,
        "name": "90 St - Elmhurst Av",
        "line": "NewYorkSubway7",
        "order": 68
      },
      "id": 504
    },
    {
      "type": "Feature",
      "geometry": {
        "type": "Point",
        "coordinates": [
          -73.869536,
          40.749194
        ]
      },
      "properties": {
        "id": 505,
        "name": "Junction Blvd",
        "line": "NewYorkSubway7",
        "order": 69
      },
      "id": 505
    },
    {
      "type": "Feature",
      "geometry": {
        "type": "Point",
        "coordinates": [
          -73.862704,
          40.749887
        ]
      },
      "properties": {
        "id": 506,
        "name": "103 St - Corona Plaza",
        "line": "NewYorkSubway7",
        "order": 71
      },
      "id": 506
    },
    {
      "type": "Feature",
      "geometry": {
        "type": "Point",
        "coordinates": [
          -73.855332,
          40.751726
        ]
      },
      "properties": {
        "id": 507,
        "name": "111 St",
        "line": "NewYorkSubway7",
        "order": 74
      },
      "id": 507
    },
    {
      "type": "Feature",
      "geometry": {
        "type": "Point",
        "coordinates": [
          -73.845643,
          40.754659
        ]
      },
      "properties": {
        "id": 508,
        "name": "Mets - Willets Point",
        "line": "NewYorkSubway7",
        "order": 77
      },
      "id": 508
    },
    {
      "type": "Feature",
      "geometry": {
        "type": "Point",
        "coordinates": [
          -73.830057,
          40.759646
        ]
      },
      "properties": {
        "id": 509,
        "name": "Flushing - Main St",
        "line": "NewYorkSubway7",
        "order": 81
      },
      "id": 509
    },
    {
      "type": "Feature",
      "geometry": {
        "type": "Point",
        "coordinates": [
          -73.83003,
          40.7596
        ]
      },
      "properties": {
        "id": 510,
        "name": "Flushing - Main St",
        "line": "NewYorkSubway7X",
        "order": 0
      },
      "id": 510
    },
    {
      "type": "Feature",
      "geometry": {
        "type": "Point",
        "coordinates": [
          -73.845626,
          40.754623
        ]
      },
      "properties": {
        "id": 511,
        "name": "Mets - Willets Point",
        "line": "NewYorkSubway7X",
        "order": 7
      },
      "id": 511
    },
    {
      "type": "Feature",
      "geometry": {
        "type": "Point",
        "coordinates": [
          -73.869527,
          40.749147
        ]
      },
      "properties": {
        "id": 512,
        "name": "Junction Blvd",
        "line": "NewYorkSubway7X",
        "order": 12
      },
      "id": 512
    },
    {
      "type": "Feature",
      "geometry": {
        "type": "Point",
        "coordinates": [
          -73.902984,
          40.745628
        ]
      },
      "properties": {
        "id": 513,
        "name": "Woodside - 61 St",
        "line": "NewYorkSubway7X",
        "order": 13
      },
      "id": 513
    },
    {
      "type": "Feature",
      "geometry": {
        "type": "Point",
        "coordinates": [
          -73.940203,
          40.75058
        ]
      },
      "properties": {
        "id": 514,
        "name": "Queensboro Plaza",
        "line": "NewYorkSubway7X",
        "order": 33
      },
      "id": 514
    },
    {
      "type": "Feature",
      "geometry": {
        "type": "Point",
        "coordinates": [
          -73.948916,
          40.742217
        ]
      },
      "properties": {
        "id": 515,
        "name": "Hunters Point Av",
        "line": "NewYorkSubway7X",
        "order": 55
      },
      "id": 515
    },
    {
      "type": "Feature",
      "geometry": {
        "type": "Point",
        "coordinates": [
          -73.953581,
          40.742625
        ]
      },
      "properties": {
        "id": 516,
        "name": "Vernon Blvd - Jackson Av",
        "line": "NewYorkSubway7X",
        "order": 59
      },
      "id": 516
    },
    {
      "type": "Feature",
      "geometry": {
        "type": "Point",
        "coordinates": [
          -73.976895,
          40.751786
        ]
      },
      "properties": {
        "id": 517,
        "name": "Grand Central - 42 St",
        "line": "NewYorkSubway7X",
        "order": 64,
        "alternate_names": [
          "Grand Central",
          "Grand Central Madison"
        ]
      },
      "id": 517
    },
    {
      "type": "Feature",
      "geometry": {
        "type": "Point",
        "coordinates": [
          -73.981967,
          40.753815
        ]
      },
      "properties": {
        "id": 518,
        "name": "5 Av",
        "line": "NewYorkSubway7X",
        "order": 69
      },
      "id": 518
    },
    {
      "type": "Feature",
      "geometry": {
        "type": "Point",
        "coordinates": [
          -74.00186,
          40.755951
        ]
      },
      "properties": {
        "id": 519,
        "name": "34 St - Hudson Yards",
        "line": "NewYorkSubway7X",
        "order": 87
      },
      "id": 519
    },
    {
      "type": "Feature",
      "geometry": {
        "type": "Point",
        "coordinates": [
          -73.987685,
          40.755485
        ]
      },
      "properties": {
        "id": 521,
        "name": "Times Sq - 42 St",
        "line": "NewYorkSubway7X",
        "order": 5
      },
      "id": 521
    },
    {
      "type": "Feature",
      "geometry": {
        "type": "Point",
        "coordinates": [
          -73.945299,
          40.74703
        ]
      },