{
  "type": "FeatureCollection",
  "features": [
    {
      "type": "Feature",
      "geometry": {
        "type": "Point",
        "coordinates": [
          -73.600435,
          41.564587
        ]
      },
      "properties": {
        "id": 1343,
        "name": "Pawling",
        "line": "MNRRHarlem",
        "order": 500
      },
      "id": 1343
    },
    {
      "type": "Feature",
      "geometry": {
        "type": "Point",
        "coordinates": [
          -73.7650805,
          40.67516489
        ]
      },
      "properties": {
        "id": 1344,
        "name": "Locust Manor",
        "line": "LIRRFarRockaway",
        "order": 400
      },
      "id": 1344
    },
    {
      "type": "Feature",
      "geometry": {
        "type": "Point",
        "coordinates": [
          -73.725549,
          40.720074
        ]
      },
      "properties": {
        "id": 1345,
        "name": "Elmont-UBS Arena",
        "line": "LIRRHempstead",
        "order": 400
      },
      "id": 1345
    },
    {
      "type": "Feature",
      "geometry": {
        "type": "Point",
        "coordinates": [
          -73.830951,
          40.911928
        ]
      },
      "properties": {
        "id": 1346,
        "name": "Mt Vernon East",
        "line": "MNRRNewHaven",
        "order": 500
      },
      "id": 1346
    },
    {
      "type": "Feature",
      "geometry": {
        "type": "Point",
        "coordinates": [
          -73.912311,
          40.874782
        ]
      },
      "properties": {
        "id": 1347,
        "name": "Marble Hill",
        "line": "MNRRHudson",
        "order": 500
      },
      "id": 1347
    },
    {
      "type": "Feature",
      "geometry": {
        "type": "Point",
        "coordinates": [
          -73.80843137,
          40.69961991
        ]
      },
      "properties": {
        "id": 1348,
        "name": "Jamaica",
        "line": "LIRRAtlantic",
        "order": 400
      },
      "id": 1348
    },
    {
      "type": "Feature",
      "geometry": {
        "type": "Point",
        "coordinates": [
          -73.443969,
          41.077645
        ]
      },
      "properties": {
        "id": 1349,
        "name": "Rowayton",
        "line": "MNRRNewHaven",
        "order": 500
      },
      "id": 1349
    },
    {
      "type": "Feature",
      "geometry": {
        "type": "Point",
        "coordinates": [
          -73.73621938,
          40.71752423
        ]
      },
      "properties": {
        "id": 1350,
        "name": "Queens Village",
        "line": "LIRRHempstead",
        "order": 400
      },
      "id": 1350
    },
    {
      "type": "Feature",
      "geometry": {
        "type": "Point",
        "coordinates": [
          -73.662238,
          41.348101
        ]
      },
      "properties": {
        "id": 1351,
        "name": "Croton Falls",
        "line": "MNRRHarlem",
        "order": 500
      },
      "id": 1351
    },
    {
      "type": "Feature",
      "geometry": {
        "type": "Point",
        "coordinates": [
          -73.619973,
          41.394358
        ]
      },
      "properties": {
        "id": 1352,
        "name": "Brewster",
        "line": "MNRRHarlem",
        "order": 500
      },
      "id": 1352
    },
    {
      "type": "Feature",
      "geometry": {
        "type": "Point",
        "coordinates": [
          -73.70481012,
          40.66155042
        ]
      },
      "properties": {
        "id": 1353,
        "name": "Valley Stream",
        "line": "LIRRFarRockaway",
        "order": 400
      },
      "id": 1353
    },
    {
      "type": "Feature",
      "geometry": {
        "type": "Point",
        "coordinates": [
          -73.7493319,
          40.76812045
        ]
      },
      "properties": {
        "id": 1354,
        "name": "Douglaston",
        "line": "LIRRPortWashington",
        "order": 400
      },
      "id": 1354
    },
    {
      "type": "Feature",
      "geometry": {
        "type": "Point",
        "coordinates": [
          -73.984726,
          41.506503
        ]
      },
      "properties": {
        "id": 1355,
        "name": "Beacon",
        "line": "MNRRHudson",
        "order": 500
      },
      "id": 1355
    },
    {
      "type": "Feature",
      "geometry": {
        "type": "Point",
        "coordinates": [
          -73.083527,
          41.320364
        ]
      },
      "properties": {
        "id": 1356,
        "name": "Derby-Shelton",
        "line": "MNRRWaterbury",
        "order": 500
      },
      "id": 1356
    },
    {
      "type": "Feature",
      "geometry": {
        "type": "Point",
        "coordinates": [
          -73.60345352,
          40.7492723
        ]
      },
      "properties": {
        "id": 1357,
        "name": "Carle Pl",
        "line": "LIRRPortJefferson",
        "order": 400
      },
      "id": 1357
    },
    {
      "type": "Feature",
      "geometry": {
        "type": "Point",
        "coordinates": [
          -73.19441548,
          40.79191079
        ]
      },
      "properties": {
        "id": 1358,
        "name": "Central Islip",
        "line": "LIRRRonkonkoma",
        "order": 400
      },
      "id": 1358
    },
    {
      "type": "Feature",
      "geometry": {
        "type": "Point",
        "coordinates": [
          -73.130915,
          41.194643
        ]
      },
      "properties": {
        "id": 1359,
        "name": "Stratford",
        "line": "MNRRNewHaven",
        "order": 500
      },
      "id": 1359
    },
    {
      "type": "Feature",
      "geometry": {
        "type": "Point",
        "coordinates": [
          -73.65465475,
          40.63476614
        ]
      },
      "properties": {
        "id": 1360,
        "name": "Oceanside",
        "line": "LIRRLongBeach",
        "order": 400
      },
      "id": 1360
    },
    {
      "type": "Feature",
      "geometry": {
        "type": "Point",
        "coordinates": [
          -73.729601,
          41.208797
        ]
      },
      "properties": {
        "id": 1361,
        "name": "Mt Kisco",
        "line": "MNRRHarlem",
        "order": 500
      },
      "id": 1361
    },
    {
      "type": "Feature",
      "geometry": {
        "type": "Point",
        "coordinates": [
          -73.80181951,
          40.76165279
        ]
      },
      "properties": {
        "id": 1362,
        "name": "Broadway",
        "line": "LIRRPortWashington",
        "order": 400
      },
      "id": 1362
    },
    {
      "type": "Feature",
      "geometry": {
        "type": "Point",
        "coordinates": [
          -73.32408767,
          40.70076415
        ]
      },
      "properties": {
        "id": 1363,
        "name": "Babylon",
        "line": "LIRRBabylon",
        "order": 400
      },
      "id": 1363
    },
    {
      "type": "Feature",
      "geometry": {
        "type": "Point",
        "coordinates": [
          -73.94702785,
          40.74232948
        ]
      },
      "properties": {
        "id": 1364,
        "name": "Hunterspoint Av",
        "line": "LIRRPortJefferson",
        "order": 400
      },
      "id": 1364
    },
    {
      "type": "Feature",
      "geometry": {
        "type": "Point",
        "coordinates": [
          -73.94702785,
          40.74232948
        ]
      },
      "properties": {
        "id": 27196,
        "name": "Hunterspoint Av",
        "line": "LIRROysterBay",
        "order": 400
      },
      "id": 27196
    },
    {
      "type": "Feature",
      "geometry": {
        "type": "Point",
        "coordinates": [
          -73.94702785,
          40.74232948
        ]
      },
      "properties": {
        "id": 27197,
        "name": "Hunterspoint Av",
        "line": "LIRRMontauk",
        "order": 400
      },
      "id": 27197
    },
    {
      "type": "Feature",
      "geometry": {
        "type": "Point",
        "coordinates": [
          -73.426333,
          41.217129
        ]
      },
      "properties": {
        "id": 1365,
        "name": "Cannondale",
        "line": "MNRRDanbury",
        "order": 500
      },
      "id": 1365
    },
    {
      "type": "Feature",
      "geometry": {
        "type": "Point",
        "coordinates": [
          -73.938918,
          40.805278
        ]
      },
      "properties": {
        "id": 1366,
        "name": "Harlem-125 St",
        "line": "MNRRHarlem",
        "order": 500
      },
      "id": 1366
    },
    {
      "type": "Feature",
      "geometry": {
        "type": "Point",
        "coordinates": [
          -73.72829722,
          40.71368754
        ]
      },
      "properties": {
        "id": 1367,
        "name": "Belmont Park",
        "line": "LIRRBelmont",
        "order": 400
      },
      "id": 1367
    },
    {
      "type": "Feature",
      "geometry": {
        "type": "Point",
        "coordinates": [
          -73.62516422,
          40.71316538
        ]
      },
      "properties": {
        "id": 1368,
        "name": "Hempstead",
        "line": "LIRRHempstead",
        "order": 400
      },
      "id": 1368
    },
    {
      "type": "Feature",
      "geometry": {
        "type": "Point",
        "coordinates": [
          -73.10594563,
          40.80812119
        ]
      },
      "properties": {
        "id": 1369,
        "name": "Ronkonkoma",
        "line": "LIRRRonkonkoma",
        "order": 400
      },
      "id": 1369
    },
    {
      "type": "Feature",
      "geometry": {
        "type": "Point",
        "coordinates": [
          -73.25374297,
          40.72461326
        ]
      },
      "properties": {
        "id": 1370,
        "name": "Bay Shore",
        "line": "LIRRMontauk",
        "order": 400
      },
      "id": 1370
    },
    {
      "type": "Feature",
      "geometry": {
        "type": "Point",
        "coordinates": [
          -72.66685927,
          40.91980061
        ]
      },
      "properties": {
        "id": 1371,
        "name": "Riverhead",
        "line": "LIRRGreenport",
        "order": 400
      },
      "id": 1371
    },
    {
      "type": "Feature",
      "geometry": {
        "type": "Point",
        "coordinates": [
          -73.64051987,
          40.72308753
        ]
      },
      "properties": {
        "id": 1372,
        "name": "Garden City",
        "line": "LIRRHempstead",
        "order": 400
      },
      "id": 1372
    },
    {
      "type": "Feature",
      "geometry": {
        "type": "Point",
        "coordinates": [
          -73.869168,
          41.1572
        ]
      },
      "properties": {
        "id": 1373,
        "name": "Ossining",
        "line": "MNRRHudson",
        "order": 500
      },
      "id": 1373
    },
    {
      "type": "Feature",
      "geometry": {
        "type": "Point",
        "coordinates": [
          -73.48356944,
          40.74314217
        ]
      },
      "properties": {
        "id": 1374,
        "name": "Bethpage",
        "line": "LIRRRonkonkoma",
        "order": 400
      },
      "id": 1374
    },
    {
      "type": "Feature",
      "geometry": {
        "type": "Point",
        "coordinates": [
          -72.86432497,
          40.79898926
        ]
      },
      "properties": {
        "id": 1375,
        "name": "Mastic-Shirley",
        "line": "LIRRMontauk",
        "order": 400
      },
      "id": 1375
    },
    {
      "type": "Feature",
      "geometry": {
        "type": "Point",
        "coordinates": [
          -73.65813416,
          40.64215213
        ]
      },
      "properties": {
        "id": 1376,
        "name": "East Rockaway",
        "line": "LIRRLongBeach",
        "order": 400
      },
      "id": 1376
    },
    {
      "type": "Feature",
      "geometry": {
        "type": "Point",
        "coordinates": [
          -73.774743,
          41.073988
        ]
      },
      "properties": {
        "id": 1377,
        "name": "Valhalla",
        "line": "MNRRHarlem",
        "order": 500
      },
      "id": 1377
    },
    {
      "type": "Feature",
      "geometry": {
        "type": "Point",
        "coordinates": [
          -73.05215,
          41.492816
        ]
      },
      "properties": {
        "id": 1378,
        "name": "Naugatuck",
        "line": "MNRRWaterbury",
        "order": 500
      },
      "id": 1378
    },
    {
      "type": "Feature",
      "geometry": {
        "type": "Point",
        "coordinates": [
          -73.50054735,
          40.82482831
        ]
      },
      "properties": {
        "id": 1379,
        "name": "Syosset",
        "line": "LIRRPortJefferson",
        "order": 400
      },
      "id": 1379
    },
    {
      "type": "Feature",
      "geometry": {
        "type": "Point",
        "coordinates": [
          -73.820779,
          40.959242
        ]
      },
      "properties": {
        "id": 1380,
        "name": "Crestwood",
        "line": "MNRRHarlem",
        "order": 500
      },
      "id": 1380
    },
    {
      "type": "Feature",
      "geometry": {
        "type": "Point",
        "coordinates": [
          -73.834945,
          40.941461
        ]
      },
      "properties": {
        "id": 1381,
        "name": "Bronxville",
        "line": "MNRRHarlem",
        "order": 500
      },
      "id": 1381
    },
    {
      "type": "Feature",
      "geometry": {
        "type": "Point",
        "coordinates": [
          -73.793752,
          41.095457
        ]
      },
      "properties": {
        "id": 1382,
        "name": "Mt Pleasant",
        "line": "MNRRHarlem",
        "order": 500
      },
      "id": 1382
    },
    {
      "type": "Feature",
      "geometry": {
        "type": "Point",
        "coordinates": [
          -73.62079268,
          40.85822207
        ]
      },
      "properties": {
        "id": 1383,
        "name": "Glen St",
        "line": "LIRROysterBay",
        "order": 400
      },
      "id": 1383
    },
    {
      "type": "Feature",
      "geometry": {
        "type": "Point",
        "coordinates": [
          -73.855324,
          40.906529
        ]
      },
      "properties": {
        "id": 1384,
        "name": "Wakefield",
        "line": "MNRRHarlem",
        "order": 500
      },
      "id": 1384
    },
    {
      "type": "Feature",
      "geometry": {
        "type": "Point",
        "coordinates": [
          -73.884484,
          40.993837
        ]
      },
      "properties": {
        "id": 1385,
        "name": "Hastings-on-Hudson",
        "line": "MNRRHudson",
        "order": 500
      },
      "id": 1385
    },
    {
      "type": "Feature",
      "geometry": {
        "type": "Point",
        "coordinates": [
          -73.37146,
          41.118822
        ]
      },
      "properties": {
        "id": 1386,
        "name": "Westport",
        "line": "MNRRNewHaven",
        "order": 500
      },
      "id": 1386
    },
    {
      "type": "Feature",
      "geometry": {
        "type": "Point",
        "coordinates": [
          -73.19767748,
          40.85661712
        ]
      },
      "properties": {
        "id": 1387,
        "name": "Smithtown",
        "line": "LIRRPortJefferson",
        "order": 400
      },
      "id": 1387
    },
    {
      "type": "Feature",
      "geometry": {
        "type": "Point",
        "coordinates": [
          -73.84483539,
          40.71959922
        ]
      },
      "properties": {
        "id": 1388,
        "name": "Forest Hills",
        "line": "LIRRHempstead",
        "order": 400
      },
      "id": 1388
    },
    {
      "type": "Feature",
      "geometry": {
        "type": "Point",
        "coordinates": [
          -73.84483539,
          40.71959922
        ]
      },
      "properties": {
        "id": 27198,
        "name": "Forest Hills",
        "line": "LIRRRonkonkoma",
        "order": 400
      },
      "id": 27198
    },
    {
      "type": "Feature",
      "geometry": {
        "type": "Point",
        "coordinates": [
          -73.84483539,
          40.71959922
        ]
      },
      "properties": {
        "id": 27199,
        "name": "Forest Hills",
        "line": "LIRRFarRockaway",
        "order": 400
      },
      "id": 27199
    },
    {
      "type": "Feature",
      "geometry": {
        "type": "Point",
        "coordinates": [
          -73.84483539,
          40.71959922
        ]
      },
      "properties": {
        "id": 27200,
        "name": "Forest Hills",
        "line": "LIRRBabylon",
        "order": 400
      },
      "id": 27200
    },
    {
      "type": "Feature",
      "geometry": {
        "type": "Point",
        "coordinates": [
          -73.84483539,
          40.71959922
        ]
      },
      "properties": {
        "id": 27201,
        "name": "Forest Hills",
        "line": "LIRRWestHempstead",
        "order": 400
      },
      "id": 27201
    },
    {
      "type": "Feature",
      "geometry": {
        "type": "Point",
        "coordinates": [
          -73.84483539,
          40.71959922
        ]
      },
      "properties": {
        "id": 27202,
        "name": "Forest Hills",
        "line": "LIRRLongBeach",
        "order": 400
      },
      "id": 27202
    },
    {
      "type": "Feature",
      "geometry": {
        "type": "Point",
        "coordinates": [
          -73.84369038,
          40.75260683
        ]
      },
      "properties": {
        "id": 1389,
        "name": "Mets-Willets Point",
        "line": "LIRRPortWashington",
        "order": 400
      },
      "id": 1389
    },
    {
      "type": "Feature",
      "geometry": {
        "type": "Point",
        "coordinates": [
          -73.876694,
          41.027087
        ]
      },
      "properties": {
        "id": 1390,
        "name": "Ardsley-on-Hudson",
        "line": "MNRRHudson",
        "order": 500
      },
      "id": 1390
    },
    {
      "type": "Feature",
      "geometry": {
        "type": "Point",
        "coordinates": [
          -73.684086,
          41.259826
        ]
      },
      "properties": {
        "id": 1391,
        "name": "Katonah",
        "line": "MNRRHarlem",
        "order": 500
      },
      "id": 1391
    },
    {
      "type": "Feature",
      "geometry": {
        "type": "Point",
        "coordinates": [
          -72.925646,
          41.297789
        ]
      },
      "properties": {
        "id": 1392,
        "name": "New Haven",
        "line": "MNRRNewHaven",
        "order": 500
      },
      "id": 1392
    },
    {
      "type": "Feature",
      "geometry": {
        "type": "Point",
        "coordinates": [
          -73.62694429,
          40.8155504
        ]
      },
      "properties": {
        "id": 1393,
        "name": "Greenvale",
        "line": "LIRROysterBay",
        "order": 400
      },
      "id": 1393
    },
    {
      "type": "Feature",
      "geometry": {
        "type": "Point",
        "coordinates": [
          -73.567145,
          41.033413
        ]
      },
      "properties": {
        "id": 1394,
        "name": "Old Greenwich",
        "line": "MNRRNewHaven",
        "order": 500
      },
      "id": 1394
    },
    {
      "type": "Feature",
      "geometry": {
        "type": "Point",
        "coordinates": [
          -73.072482,
          41.395251
        ]
      },
      "properties": {
        "id": 1395,
        "name": "Seymour",
        "line": "MNRRWaterbury",
        "order": 500
      },
      "id": 1395
    },
    {
      "type": "Feature",
      "geometry": {
        "type": "Point",
        "coordinates": [
          -73.448449,
          41.396057
        ]
      },
      "properties": {
        "id": 1396,
        "name": "Danbury",
        "line": "MNRRDanbury",
        "order": 500
      },
      "id": 1396
    },
    {
      "type": "Feature",
      "geometry": {
        "type": "Point",
        "coordinates": [
          -72.52385806,
          40.87665017
        ]
      },
      "properties": {
        "id": 1397,
        "name": "Hampton Bays",
        "line": "LIRRMontauk",
        "order": 400
      },
      "id": 1397
    },
    {
      "type": "Feature",
      "geometry": {
        "type": "Point",
        "coordinates": [
          -73.867034,
          41.139462
        ]
      },
      "properties": {
        "id": 1398,
        "name": "Scarborough",
        "line": "MNRRHudson",
        "order": 500
      },
      "id": 1398
    },
    {
      "type": "Feature",
      "geometry": {
        "type": "Point",
        "coordinates": [
          -73.736172,
          40.953968
        ]
      },
      "properties": {
        "id": 1399,
        "name": "Mamaroneck",
        "line": "MNRRNewHaven",
        "order": 500
      },
      "id": 1399
    },
    {
      "type": "Feature",
      "geometry": {
        "type": "Point",
        "coordinates": [
          -73.186724,
          41.177594
        ]
      },
      "properties": {
        "id": 1400,
        "name": "Bridgeport",
        "line": "MNRRNewHaven",
        "order": 500
      },
      "id": 1400
    },
    {
      "type": "Feature",
      "geometry": {
        "type": "Point",
        "coordinates": [
          -73.68739411,
          40.82915358
        ]
      },
      "properties": {
        "id": 1401,
        "name": "Port Washington",
        "line": "LIRRPortWashington",
        "order": 400
      },
      "id": 1401
    },
    {
      "type": "Feature",
      "geometry": {
        "type": "Point",
        "coordinates": [
          -73.73548579,
          40.66591993
        ]
      },
      "properties": {
        "id": 1402,
        "name": "Rosedale",
        "line": "LIRRFarRockaway",
        "order": 400
      },
      "id": 1402
    },
    {
      "type": "Feature",
      "geometry": {
        "type": "Point",
        "coordinates": [
          -72.38938784,
          40.89507414
        ]
      },
      "properties": {
        "id": 1403,
        "name": "Southampton",
        "line": "LIRRMontauk",
        "order": 400
      },
      "id": 1403
    },
    {
      "type": "Feature",
      "geometry": {
        "type": "Point",
        "coordinates": [
          -73.76660795,
          40.71022657
        ]
      },
      "properties": {
        "id": 1404,
        "name": "Hollis",
        "line": "LIRRHempstead",
        "order": 400
      },
      "id": 1404
    },
    {
      "type": "Feature",
      "geometry": {
        "type": "Point",
        "coordinates": [
          -73.795285,
          41.011363
        ]
      },
      "properties": {
        "id": 1405,
        "name": "Hartsdale",
        "line": "MNRRHarlem",
        "order": 500
      },
      "id": 1405
    },
    {
      "type": "Feature",
      "geometry": {
        "type": "Point",
        "coordinates": [
          -73.234347,
          41.160995
        ]
      },
      "properties": {
        "id": 1406,
        "name": "Fairfield-Black Rock",
        "line": "MNRRNewHaven",
        "order": 500
      },
      "id": 1406
    },
    {
      "type": "Feature",
      "geometry": {
        "type": "Point",
        "coordinates": [
          -73.623225,
          41.413547
        ]
      },
      "properties": {
        "id": 1407,
        "name": "Southeast",
        "line": "MNRRHarlem",
        "order": 500
      },
      "id": 1407
    },
    {
      "type": "Feature",
      "geometry": {
        "type": "Point",
        "coordinates": [
          -73.55050976,
          40.66386508
        ]
      },
      "properties": {
        "id": 1408,
        "name": "Merrick",
        "line": "LIRRBabylon",
        "order": 400
      },
      "id": 1408
    },
    {
      "type": "Feature",
      "geometry": {
        "type": "Point",
        "coordinates": [
          -73.977931,
          40.75245
        ]
      },
      "properties": {
        "id": 1409,
        "name": "Grand Central",
        "line": "MNRRHarlem",
        "order": 500,
        "alternate_names": [
          "Grand Central - 42 St",
          "Grand Central Madison"
        ]
      },
      "id": 1409
    },
    {
      "type": "Feature",
      "geometry": {
        "type": "Point",
        "coordinates": [
          -73.829666,
          40.949702
        ]
      },
      "properties": {
        "id": 1410,
        "name": "Tuckahoe",
        "line": "MNRRHarlem",
        "order": 500
      },
      "id": 1410
    },
    {
      "type": "Feature",
      "geometry": {
        "type": "Point",
        "coordinates": [
          -73.65458563,
          40.60141315
        ]
      },
      "properties": {
        "id": 1411,
        "name": "Island Park",
        "line": "LIRRLongBeach",
        "order": 400
      },
      "id": 1411
    },
    {
      "type": "Feature",
      "geometry": {
        "type": "Point",
        "coordinates": [
          -73.879369,
          41.012705
        ]
      },
      "properties": {
        "id": 1412,
        "name": "Dobbs Ferry",
        "line": "MNRRHudson",
        "order": 500
      },
      "id": 1412
    },
    {
      "type": "Feature",
      "geometry": {
        "type": "Point",
        "coordinates": [
          -73.62957195,
          40.72137501
        ]
      },
      "properties": {
        "id": 1413,
        "name": "Country Life Press",
        "line": "LIRRHempstead",
        "order": 400
      },
      "id": 1413
    },
    {
      "type": "Feature",
      "geometry": {
        "type": "Point",
        "coordinates": [
          -73.899715,
          40.846907
        ]
      },
      "properties": {
        "id": 1414,
        "name": "Tremont",
        "line": "MNRRHarlem",
        "order": 500
      },
      "id": 1414
    },
    {
      "type": "Feature",
      "geometry": {
        "type": "Point",
        "coordinates": [
          -73.59828592,
          40.87448921
        ]
      },
      "properties": {
        "id": 1415,
        "name": "Locust Valley",
        "line": "LIRROysterBay",
        "order": 400
      },
      "id": 1415
    },
    {
      "type": "Feature",
      "geometry": {
        "type": "Point",
        "coordinates": [
          -73.20891105,
          40.73593032
        ]
      },
      "properties": {
        "id": 1416,
        "name": "Islip",
        "line": "LIRRMontauk",
        "order": 400
      },
      "id": 1416
    },
    {
      "type": "Feature",
      "geometry": {
        "type": "Point",
        "coordinates": [
          -73.562371,
          41.814831
        ]
      },
      "properties": {
        "id": 1417,
        "name": "Wassaic",
        "line": "MNRRHarlem",
        "order": 500
      },
      "id": 1417
    },
    {
      "type": "Feature",
      "geometry": {
        "type": "Point",
        "coordinates": [
          -72.65008386,
          40.83032007
        ]
      },
      "properties": {
        "id": 1418,
        "name": "Westhampton",
        "line": "LIRRMontauk",
        "order": 400
      },
      "id": 1418
    },
    {
      "type": "Feature",
      "geometry": {
        "type": "Point",
        "coordinates": [
          -73.063108,
          41.440683
        ]
      },
      "properties": {
        "id": 1419,
        "name": "Beacon Falls",
        "line": "MNRRWaterbury",
        "order": 500
      },
      "id": 1419
    },
    {
      "type": "Feature",
      "geometry": {
        "type": "Point",
        "coordinates": [
          -73.258079,
          41.142862
        ]
      },
      "properties": {
        "id": 1420,
        "name": "Fairfield",
        "line": "MNRRNewHaven",
        "order": 500
      },
      "id": 1420
    },
    {
      "type": "Feature",
      "geometry": {
        "type": "Point",
        "coordinates": [
          -73.604251,
          41.51173
        ]
      },
      "properties": {
        "id": 1421,
        "name": "Patterson",
        "line": "MNRRHarlem",
        "order": 500
      },
      "id": 1421
    },
    {
      "type": "Feature",
      "geometry": {
        "type": "Point",
        "coordinates": [
          -73.45466653,
          40.67790139
        ]
      },
      "properties": {
        "id": 1422,
        "name": "Massapequa Park",
        "line": "LIRRBabylon",
        "order": 400
      },
      "id": 1422
    },
    {
      "type": "Feature",
      "geometry": {
        "type": "Point",
        "coordinates": [
          -73.431601,
          41.195407
        ]
      },
      "properties": {
        "id": 1423,
        "name": "Wilton",
        "line": "MNRRDanbury",
        "order": 500
      },
      "id": 1423
    },
    {
      "type": "Feature",
      "geometry": {
        "type": "Point",
        "coordinates": [
          -73.72626362,
          40.78718214
        ]
      },
      "properties": {
        "id": 1424,
        "name": "Great Neck",
        "line": "LIRRPortWashington",
        "order": 400
      },
      "id": 1424
    },
    {
      "type": "Feature",
      "geometry": {
        "type": "Point",
        "coordinates": [
          -73.427761,
          41.146606
        ]
      },
      "properties": {
        "id": 1425,
        "name": "Merritt 7",
        "line": "MNRRDanbury",
        "order": 500
      },
      "id": 1425
    },
    {
      "type": "Feature",
      "geometry": {
        "type": "Point",
        "coordinates": [
          -73.472121,
          41.076978
        ]
      },
      "properties": {
        "id": 1426,
        "name": "Darien",
        "line": "MNRRNewHaven",
        "order": 500
      },
      "id": 1426
    },
    {
      "type": "Feature",
      "geometry": {
        "type": "Point",
        "coordinates": [
          -73.66880973,
          40.67550074
        ]
      },
      "properties": {
        "id": 1427,
        "name": "Malverne",
        "line": "LIRRWestHempstead",
        "order": 400
      },
      "id": 1427
    },
    {
      "type": "Feature",
      "geometry": {
        "type": "Point",
        "coordinates": [
          -73.95603088,
          40.74135624
        ]
      },
      "properties": {
        "id": 1428,
        "name": "Long Island City",
        "line": "LIRRPortJefferson",
        "order": 400
      },
      "id": 1428
    },
    {
      "type": "Feature",
      "geometry": {
        "type": "Point",
        "coordinates": [
          -73.95603088,
          40.74135624
        ]
      },
      "properties": {
        "id": 27203,
        "name": "Long Island City",
        "line": "LIRROysterBay",
        "order": 400
      },
      "id": 27203
    },
    {
      "type": "Feature",
      "geometry": {
        "type": "Point",
        "coordinates": [
          -73.95603088,
          40.74135624
        ]
      },
      "properties": {
        "id": 27204,
        "name": "Long Island City",
        "line": "LIRRMontauk",
        "order": 400
      },
      "id": 27204
    },
    {
      "type": "Feature",
      "geometry": {
        "type": "Point",
        "coordinates": [
          -73.94829171,
          40.67838534
        ]
      },
      "properties": {
        "id": 1429,
        "name": "Nostrand Av",
        "line": "LIRRAtlantic",
        "order": 400
      },
      "id": 1429
    },
    {
      "type": "Feature",
      "geometry": {
        "type": "Point",
        "coordinates": [
          -73.94829171,
          40.67838534
        ]
      },
      "properties": {
        "id": 27205,
        "name": "Nostrand Av",
        "line": "LIRRWestHempstead",
        "order": 400
      },
      "id": 27205
    },
    {
      "type": "Feature",
      "geometry": {
        "type": "Point",
        "coordinates": [
          -73.94829171,
          40.67838534
        ]
      },
      "properties": {
        "id": 27206,
        "name": "Nostrand Av",
        "line": "LIRRHempstead",
        "order": 400
      },
      "id": 27206
    },
    {
      "type": "Feature",
      "geometry": {
        "type": "Point",
        "coordinates": [
          -73.94829171,
          40.67838534
        ]
      },
      "properties": {
        "id": 27207,
        "name": "Nostrand Av",
        "line": "LIRRBabylon",
        "order": 400
      },
      "id": 27207
    },
    {
      "type": "Feature",
      "geometry": {
        "type": "Point",
        "coordinates": [
          -73.79222,
          41.134183
        ]
      },
      "properties": {
        "id": 1430,
        "name": "Pleasantville",
        "line": "MNRRHarlem",
        "order": 500
      },
      "id": 1430
    },
    {
      "type": "Feature",
      "geometry": {
        "type": "Point",
        "coordinates": [
          -72.94363461,
          40.77376884
        ]
      },
      "properties": {
        "id": 1431,
        "name": "Bellport",
        "line": "LIRRMontauk",
        "order": 400
      },
      "id": 1431
    },
    {
      "type": "Feature",
      "geometry": {
        "type": "Point",
        "coordinates": [
          -73.64154322,
          40.70202607
        ]
      },
      "properties": {
        "id": 1432,
        "name": "West Hempstead",
        "line": "LIRRWestHempstead",
        "order": 400
      },
      "id": 1432
    },
    {
      "type": "Feature",
      "geometry": {
        "type": "Point",
        "coordinates": [
          -73.872988,
          41.040388
        ]
      },
      "properties": {
        "id": 1433,
        "name": "Irvington",
        "line": "MNRRHudson",
        "order": 500
      },
      "id": 1433
    },
    {
      "type": "Feature",
      "geometry": {
        "type": "Point",
        "coordinates": [
          -73.404428,
          41.104017
        ]
      },
      "properties": {
        "id": 1434,
        "name": "East Norwalk",
        "line": "MNRRNewHaven",
        "order": 500
      },
      "id": 1434
    },
    {
      "type": "Feature",
      "geometry": {
        "type": "Point",
        "coordinates": [
          -73.287147,
          41.135823
        ]
      },
      "properties": {
        "id": 1435,
        "name": "Southport",
        "line": "MNRRNewHaven",
        "order": 500
      },
      "id": 1435
    },
    {
      "type": "Feature",
      "geometry": {
        "type": "Point",
        "coordinates": [
          -73.3578579,
          40.75484196
        ]
      },
      "properties": {
        "id": 1436,
        "name": "Wyandanch",
        "line": "LIRRRonkonkoma",
        "order": 400
      },
      "id": 1436
    },
    {
      "type": "Feature",
      "geometry": {
        "type": "Point",
        "coordinates": [
          -72.36260645,
          41.09982935
        ]
      },
      "properties": {
        "id": 1437,
        "name": "Greenport",
        "line": "LIRRGreenport",
        "order": 400
      },
      "id": 1437
    },
    {
      "type": "Feature",
      "geometry": {
        "type": "Point",
        "coordinates": [
          -73.79612,
          41.10913
        ]
      },
      "properties": {
        "id": 1438,
        "name": "Hawthorne",
        "line": "MNRRHarlem",
        "order": 500
      },
      "id": 1438
    },
    {
      "type": "Feature",
      "geometry": {
        "type": "Point",
        "coordinates": [
          -73.40953855,
          40.85301307
        ]
      },
      "properties": {
        "id": 1439,
        "name": "Huntington",
        "line": "LIRRPortJefferson",
        "order": 400
      },
      "id": 1439
    },
    {
      "type": "Feature",
      "geometry": {
        "type": "Point",
        "coordinates": [
          -72.30979879,
          40.93911034
        ]
      },
      "properties": {
        "id": 1440,
        "name": "Bridgehampton",
        "line": "LIRRMontauk",
        "order": 400
      },
      "id": 1440
    },
    {
      "type": "Feature",
      "geometry": {
        "type": "Point",
        "coordinates": [
          -73.73583686,
          40.61576138
        ]
      },
      "properties": {
        "id": 1441,
        "name": "Lawrence",
        "line": "LIRRFarRockaway",
        "order": 400
      },
      "id": 1441
    },
    {
      "type": "Feature",
      "geometry": {
        "type": "Point",
        "coordinates": [
          -73.808422,
          40.909918
        ]
      },
      "properties": {
        "id": 1442,
        "name": "Pelham",
        "line": "MNRRNewHaven",
        "order": 500
      },
      "id": 1442
    },
    {
      "type": "Feature",
      "geometry": {
        "type": "Point",
        "coordinates": [
          -72.13259431,
          40.98003502
        ]
      },
      "properties": {
        "id": 1443,
        "name": "Amagansett",
        "line": "LIRRMontauk",
        "order": 400
      },
      "id": 1443
    },
    {
      "type": "Feature",
      "geometry": {
        "type": "Point",
        "coordinates": [
          -73.75179637,
          40.66853133
        ]
      },
      "properties": {
        "id": 1444,
        "name": "Laurelton",
        "line": "LIRRFarRockaway",
        "order": 400
      },
      "id": 1444
    },
    {
      "type": "Feature",
      "geometry": {
        "type": "Point",
        "coordinates": [
          -73.86246,
          40.895706
        ]
      },
      "properties": {
        "id": 1445,
        "name": "Woodlawn",
        "line": "MNRRHarlem",
        "order": 500
      },
      "id": 1445
    },
    {
      "type": "Feature",
      "geometry": {
        "type": "Point",
        "coordinates": [
          -73.982454,
          41.450193
        ]
      },
      "properties": {
        "id": 1446,
        "name": "Breakneck Ridge",
        "line": "MNRRHudson",
        "order": 500
      },
      "id": 1446
    },
    {
      "type": "Feature",
      "geometry": {
        "type": "Point",
        "coordinates": [
          -73.64620359,
          40.69490918
        ]
      },
      "properties": {
        "id": 1447,
        "name": "Hempstead Gardens",
        "line": "LIRRWestHempstead",
        "order": 400
      },
      "id": 1447
    },
    {
      "type": "Feature",
      "geometry": {
        "type": "Point",
        "coordinates": [
          -73.76549112,
          40.69126726
        ]
      },
      "properties": {
        "id": 1448,
        "name": "St. Albans",
        "line": "LIRRWestHempstead",
        "order": 400
      },
      "id": 1448
    },
    {
      "type": "Feature",
      "geometry": {
        "type": "Point",
        "coordinates": [
          -73.66308736,
          40.72297212
        ]
      },
      "properties": {
        "id": 1449,
        "name": "Nassau Blvd",
        "line": "LIRRHempstead",
        "order": 400
      },
      "id": 1449
    },
    {
      "type": "Feature",
      "geometry": {
        "type": "Point",
        "coordinates": [
          -73.913909,
          40.861582
        ]
      },
      "properties": {
        "id": 1450,
        "name": "University Heights",
        "line": "MNRRHudson",
        "order": 500
      },
      "id": 1450
    },
    {
      "type": "Feature",
      "geometry": {
        "type": "Point",
        "coordinates": [
          -73.898694,
          40.951355
        ]
      },
      "properties": {
        "id": 1451,
        "name": "Glenwood",
        "line": "MNRRHudson",
        "order": 500
      },
      "id": 1451
    },
    {
      "type": "Feature",
      "geometry": {
        "type": "Point",
        "coordinates": [
          -73.25600585,
          40.88368828
        ]
      },
      "properties": {
        "id": 1452,
        "name": "Kings Park",
        "line": "LIRRPortJefferson",
        "order": 400
      },
      "id": 1452
    },
    {
      "type": "Feature",
      "geometry": {
        "type": "Point",
        "coordinates": [
          -73.68086663,
          40.730787
        ]
      },
      "properties": {
        "id": 1453,
        "name": "New Hyde Park",
        "line": "LIRRPortJefferson",
        "order": 400
      },
      "id": 1453
    },
    {
      "type": "Feature",
      "geometry": {
        "type": "Point",
        "coordinates": [
          -73.97699679896367,
          40.75422849699216
        ]
      },
      "properties": {
        "id": 1454,
        "name": "Grand Central Madison",
        "line": "LIRRPortWashington",
        "order": 400,
        "alternate_names": [
          "Grand Central",
          "Grand Central - 42 St"
        ]
      },
      "id": 1454
    },
    {
      "type": "Feature",
      "geometry": {
        "type": "Point",
        "coordinates": [
          -73.97699679896367,
          40.75422849699216
        ]
      },
      "properties": {
        "id": 27208,
        "name": "Grand Central Madison",
        "line": "LIRRHempstead",
        "order": 400,
        "alternate_names": [
          "Grand Central",
          "Grand Central - 42 St"
        ]
      },
      "id": 27208
    },
    {
      "type": "Feature",
      "geometry": {
        "type": "Point",
        "coordinates": [
          -73.97699679896367,
          40.75422849699216
        ]
      },
      "properties": {
        "id": 27209,
        "name": "Grand Central Madison",
        "line": "LIRRRonkonkoma",
        "order": 400,
        "alternate_names": [
          "Grand Central",
          "Grand Central - 42 St"
        ]
      },
      "id": 27209
    },
    {
      "type": "Feature",
      "geometry": {
        "type": "Point",
        "coordinates": [
          -73.97699679896367,
          40.75422849699216
        ]
      },
      "properties": {
        "id": 27210,
        "name": "Grand Central Madison",
        "line": "LIRRFarRockaway",
        "order": 400,
        "alternate_names": [
          "Grand Central",
          "Grand Central - 42 St"
        ]
      },
      "id": 27210
    },
    {
      "type": "Feature",
      "geometry": {
        "type": "Point",
        "coordinates": [
          -73.97699679896367,
          40.75422849699216
        ]
      },
      "properties": {
        "id": 27211,
        "name": "Grand Central Madison",
        "line": "LIRRBabylon",
        "order": 400,
        "alternate_names": [
          "Grand Central",
          "Grand Central - 42 St"
        ]
      },
      "id": 27211
    },
    {
      "type": "Feature",
      "geometry": {
        "type": "Point",
        "coordinates": [
          -73.97699679896367,
          40.75422849699216
        ]
      },
      "properties": {
        "id": 27212,
        "name": "Grand Central Madison",
        "line": "LIRRWestHempstead",
        "order": 400,
        "alternate_names": [
          "Grand Central",
          "Grand Central - 42 St"
        ]
      },
      "id": 27212
    },
    {
      "type": "Feature",
      "geometry": {
        "type": "Point",
        "coordinates": [
          -73.97699679896367,
          40.75422849699216
        ]
      },
      "properties": {
        "id": 27213,
        "name": "Grand Central Madison",
        "line": "LIRRLongBeach",
        "order": 400,
        "alternate_names": [
          "Grand Central",
          "Grand Central - 42 St"
        ]
      },
      "id": 27213
    },
    {
      "type": "Feature",
      "geometry": {
        "type": "Point",
        "coordinates": [
          -73.97699679896367,
          40.75422849699216
        ]
      },
      "properties": {
        "id": 27214,
        "name": "Grand Central Madison",
        "line": "LIRRPortJefferson",
        "order": 400,
        "alternate_names": [
          "Grand Central",
          "Grand Central - 42 St"
        ]
      },
      "id": 27214
    },
    {
      "type": "Feature",
      "geometry": {
        "type": "Point",
        "coordinates": [
          -73.97699679896367,
          40.75422849699216
        ]
      },
      "properties": {
        "id": 27215,
        "name": "Grand Central Madison",
        "line": "LIRRBelmont",
        "order": 400,
        "alternate_names": [
          "Grand Central",
          "Grand Central - 42 St"
        ]
      },
      "id": 27215
    },
    {
      "type": "Feature",
      "geometry": {
        "type": "Point",
        "coordinates": [
          -72.963728,
          41.270775
        ]
      },
      "properties": {
        "id": 1455,
        "name": "West Haven",
        "line": "MNRRNewHaven",
        "order": 500
      },
      "id": 1455
    },
    {
      "type": "Feature",
      "geometry": {
        "type": "Point",
        "coordinates": [
          -73.60716189,
          40.65678547
        ]
      },
      "properties": {
        "id": 1456,
        "name": "Baldwin",
        "line": "LIRRBabylon",
        "order": 400
      },
      "id": 1456
    },
    {
      "type": "Feature",
      "geometry": {
        "type": "Point",
        "coordinates": [
          -73.86971,
          41.094617
        ]
      },
      "properties": {
        "id": 1457,
        "name": "Philipse Manor",
        "line": "MNRRHudson",
        "order": 500
      },
      "id": 1457
    },
    {
      "type": "Feature",
      "geometry": {
        "type": "Point",
        "coordinates": [
          -73.418197,
          41.376189
        ]
      },
      "properties": {
        "id": 1458,
        "name": "Bethel",
        "line": "MNRRDanbury",
        "order": 500
      },
      "id": 1458
    },
    {
      "type": "Feature",
      "geometry": {
        "type": "Point",
        "coordinates": [
          -73.66348172,
          40.7349414
        ]
      },
      "properties": {
        "id": 1459,
        "name": "Merillon Av",
        "line": "LIRRPortJefferson",
        "order": 400
      },
      "id": 1459
    },
    {
      "type": "Feature",
      "geometry": {
        "type": "Point",
        "coordinates": [
          -73.66452517,
          40.59047232
        ]
      },
      "properties": {
        "id": 1460,
        "name": "Long Beach",
        "line": "LIRRLongBeach",
        "order": 400
      },
      "id": 1460
    },
    {
      "type": "Feature",
      "geometry": {
        "type": "Point",
        "coordinates": [
          -72.99859279,
          40.8174148
        ]
      },
      "properties": {
        "id": 1461,
        "name": "Medford",
        "line": "LIRRGreenport",
        "order": 400
      },
      "id": 1461
    },
    {
      "type": "Feature",
      "geometry": {
        "type": "Point",
        "coordinates": [
          -73.881873,
          40.867237
        ]
      },
      "properties": {
        "id": 1462,
        "name": "Botanical Garden",
        "line": "MNRRHarlem",
        "order": 500
      },
      "id": 1462
    },
    {
      "type": "Feature",
      "geometry": {
        "type": "Point",
        "coordinates": [
          -73.559126,
          41.779445
        ]
      },
      "properties": {
        "id": 1463,
        "name": "Tenmile River",
        "line": "MNRRHarlem",
        "order": 500
      },
      "id": 1463
    },
    {
      "type": "Feature",
      "geometry": {
        "type": "Point",
        "coordinates": [
          -73.6466154,
          40.65835409
        ]
      },
      "properties": {
        "id": 1464,
        "name": "Rockville Centre",
        "line": "LIRRBabylon",
        "order": 400
      },
      "id": 1464
    },
    {
      "type": "Feature",
      "geometry": {
        "type": "Point",
        "coordinates": [
          -73.435014,
          41.324796
        ]
      },
      "properties": {
        "id": 1465,
        "name": "Redding",
        "line": "MNRRDanbury",
        "order": 500
      },
      "id": 1465
    },
    {
      "type": "Feature",
      "geometry": {
        "type": "Point",
        "coordinates": [
          -73.9923584461845,
          40.7500612693189
        ]
      },
      "properties": {
        "id": 1466,
        "name": "New York Penn Station",
        "line": "LIRRPortWashington",
        "order": 400
      },
      "id": 1466
    },
    {
      "type": "Feature",
      "geometry": {
        "type": "Point",
        "coordinates": [
          -73.9923584461845,
          40.7500612693189
        ]
      },
      "properties": {
        "id": 27216,
        "name": "New York Penn Station",
        "line": "LIRRHempstead",
        "order": 400
      },
      "id": 27216
    },
    {
      "type": "Feature",
      "geometry": {
        "type": "Point",
        "coordinates": [
          -73.9923584461845,
          40.7500612693189
        ]
      },
      "properties": {
        "id": 27217,
        "name": "New York Penn Station",
        "line": "LIRRPortJefferson",
        "order": 400
      },
      "id": 27217
    },
    {
      "type": "Feature",
      "geometry": {
        "type": "Point",
        "coordinates": [
          -73.9923584461845,
          40.7500612693189
        ]
      },
      "properties": {
        "id": 27218,
        "name": "New York Penn Station",
        "line": "LIRROysterBay",
        "order": 400
      },
      "id": 27218
    },
    {
      "type": "Feature",
      "geometry": {
        "type": "Point",
        "coordinates": [
          -73.9923584461845,
          40.7500612693189
        ]
      },
      "properties": {
        "id": 27219,
        "name": "New York Penn Station",
        "line": "LIRRRonkonkoma",
        "order": 400
      },
      "id": 27219
    },
    {
      "type": "Feature",
      "geometry": {
        "type": "Point",
        "coordinates": [
          -73.9923584461845,
          40.7500612693189
        ]
      },
      "properties": {
        "id": 27220,
        "name": "New York Penn Station",
        "line": "LIRRMontauk",
        "order": 400
      },
      "id": 27220
    },
    {
      "type": "Feature",
      "geometry": {
        "type": "Point",
        "coordinates": [
          -73.9923584461845,
          40.7500612693189
        ]
      },
      "properties": {
        "id": 27221,
        "name": "New York Penn Station",
        "line": "LIRRFarRockaway",
        "order": 400
      },
      "id": 27221
    },
    {
      "type": "Feature",
      "geometry": {
        "type": "Point",
        "coordinates": [
          -73.9923584461845,
          40.7500612693189
        ]
      },
      "properties": {
        "id": 27222,
        "name": "New York Penn Station",
        "line": "LIRRBabylon",
        "order": 400
      },
      "id": 27222
    },
    {
      "type": "Feature",
      "geometry": {
        "type": "Point",
        "coordinates": [
          -73.9923584461845,
          40.7500612693189
        ]
      },
      "properties": {
        "id": 27223,
        "name": "New York Penn Station",
        "line": "LIRRWestHempstead",
        "order": 400
      },
      "id": 27223
    },
    {
      "type": "Feature",
      "geometry": {
        "type": "Point",
        "coordinates": [
          -73.9923584461845,
          40.7500612693189
        ]
      },
      "properties": {
        "id": 27224,
        "name": "New York Penn Station",
        "line": "LIRRLongBeach",
        "order": 400
      },
      "id": 27224
    },
    {
      "type": "Feature",
      "geometry": {
        "type": "Point",
        "coordinates": [
          -73.9923584461845,
          40.7500612693189
        ]
      },
      "properties": {
        "id": 27225,
        "name": "New York Penn Station",
        "line": "LIRRBelmont",
        "order": 400
      },
      "id": 27225
    },
    {
      "type": "Feature",
      "geometry": {
        "type": "Point",
        "coordinates": [
          -73.496139,
          41.145953
        ]
      },
      "properties": {
        "id": 1467,
        "name": "New Canaan",
        "line": "MNRRNewCanaan",
        "order": 500
      },
      "id": 1467
    },
    {
      "type": "Feature",
      "geometry": {
        "type": "Point",
        "coordinates": [
          -73.66409,
          41.001367
        ]
      },
      "properties": {
        "id": 1468,
        "name": "Port Chester",
        "line": "MNRRNewHaven",
        "order": 500
      },
      "id": 1468
    },
    {
      "type": "Feature",
      "geometry": {
        "type": "Point",
        "coordinates": [
          -73.39955329,
          40.74535986
        ]
      },
      "properties": {
        "id": 1469,
        "name": "Pinelawn",
        "line": "LIRRRonkonkoma",
        "order": 400
      },
      "id": 1469
    },
    {
      "type": "Feature",
      "geometry": {
        "type": "Point",
        "coordinates": [
          -73.70523093,
          40.63669756
        ]
      },
      "properties": {
        "id": 1470,
        "name": "Hewlett",
        "line": "LIRRFarRockaway",
        "order": 400
      },
      "id": 1470
    },
    {
      "type": "Feature",
      "geometry": {
        "type": "Point",
        "coordinates": [
          -73.970419,
          41.3326
        ]
      },
      "properties": {
        "id": 1471,
        "name": "Manitou",
        "line": "MNRRHudson",
        "order": 500
      },
      "id": 1471
    },
    {
      "type": "Feature",
      "geometry": {
        "type": "Point",
        "coordinates": [
          -73.75059373,
          40.60915917
        ]
      },
      "properties": {
        "id": 1472,
        "name": "Far Rockaway",
        "line": "LIRRFarRockaway",
        "order": 400
      },
      "id": 1472
    },
    {
      "type": "Feature",
      "geometry": {
        "type": "Point",
        "coordinates": [
          -73.422039,
          41.095575
        ]
      },
      "properties": {
        "id": 1473,
        "name": "South Norwalk",
        "line": "MNRRNewHaven",
        "order": 500
      },
      "id": 1473
    },
    {
      "type": "Feature",
      "geometry": {
        "type": "Point",
        "coordinates": [
          -73.060165,
          41.22223
        ]
      },
      "properties": {
        "id": 1474,
        "name": "Milford",
        "line": "MNRRNewHaven",
        "order": 500
      },
      "id": 1474
    },
    {
      "type": "Feature",
      "geometry": {
        "type": "Point",
        "coordinates": [
          -73.677658,
          41.294036
        ]
      },
      "properties": {
        "id": 1475,
        "name": "Goldens Bridge",
        "line": "MNRRHarlem",
        "order": 500
      },
      "id": 1475
    },
    {
      "type": "Feature",
      "geometry": {
        "type": "Point",
        "coordinates": [
          -73.78974116,
          40.76148239
        ]
      },
      "properties": {
        "id": 1476,
        "name": "Auburndale",
        "line": "LIRRPortWashington",
        "order": 400
      },
      "id": 1476
    },
    {
      "type": "Feature",
      "geometry": {
        "type": "Point",
        "coordinates": [
          -73.775118,
          41.033344
        ]
      },
      "properties": {
        "id": 1477,
        "name": "White Plains",
        "line": "MNRRHarlem",
        "order": 500
      },
      "id": 1477
    },
    {
      "type": "Feature",
      "geometry": {
        "type": "Point",
        "coordinates": [
          -73.62541832,
          40.85274959
        ]
      },
      "properties": {
        "id": 1478,
        "name": "Sea Cliff",
        "line": "LIRROysterBay",
        "order": 400
      },
      "id": 1478
    },
    {
      "type": "Feature",
      "geometry": {
        "type": "Point",
        "coordinates": [
          -73.497497,
          41.069021
        ]
      },
      "properties": {
        "id": 1479,
        "name": "Noroton Heights",
        "line": "MNRRNewHaven",
        "order": 500
      },
      "id": 1479
    },
    {
      "type": "Feature",
      "geometry": {
        "type": "Point",
        "coordinates": [
          -73.947436,
          41.380881
        ]
      },
      "properties": {
        "id": 1480,
        "name": "Garrison",
        "line": "MNRRHudson",
        "order": 500
      },
      "id": 1480
    },
    {
      "type": "Feature",
      "geometry": {
        "type": "Point",
        "coordinates": [
          -73.314597,
          41.122488
        ]
      },
      "properties": {
        "id": 1481,
        "name": "Green's Farms",
        "line": "MNRRNewHaven",
        "order": 500
      },
      "id": 1481
    },
    {
      "type": "Feature",
      "geometry": {
        "type": "Point",
        "coordinates": [
          -73.681005,
          40.986339
        ]
      },
      "properties": {
        "id": 1482,
        "name": "Rye",
        "line": "MNRRNewHaven",
        "order": 500
      },
      "id": 1482
    },
    {
      "type": "Feature",
      "geometry": {
        "type": "Point",
        "coordinates": [
          -71.95369127,
          41.04745519
        ]
      },
      "properties": {
        "id": 1483,
        "name": "Montauk",
        "line": "LIRRMontauk",
        "order": 400
      },
      "id": 1483
    },
    {
      "type": "Feature",
      "geometry": {
        "type": "Point",
        "coordinates": [
          -73.6261469,
          40.8322646
        ]
      },
      "properties": {
        "id": 1484,
        "name": "Glen Head",
        "line": "LIRROysterBay",
        "order": 400
      },
      "id": 1484
    },
    {
      "type": "Feature",
      "geometry": {
        "type": "Point",
        "coordinates": [
          -73.932009,
          41.284406
        ]
      },
      "properties": {
        "id": 1485,
        "name": "Peekskill",
        "line": "MNRRHudson",
        "order": 500
      },
      "id": 1485
    },
    {
      "type": "Feature",
      "geometry": {
        "type": "Point",
        "coordinates": [
          -73.48647748,
          40.67576413
        ]
      },
      "properties": {
        "id": 1486,
        "name": "Seaford",
        "line": "LIRRBabylon",
        "order": 400
      },
      "id": 1486
    },
    {
      "type": "Feature",
      "geometry": {
        "type": "Point",
        "coordinates": [
          -73.77084009,
          40.76318515
        ]
      },
      "properties": {
        "id": 1487,
        "name": "Bayside",
        "line": "LIRRPortWashington",
        "order": 400
      },
      "id": 1487
    },
    {
      "type": "Feature",
      "geometry": {
        "type": "Point",
        "coordinates": [
          -73.01557613,
          40.76189444
        ]
      },
      "properties": {
        "id": 1488,
        "name": "Patchogue",
        "line": "LIRRMontauk",
        "order": 400
      },
      "id": 1488
    },
    {
      "type": "Feature",
      "geometry": {
        "type": "Point",
        "coordinates": [
          -72.19289967,
          40.96513767
        ]
      },
      "properties": {
        "id": 1489,
        "name": "East Hampton",
        "line": "LIRRMontauk",
        "order": 400
      },
      "id": 1489
    },
    {
      "type": "Feature",
      "geometry": {
        "type": "Point",
        "coordinates": [
          -73.72595826,
          40.62233075
        ]
      },
      "properties": {
        "id": 1490,
        "name": "Cedarhurst",
        "line": "LIRRFarRockaway",
        "order": 400
      },
      "id": 1490
    },
    {
      "type": "Feature",
      "geometry": {
        "type": "Point",
        "coordinates": [
          -72.42784279,
          41.06631707
        ]
      },
      "properties": {
        "id": 1491,
        "name": "Southold",
        "line": "LIRRGreenport",
        "order": 400
      },
      "id": 1491
    },
    {
      "type": "Feature",
      "geometry": {
        "type": "Point",
        "coordinates": [
          -73.772823,
          41.050144
        ]
      },
      "properties": {
        "id": 1492,
        "name": "North White Plains",
        "line": "MNRRHarlem",
        "order": 500
      },
      "id": 1492
    },
    {
      "type": "Feature",
      "geometry": {
        "type": "Point",
        "coordinates": [
          -73.81450578,
          40.76274158
        ]
      },
      "properties": {
        "id": 1493,
        "name": "Murray Hill",
        "line": "LIRRPortWashington",
        "order": 400
      },
      "id": 1493
    },
    {
      "type": "Feature",
      "geometry": {
        "type": "Point",
        "coordinates": [
          -73.658919,
          41.325353
        ]
      },
      "properties": {
        "id": 1494,
        "name": "Purdy's",
        "line": "MNRRHarlem",
        "order": 500
      },
      "id": 1494
    },
    {
      "type": "Feature",
      "geometry": {
        "type": "Point",
        "coordinates": [
          -73.497969,
          41.116429
        ]
      },
      "properties": {
        "id": 1495,
        "name": "Talmadge Hill",
        "line": "MNRRNewCanaan",
        "order": 500
      },
      "id": 1495
    },
    {
      "type": "Feature",
      "geometry": {
        "type": "Point",
        "coordinates": [
          -73.08664699,
          40.7404148
        ]
      },
      "properties": {
        "id": 1496,
        "name": "Sayville",
        "line": "LIRRMontauk",
        "order": 400
      },
      "id": 1496
    },
    {
      "type": "Feature",
      "geometry": {
        "type": "Point",
        "coordinates": [
          -73.870875,
          40.878637
        ]
      },
      "properties": {
        "id": 1497,
        "name": "Williams Bridge",
        "line": "MNRRHarlem",
        "order": 500
      },
      "id": 1497
    },
    {
      "type": "Feature",
      "geometry": {
        "type": "Point",
        "coordinates": [
          -73.6432807,
          40.79054285
        ]
      },
      "properties": {
        "id": 1498,
        "name": "Roslyn",
        "line": "LIRROysterBay",
        "order": 400
      },
      "id": 1498
    },
    {
      "type": "Feature",
      "geometry": {
        "type": "Point",
        "coordinates": [
          -73.890097,
          40.862013
        ]
      },
      "properties": {
        "id": 1499,
        "name": "Fordham",
        "line": "MNRRHarlem",
        "order": 500
      },
      "id": 1499
    },
    {
      "type": "Feature",
      "geometry": {
        "type": "Point",
        "coordinates": [
          -73.889083,
          40.973393
        ]
      },
      "properties": {
        "id": 1500,
        "name": "Greystone",
        "line": "MNRRHudson",
        "order": 500
      },
      "id": 1500
    },
    {
      "type": "Feature",
      "geometry": {
        "type": "Point",
        "coordinates": [
          -73.68106214,
          40.72303304
        ]
      },
      "properties": {
        "id": 1501,
        "name": "Stewart Manor",
        "line": "LIRRHempstead",
        "order": 400
      },
      "id": 1501
    },
    {
      "type": "Feature",
      "geometry": {
        "type": "Point",
        "coordinates": [
          -73.12838183,
          40.92051484
        ]
      },
      "properties": {
        "id": 1502,
        "name": "Stony Brook",
        "line": "LIRRPortJefferson",
        "order": 400
      },
      "id": 1502
    },
    {
      "type": "Feature",
      "geometry": {
        "type": "Point",
        "coordinates": [
          -73.69524064,
          40.81054479
        ]
      },
      "properties": {
        "id": 1503,
        "name": "Plandome",
        "line": "LIRRPortWashington",
        "order": 400
      },
      "id": 1503
    },
    {
      "type": "Feature",
      "geometry": {
        "type": "Point",
        "coordinates": [
          -72.70533861,
          40.82132553
        ]
      },
      "properties": {
        "id": 1504,
        "name": "Speonk",
        "line": "LIRRMontauk",
        "order": 400
      },
      "id": 1504
    },
    {
      "type": "Feature",
      "geometry": {
        "type": "Point",
        "coordinates": [
          -73.520074,
          41.07106
        ]
      },
      "properties": {
        "id": 1505,
        "name": "Glenbrook",
        "line": "MNRRNewCanaan",
        "order": 500
      },
      "id": 1505
    },
    {
      "type": "Feature",
      "geometry": {
        "type": "Point",
        "coordinates": [
          -73.921676,
          40.878393
        ]
      },
      "properties": {
        "id": 1506,
        "name": "Spuyten Duyvil",
        "line": "MNRRHudson",
        "order": 500
      },
      "id": 1506
    },
    {
      "type": "Feature",
      "geometry": {
        "type": "Point",
        "coordinates": [
          -73.65213781,
          40.68584786
        ]
      },
      "properties": {
        "id": 1507,
        "name": "Lakeview",
        "line": "LIRRWestHempstead",
        "order": 400
      },
      "id": 1507
    },
    {
      "type": "Feature",
      "geometry": {
        "type": "Point",
        "coordinates": [
          -73.44109502,
          40.7359587
        ]
      },
      "properties": {
        "id": 1508,
        "name": "Farmingdale",
        "line": "LIRRRonkonkoma",
        "order": 400
      },
      "id": 1508
    },
    {
      "type": "Feature",
      "geometry": {
        "type": "Point",
        "coordinates": [
          -73.71648547,
          40.72221816
        ]
      },
      "properties": {
        "id": 1509,
        "name": "Bellerose",
        "line": "LIRRHempstead",
        "order": 400
      },
      "id": 1509
    },
    {
      "type": "Feature",
      "geometry": {
        "type": "Point",
        "coordinates": [
          -73.517706,
          41.089039
        ]
      },
      "properties": {
        "id": 1510,
        "name": "Springdale",
        "line": "MNRRNewCanaan",
        "order": 500
      },
      "id": 1510
    },
    {
      "type": "Feature",
      "geometry": {
        "type": "Point",
        "coordinates": [
          -73.64170188,
          40.77198286
        ]
      },
      "properties": {
        "id": 1511,
        "name": "Albertson",
        "line": "LIRROysterBay",
        "order": 400
      },
      "id": 1511
    },
    {
      "type": "Feature",
      "geometry": {
        "type": "Point",
        "coordinates": [
          -73.83092566,
          40.70970443
        ]
      },
      "properties": {
        "id": 1512,
        "name": "Kew Gardens",
        "line": "LIRRHempstead",
        "order": 400
      },
      "id": 1512
    },
    {
      "type": "Feature",
      "geometry": {
        "type": "Point",
        "coordinates": [
          -73.83092566,
          40.70970443
        ]
      },
      "properties": {
        "id": 27226,
        "name": "Kew Gardens",
        "line": "LIRRRonkonkoma",
        "order": 400
      },
      "id": 27226
    },
    {
      "type": "Feature",
      "geometry": {
        "type": "Point",
        "coordinates": [
          -73.83092566,
          40.70970443
        ]
      },
      "properties": {
        "id": 27227,
        "name": "Kew Gardens",
        "line": "LIRRFarRockaway",
        "order": 400
      },
      "id": 27227
    },
    {
      "type": "Feature",
      "geometry": {
        "type": "Point",
        "coordinates": [
          -73.83092566,
          40.70970443
        ]
      },
      "properties": {
        "id": 27228,
        "name": "Kew Gardens",
        "line": "LIRRBabylon",
        "order": 400
      },
      "id": 27228
    },
    {
      "type": "Feature",
      "geometry": {
        "type": "Point",
        "coordinates": [
          -73.83092566,
          40.70970443
        ]
      },
      "properties": {
        "id": 27229,
        "name": "Kew Gardens",
        "line": "LIRRWestHempstead",
        "order": 400
      },
      "id": 27229
    },
    {
      "type": "Feature",
      "geometry": {
        "type": "Point",
        "coordinates": [
          -73.83092566,
          40.70970443
        ]
      },
      "properties": {
        "id": 27230,
        "name": "Kew Gardens",
        "line": "LIRRLongBeach",
        "order": 400
      },
      "id": 27230
    },
    {
      "type": "Feature",
      "geometry": {
        "type": "Point",
        "coordinates": [
          -73.83092566,
          40.70970443
        ]
      },
      "properties": {
        "id": 27231,
        "name": "Kew Gardens",
        "line": "LIRRPortJefferson",
        "order": 400
      },
      "id": 27231
    },
    {
      "type": "Feature",
      "geometry": {
        "type": "Point",
        "coordinates": [
          -73.5288878,
          40.66883214
        ]
      },
      "properties": {
        "id": 1513,
        "name": "Bellmore",
        "line": "LIRRBabylon",
        "order": 400
      },
      "id": 1513
    },
    {
      "type": "Feature",
      "geometry": {
        "type": "Point",
        "coordinates": [
          -73.24324865,
          40.78092582
        ]
      },
      "properties": {
        "id": 1514,
        "name": "Brentwood",
        "line": "LIRRRonkonkoma",
        "order": 400
      },
      "id": 1514
    },
    {
      "type": "Feature",
      "geometry": {
        "type": "Point",
        "coordinates": [
          -73.83107007,
          40.75802098
        ]
      },
      "properties": {
        "id": 1515,
        "name": "Flushing Main St",
        "line": "LIRRPortWashington",
        "order": 400
      },
      "id": 1515
    },
    {
      "type": "Feature",
      "geometry": {
        "type": "Point",
        "coordinates": [
          -73.53386679,
          40.87532191
        ]
      },
      "properties": {
        "id": 1516,
        "name": "Oyster Bay",
        "line": "LIRROysterBay",
        "order": 400
      },
      "id": 1516
    },
    {
      "type": "Feature",
      "geometry": {
        "type": "Point",
        "coordinates": [
          -73.840376,
          40.92626
        ]
      },
      "properties": {
        "id": 1517,
        "name": "Fleetwood",
        "line": "MNRRHarlem",
        "order": 500
      },
      "id": 1517
    },
    {
      "type": "Feature",
      "geometry": {
        "type": "Point",
        "coordinates": [
          -73.39834275,
          40.68106307
        ]
      },
      "properties": {
        "id": 1518,
        "name": "Copiague",
        "line": "LIRRBabylon",
        "order": 400
      },
      "id": 1518
    },
    {
      "type": "Feature",
      "geometry": {
        "type": "Point",
        "coordinates": [
          -73.923241,
          41.247081
        ]
      },
      "properties": {
        "id": 1519,
        "name": "Cortlandt",
        "line": "MNRRHudson",
        "order": 500
      },
      "id": 1519
    },
    {
      "type": "Feature",
      "geometry": {
        "type": "Point",
        "coordinates": [
          -73.571759,
          41.637294
        ]
      },
      "properties": {
        "id": 1520,
        "name": "Harlem Valley-Wingdale",
        "line": "MNRRHarlem",
        "order": 500
      },
      "id": 1520
    },
    {
      "type": "Feature",
      "geometry": {
        "type": "Point",
        "coordinates": [
          -72.921768,
          41.304993
        ]
      },
      "properties": {
        "id": 1521,
        "name": "New Haven-State St",
        "line": "MNRRNewHaven",
        "order": 500
      },
      "id": 1521
    },
    {
      "type": "Feature",
      "geometry": {
        "type": "Point",
        "coordinates": [
          -73.58234056,
          40.65749664
        ]
      },
      "properties": {
        "id": 1522,
        "name": "Freeport",
        "line": "LIRRBabylon",
        "order": 400
      },
      "id": 1522
    },
    {
      "type": "Feature",
      "geometry": {
        "type": "Point",
        "coordinates": [
          -73.588057,
          41.592875
        ]
      },
      "properties": {
        "id": 1523,
        "name": "Appalachian Trail",
        "line": "MNRRHarlem",
        "order": 500
      },
      "id": 1523
    },
    {
      "type": "Feature",
      "geometry": {
        "type": "Point",
        "coordinates": [
          -73.711039,
          40.969868
        ]
      },
      "properties": {
        "id": 1524,
        "name": "Harrison",
        "line": "MNRRNewHaven",
        "order": 500
      },
      "id": 1524
    },
    {
      "type": "Feature",
      "geometry": {
        "type": "Point",
        "coordinates": [
          -73.625776,
          41.021232
        ]
      },
      "properties": {
        "id": 1525,
        "name": "Greenwich",
        "line": "MNRRNewHaven",
        "order": 500
      },
      "id": 1525
    },
    {
      "type": "Feature",
      "geometry": {
        "type": "Point",
        "coordinates": [
          -73.32818209,
          40.88065582
        ]
      },
      "properties": {
        "id": 1526,
        "name": "Northport",
        "line": "LIRRPortJefferson",
        "order": 400
      },
      "id": 1526
    },
    {
      "type": "Feature",
      "geometry": {
        "type": "Point",
        "coordinates": [
          -73.36928389,
          40.68828515
        ]
      },
      "properties": {
        "id": 1527,
        "name": "Lindenhurst",
        "line": "LIRRBabylon",
        "order": 400
      },
      "id": 1527
    },
    {
      "type": "Feature",
      "geometry": {
        "type": "Point",
        "coordinates": [
          -73.77492,
          41.15816
        ]
      },
      "properties": {
        "id": 1528,
        "name": "Chappaqua",
        "line": "MNRRHarlem",
        "order": 500
      },
      "id": 1528
    },
    {
      "type": "Feature",
      "geometry": {
        "type": "Point",
        "coordinates": [
          -73.7018338,
          40.64920962
        ]
      },
      "properties": {
        "id": 1529,
        "name": "Gibson",
        "line": "LIRRFarRockaway",
        "order": 400
      },
      "id": 1529
    },
    {
      "type": "Feature",
      "geometry": {
        "type": "Point",
        "coordinates": [
          -73.913482,
          40.905213
        ]
      },
      "properties": {
        "id": 1530,
        "name": "Riverdale",
        "line": "MNRRHudson",
        "order": 500
      },
      "id": 1530
    },
    {
      "type": "Feature",
      "geometry": {
        "type": "Point",
        "coordinates": [
          -72.53602739,
          40.99178973
        ]
      },
      "properties": {
        "id": 1531,
        "name": "Mattituck",
        "line": "LIRRGreenport",
        "order": 400
      },
      "id": 1531
    },
    {
      "type": "Feature",
      "geometry": {
        "type": "Point",
        "coordinates": [
          -73.919764,
          40.854235
        ]
      },
      "properties": {
        "id": 1532,
        "name": "Morris Heights",
        "line": "MNRRHudson",
        "order": 500
      },
      "id": 1532
    },
    {
      "type": "Feature",
      "geometry": {
        "type": "Point",
        "coordinates": [
          -73.70605881,
          40.72465747
        ]
      },
      "properties": {
        "id": 1533,
        "name": "Floral Park",
        "line": "LIRRHempstead",
        "order": 400
      },
      "id": 1533
    },
    {
      "type": "Feature",
      "geometry": {
        "type": "Point",
        "coordinates": [
          -73.079965,
          41.344166
        ]
      },
      "properties": {
        "id": 1534,
        "name": "Ansonia",
        "line": "MNRRWaterbury",
        "order": 500
      },
      "id": 1534
    },
    {
      "type": "Feature",
      "geometry": {
        "type": "Point",
        "coordinates": [
          -73.66390628,
          40.64828328
        ]
      },
      "properties": {
        "id": 1535,
        "name": "Centre Av",
        "line": "LIRRLongBeach",
        "order": 400
      },
      "id": 1535
    },
    {
      "type": "Feature",
      "geometry": {
        "type": "Point",
        "coordinates": [
          -73.541732,
          41.046938
        ]
      },
      "properties": {
        "id": 1536,
        "name": "Stamford",
        "line": "MNRRNewHaven",
        "order": 500
      },
      "id": 1536
    },
    {
      "type": "Feature",
      "geometry": {
        "type": "Point",
        "coordinates": [
          -72.86723117811046,
          40.847981856312074
        ]
      },
      "properties": {
        "id": 1537,
        "name": "East Yaphank",
        "line": "LIRRGreenport",
        "order": 400,
        "alternate_names": [
          "Yaphank"
        ]
      },
      "id": 1537
    },
    {
      "type": "Feature",
      "geometry": {
        "type": "Point",
        "coordinates": [
          -73.938107,
          41.707104
        ]
      },
      "properties": {
        "id": 1538,
        "name": "Poughkeepsie",
        "line": "MNRRHudson",
        "order": 500
      },
      "id": 1538
    },
    {
      "type": "Feature",
      "geometry": {
        "type": "Point",
        "coordinates": [
          -73.587708,
          41.031607
        ]
      },
      "properties": {
        "id": 1539,
        "name": "Riverside",
        "line": "MNRRNewHaven",
        "order": 500
      },
      "id": 1539
    },
    {
      "type": "Feature",
      "geometry": {
        "type": "Point",
        "coordinates": [
          -73.74414216,
          40.61229499
        ]
      },
      "properties": {
        "id": 1540,
        "name": "Inwood",
        "line": "LIRRFarRockaway",
        "order": 400
      },
      "id": 1540
    },
    {
      "type": "Feature",
      "geometry": {
        "type": "Point",
        "coordinates": [
          -73.46898478,
          40.67696852
        ]
      },
      "properties": {
        "id": 1541,
        "name": "Massapequa",
        "line": "LIRRBabylon",
        "order": 400
      },
      "id": 1541
    },
    {
      "type": "Feature",
      "geometry": {
        "type": "Point",
        "coordinates": [
          -73.047065,
          41.554447
        ]
      },
      "properties": {
        "id": 1542,
        "name": "Waterbury",
        "line": "MNRRWaterbury",
        "order": 500
      },
      "id": 1542
    },
    {
      "type": "Feature",
      "geometry": {
        "type": "Point",
        "coordinates": [
          -73.783894,
          40.911473
        ]
      },
      "properties": {
        "id": 1543,
        "name": "New Rochelle",
        "line": "MNRRNewHaven",
        "order": 500
      },
      "id": 1543
    },
    {
      "type": "Feature",
      "geometry": {
        "type": "Point",
        "coordinates": [
          -73.865029,
          41.075714
        ]
      },
      "properties": {
        "id": 1544,
        "name": "Tarrytown",
        "line": "MNRRHudson",
        "order": 500
      },
      "id": 1544
    },
    {
      "type": "Feature",
      "geometry": {
        "type": "Point",
        "coordinates": [
          -73.6394629,
          40.75629024
        ]
      },
      "properties": {
        "id": 1545,
        "name": "East Williston",
        "line": "LIRROysterBay",
        "order": 400
      },
      "id": 1545
    },
    {
      "type": "Feature",
      "geometry": {
        "type": "Point",
        "coordinates": [
          -73.901741,
          40.936833
        ]
      },
      "properties": {
        "id": 1546,
        "name": "Yonkers",
        "line": "MNRRHudson",
        "order": 500
      },
      "id": 1546
    },
    {
      "type": "Feature",
      "geometry": {
        "type": "Point",
        "coordinates": [
          -73.29336195,
          40.76954088
        ]
      },
      "properties": {
        "id": 1547,
        "name": "Deer Park",
        "line": "LIRRRonkonkoma",
        "order": 400
      },
      "id": 1547
    },
    {
      "type": "Feature",
      "geometry": {
        "type": "Point",
        "coordinates": [
          -73.52852279,
          40.7671451
        ]
      },
      "properties": {
        "id": 1548,
        "name": "Hicksville",
        "line": "LIRRPortJefferson",
        "order": 400
      },
      "id": 1548
    },
    {
      "type": "Feature",
      "geometry": {
        "type": "Point",
        "coordinates": [
          -73.600025,
          41.029753
        ]
      },
      "properties": {
        "id": 1549,
        "name": "Cos Cob",
        "line": "MNRRNewHaven",
        "order": 500
      },
      "id": 1549
    },
    {
      "type": "Feature",
      "geometry": {
        "type": "Point",
        "coordinates": [
          -73.68118344,
          40.66837883
        ]
      },
      "properties": {
        "id": 1550,
        "name": "Westwood",
        "line": "LIRRWestHempstead",
        "order": 400
      },
      "id": 1550
    },
    {
      "type": "Feature",
      "geometry": {
        "type": "Point",
        "coordinates": [
          -73.576132,
          41.742751
        ]
      },
      "properties": {
        "id": 1551,
        "name": "Dover Plains",
        "line": "MNRRHarlem",
        "order": 500
      },
      "id": 1551
    },
    {
      "type": "Feature",
      "geometry": {
        "type": "Point",
        "coordinates": [
          -73.440573,
          41.266252
        ]
      },
      "properties": {
        "id": 1552,
        "name": "Branchville",
        "line": "MNRRDanbury",
        "order": 500
      },
      "id": 1552
    },
    {
      "type": "Feature",
      "geometry": {
        "type": "Point",
        "coordinates": [
          -73.67603995,
          40.65615355
        ]
      },
      "properties": {
        "id": 1553,
        "name": "Lynbrook",
        "line": "LIRRLongBeach",
        "order": 400
      },
      "id": 1553
    },
    {
      "type": "Feature",
      "geometry": {
        "type": "Point",
        "coordinates": [
          -73.69983683,
          40.79674855
        ]
      },
      "properties": {
        "id": 1554,
        "name": "Manhasset",
        "line": "LIRRPortWashington",
        "order": 400
      },
      "id": 1554
    },
    {
      "type": "Feature",
      "geometry": {
        "type": "Point",
        "coordinates": [
          -73.906004,
          40.922588
        ]
      },
      "properties": {
        "id": 1555,
        "name": "Ludlow",
        "line": "MNRRHudson",
        "order": 500
      },
      "id": 1555
    },
    {
      "type": "Feature",
      "geometry": {
        "type": "Point",
        "coordinates": [
          -73.882552,
          41.189518
        ]
      },
      "properties": {
        "id": 1556,
        "name": "Croton-Harmon",
        "line": "MNRRHudson",
        "order": 500
      },
      "id": 1556
    },
    {
      "type": "Feature",
      "geometry": {
        "type": "Point",
        "coordinates": [
          -73.42032085,
          40.68030257
        ]
      },
      "properties": {
        "id": 1557,
        "name": "Amityville",
        "line": "LIRRBabylon",
        "order": 400
      },
      "id": 1557
    },
    {
      "type": "Feature",
      "geometry": {
        "type": "Point",
        "coordinates": [
          -73.947561,
          41.586763
        ]
      },
      "properties": {
        "id": 1558,
        "name": "New Hamburg",
        "line": "MNRRHudson",
        "order": 500
      },
      "id": 1558
    },
    {
      "type": "Feature",
      "geometry": {
        "type": "Point",
        "coordinates": [
          -73.36300289,
          40.8686237
        ]
      },
      "properties": {
        "id": 1559,
        "name": "Greenlawn",
        "line": "LIRRPortJefferson",
        "order": 400
      },
      "id": 1559
    },
    {
      "type": "Feature",
      "geometry": {
        "type": "Point",
        "coordinates": [
          -73.58555905,
          40.75353783
        ]
      },
      "properties": {
        "id": 1560,
        "name": "Westbury",
        "line": "LIRRPortJefferson",
        "order": 400
      },
      "id": 1560
    },
    {
      "type": "Feature",
      "geometry": {
        "type": "Point",
        "coordinates": [
          -73.13248255,
          40.74346488
        ]
      },
      "properties": {
        "id": 1561,
        "name": "Oakdale",
        "line": "LIRRMontauk",
        "order": 400
      },
      "id": 1561
    },
    {
      "type": "Feature",
      "geometry": {
        "type": "Point",
        "coordinates": [
          -73.64087519,
          40.74035013
        ]
      },
      "properties": {
        "id": 1562,
        "name": "Mineola",
        "line": "LIRRPortJefferson",
        "order": 400
      },
      "id": 1562
    },
    {
      "type": "Feature",
      "geometry": {
        "type": "Point",
        "coordinates": [
          -73.15934174,
          40.88228415
        ]
      },
      "properties": {
        "id": 1563,
        "name": "St. James",
        "line": "LIRRPortJefferson",
        "order": 400
      },
      "id": 1563
    },
    {
      "type": "Feature",
      "geometry": {
        "type": "Point",
        "coordinates": [
          -73.930168,
          40.825577
        ]
      },
      "properties": {
        "id": 1564,
        "name": "Yankees-E 153 St",
        "line": "MNRRHudson",
        "order": 500
      },
      "id": 1564
    },
    {
      "type": "Feature",
      "geometry": {
        "type": "Point",
        "coordinates": [
          -73.71370203,
          40.631336
        ]
      },
      "properties": {
        "id": 1565,
        "name": "Woodmere",
        "line": "LIRRFarRockaway",
        "order": 400
      },
      "id": 1565
    },
    {
      "type": "Feature",
      "geometry": {
        "type": "Point",
        "coordinates": [
          -73.9770303,
          40.68445728
        ]
      },
      "properties": {
        "id": 1566,
        "name": "Atlantic Terminal",
        "line": "LIRRAtlantic",
        "order": 400
      },
      "id": 1566
    },
    {
      "type": "Feature",
      "geometry": {
        "type": "Point",
        "coordinates": [
          -73.9770303,
          40.68445728
        ]
      },
      "properties": {
        "id": 27232,
        "name": "Atlantic Terminal",
        "line": "LIRRWestHempstead",
        "order": 400
      },
      "id": 27232
    },
    {
      "type": "Feature",
      "geometry": {
        "type": "Point",
        "coordinates": [
          -73.9770303,
          40.68445728
        ]
      },
      "properties": {
        "id": 27233,
        "name": "Atlantic Terminal",
        "line": "LIRRHempstead",
        "order": 400
      },
      "id": 27233
    },
    {
      "type": "Feature",
      "geometry": {
        "type": "Point",
        "coordinates": [
          -73.9770303,
          40.68445728
        ]
      },
      "properties": {
        "id": 27234,
        "name": "Atlantic Terminal",
        "line": "LIRRBabylon",
        "order": 400
      },
      "id": 27234
    },
    {
      "type": "Feature",
      "geometry": {
        "type": "Point",
        "coordinates": [
          -73.9770303,
          40.68445728
        ]
      },
      "properties": {
        "id": 27235,
        "name": "Atlantic Terminal",
        "line": "LIRRFarRockaway",
        "order": 400
      },
      "id": 27235
    },
    {
      "type": "Feature",
      "geometry": {
        "type": "Point",
        "coordinates": [
          -73.91512,
          40.82573
        ]
      },
      "properties": {
        "id": 1567,
        "name": "Melrose",
        "line": "MNRRHarlem",
        "order": 500
      },
      "id": 1567
    },
    {
      "type": "Feature",
      "geometry": {
        "type": "Point",
        "coordinates": [
          -73.90374759,
          40.67595024
        ]
      },
      "properties": {
        "id": 1568,
        "name": "East New York",
        "line": "LIRRAtlantic",
        "order": 400
      },
      "id": 1568
    },
    {
      "type": "Feature",
      "geometry": {
        "type": "Point",
        "coordinates": [
          -73.90374759,
          40.67595024
        ]
      },
      "properties": {
        "id": 27236,
        "name": "East New York",
        "line": "LIRRWestHempstead",
        "order": 400
      },
      "id": 27236
    },
    {
      "type": "Feature",
      "geometry": {
        "type": "Point",
        "coordinates": [
          -73.90374759,
          40.67595024
        ]
      },
      "properties": {
        "id": 27237,
        "name": "East New York",
        "line": "LIRRHempstead",
        "order": 400
      },
      "id": 27237
    },
    {
      "type": "Feature",
      "geometry": {
        "type": "Point",
        "coordinates": [
          -73.90374759,
          40.67595024
        ]
      },
      "properties": {
        "id": 27238,
        "name": "East New York",
        "line": "LIRRBabylon",
        "order": 400
      },
      "id": 27238
    },
    {
      "type": "Feature",
      "geometry": {
        "type": "Point",
        "coordinates": [
          -73.45112791,
          40.83562276
        ]
      },
      "properties": {
        "id": 1569,
        "name": "Cold Spring Harbor",
        "line": "LIRRPortJefferson",
        "order": 400
      },
      "id": 1569
    },
    {
      "type": "Feature",
      "geometry": {
        "type": "Point",
        "coordinates": [
          -73.958173,
          41.415356
        ]
      },
      "properties": {
        "id": 1570,
        "name": "Cold Spring",
        "line": "MNRRHudson",
        "order": 500
      },
      "id": 1570
    },
    {
      "type": "Feature",
      "geometry": {
        "type": "Point",
        "coordinates": [
          -73.90300318,
          40.74582241
        ]
      },
      "properties": {
        "id": 1571,
        "name": "Woodside",
        "line": "LIRRPortWashington",
        "order": 400
      },
      "id": 1571
    },
    {
      "type": "Feature",
      "geometry": {
        "type": "Point",
        "coordinates": [
          -73.90300318,
          40.74582241
        ]
      },
      "properties": {
        "id": 27239,
        "name": "Woodside",
        "line": "LIRRHempstead",
        "order": 400
      },
      "id": 27239
    },
    {
      "type": "Feature",
      "geometry": {
        "type": "Point",
        "coordinates": [
          -73.90300318,
          40.74582241
        ]
      },
      "properties": {
        "id": 27240,
        "name": "Woodside",
        "line": "LIRRRonkonkoma",
        "order": 400
      },
      "id": 27240
    },
    {
      "type": "Feature",
      "geometry": {
        "type": "Point",
        "coordinates": [
          -73.90300318,
          40.74582241
        ]
      },
      "properties": {
        "id": 27241,
        "name": "Woodside",
        "line": "LIRRFarRockaway",
        "order": 400
      },
      "id": 27241
    },
    {
      "type": "Feature",
      "geometry": {
        "type": "Point",
        "coordinates": [
          -73.90300318,
          40.74582241
        ]
      },
      "properties": {
        "id": 27242,
        "name": "Woodside",
        "line": "LIRRBabylon",
        "order": 400
      },
      "id": 27242
    },
    {
      "type": "Feature",
      "geometry": {
        "type": "Point",
        "coordinates": [
          -73.90300318,
          40.74582241
        ]
      },
      "properties": {
        "id": 27243,
        "name": "Woodside",
        "line": "LIRRWestHempstead",
        "order": 400
      },
      "id": 27243
    },
    {
      "type": "Feature",
      "geometry": {
        "type": "Point",
        "coordinates": [
          -73.90300318,
          40.74582241
        ]
      },
      "properties": {
        "id": 27244,
        "name": "Woodside",
        "line": "LIRRLongBeach",
        "order": 400
      },
      "id": 27244
    },
    {
      "type": "Feature",
      "geometry": {
        "type": "Point",
        "coordinates": [
          -73.90300318,
          40.74582241
        ]
      },
      "properties": {
        "id": 27245,
        "name": "Woodside",
        "line": "LIRRPortJefferson",
        "order": 400
      },
      "id": 27245
    },
    {
      "type": "Feature",
      "geometry": {
        "type": "Point",
        "coordinates": [
          -73.90300318,
          40.74582241
        ]
      },
      "properties": {
        "id": 27246,
        "name": "Woodside",
        "line": "LIRRBelmont",
        "order": 400
      },
      "id": 27246
    },
    {
      "type": "Feature",
      "geometry": {
        "type": "Point",
        "coordinates": [
          -73.50888771,
          40.673048
        ]
      },
      "properties": {
        "id": 1572,
        "name": "Wantagh",
        "line": "LIRRBabylon",
        "order": 400
      },
      "id": 1572
    },
    {
      "type": "Feature",
      "geometry": {
        "type": "Point",
        "coordinates": [
          -73.16999864,
          40.74047982
        ]
      },
      "properties": {
        "id": 1573,
        "name": "Great River",
        "line": "LIRRMontauk",
        "order": 400
      },
      "id": 1573
    },
    {
      "type": "Feature",
      "geometry": {
        "type": "Point",
        "coordinates": [
          -73.808381,
          40.990035
        ]
      },
      "properties": {
        "id": 1574,
        "name": "Scarsdale",
        "line": "MNRRHarlem",
        "order": 500
      },
      "id": 1574
    },
    {
      "type": "Feature",
      "geometry": {
        "type": "Point",
        "coordinates": [
          -73.05244768,
          40.93447575
        ]
      },
      "properties": {
        "id": 1575,
        "name": "Port Jefferson",
        "line": "LIRRPortJefferson",
        "order": 400
      },
      "id": 1575
    },
    {
      "type": "Feature",
      "geometry": {
        "type": "Point",
        "coordinates": [
          -73.74056395,
          40.77509929
        ]
      },
      "properties": {
        "id": 1576,
        "name": "Little Neck",
        "line": "LIRRPortWashington",
        "order": 400
      },
      "id": 1576
    },
    {
      "type": "Feature",
      "geometry": {
        "type": "Point",
        "coordinates": [
          -73.700337,
          41.237151
        ]
      },
      "properties": {
        "id": 1577,
        "name": "Bedford Hills",
        "line": "MNRRHarlem",
        "order": 500
      },
      "id": 1577
    },
    {
      "type": "Feature",
      "geometry": {
        "type": "Point",
        "coordinates": [
          -73.851142,
          40.912023
        ]
      },
      "properties": {
        "id": 1578,
        "name": "Mt Vernon West",
        "line": "MNRRHarlem",
        "order": 500
      },
      "id": 1578
    },
    {
      "type": "Feature",
      "geometry": {
        "type": "Point",
        "coordinates": [
          -73.758641,
          40.934343
        ]
      },
      "properties": {
        "id": 1579,
        "name": "Larchmont",
        "line": "MNRRNewHaven",
        "order": 500
      },
      "id": 1579
    },
    {
      "type": "Feature",
      "geometry": {
        "type": "Point",
        "coordinates": [
          -73.61637968,
          40.86569288
        ]
      },
      "properties": {
        "id": 1580,
        "name": "Glen Cove",
        "line": "LIRROysterBay",
        "order": 400
      },
      "id": 1580
    },
    {
      "type": "Feature",
      "geometry": {
        "type": "Point",
        "coordinates": [
          -74.1161335567365,
          40.3897884730972
        ]
      },
      "properties": {
        "id": 1581,
        "name": "Middletown",
        "line": "NJTNorthJerseyCoast",
        "order": 600
      },
      "id": 1581
    },
    {
      "type": "Feature",
      "geometry": {
        "type": "Point",
        "coordinates": [
          -74.3038121789655,
          40.725643066102
        ]
      },
      "properties": {
        "id": 1582,
        "name": "Millburn",
        "line": "NJTGladstone",
        "order": 600
      },
      "id": 1582
    },
    {
      "type": "Feature",
      "geometry": {
        "type": "Point",
        "coordinates": [
          -74.2096243967077,
          40.8172524768896
        ]
      },
      "properties": {
        "id": 1583,
        "name": "Walnut St",
        "line": "NJTMontclairBoonton",
        "order": 600
      },
      "id": 1583
    },
    {
      "type": "Feature",
      "geometry": {
        "type": "Point",
        "coordinates": [
          -74.7994979628498,
          39.6316807256126
        ]
      },
      "properties": {
        "id": 1584,
        "name": "Hammonton",
        "line": "NJTAtlanticCity",
        "order": 600
      },
      "id": 1584
    },
    {
      "type": "Feature",
      "geometry": {
        "type": "Point",
        "coordinates": [
          -74.4414775074818,
          39.363311976413
        ]
      },
      "properties": {
        "id": 1585,
        "name": "Atlantic City",
        "line": "NJTAtlanticCity",
        "order": 600
      },
      "id": 1585
    },
    {
      "type": "Feature",
      "geometry": {
        "type": "Point",
        "coordinates": [
          -74.1534391388858,
          41.1135482131027
        ]
      },
      "properties": {
        "id": 1586,
        "name": "Suffern",
        "line": "NJTBergenCounty",
        "order": 600
      },
      "id": 1586
    },
    {
      "type": "Feature",
      "geometry": {
        "type": "Point",
        "coordinates": [
          -74.1466101348265,
          41.0943835153288
        ]
      },
      "properties": {
        "id": 1587,
        "name": "Mahwah",
        "line": "NJTBergenCounty",
        "order": 600
      },
      "id": 1587
    },
    {
      "type": "Feature",
      "geometry": {
        "type": "Point",
        "coordinates": [
          -74.1135235088172,
          40.9973760560354
        ]
      },
      "properties": {
        "id": 1588,
        "name": "Ho-Ho-Kus",
        "line": "NJTBergenCounty",
        "order": 600
      },
      "id": 1588
    },
    {
      "type": "Feature",
      "geometry": {
        "type": "Point",
        "coordinates": [
          -74.1334512954218,
          40.96225343055
        ]
      },
      "properties": {
        "id": 1589,
        "name": "Glen Rock-Main",
        "line": "NJTMainLine",
        "order": 600
      },
      "id": 1589
    },
    {
      "type": "Feature",
      "geometry": {
        "type": "Point",
        "coordinates": [
          -74.014713448779,
          41.0900094938692
        ]
      },
      "properties": {
        "id": 1590,
        "name": "Nanuet",
        "line": "NJTPascackValley",
        "order": 600
      },
      "id": 1590
    },
    {
      "type": "Feature",
      "geometry": {
        "type": "Point",
        "coordinates": [
          -74.043778459541,
          40.8944654822607
        ]
      },
      "properties": {
        "id": 1591,
        "name": "Anderson St - Hackensack",
        "line": "NJTPascackValley",
        "order": 600
      },
      "id": 1591
    },
    {
      "type": "Feature",
      "geometry": {
        "type": "Point",
        "coordinates": [
          -74.4673308468104,
          40.4769118493522
        ]
      },
      "properties": {
        "id": 1592,
        "name": "Jersey Avenue",
        "line": "NJTNorthEastCorridor",
        "order": 600
      },
      "id": 1592
    },
    {
      "type": "Feature",
      "geometry": {
        "type": "Point",
        "coordinates": [
          -74.1400218166963,
          41.2933841866538
        ]
      },
      "properties": {
        "id": 1593,
        "name": "Harriman",
        "line": "NJTPortJervis",
        "order": 600
      },
      "id": 1593
    },
    {
      "type": "Feature",
      "geometry": {
        "type": "Point",
        "coordinates": [
          -74.2737046556243,
          40.509381700506
        ]
      },
      "properties": {
        "id": 1594,
        "name": "Perth Amboy",
        "line": "NJTNorthJerseyCoast",
        "order": 600
      },
      "id": 1594
    },