{
  "type": "FeatureCollection",
  "features": [
    {
      "type": "Feature",
      "geometry": {
        "type": "Point",
        "coordinates": [
          -75.136794064,
          40.041851535
        ]
      },
      "properties": {
        "id": 1,
        "name": "Fern Rock",
        "line": "PhillySEPTAB1",
        "alternate_names": [
          "Fern Rock Transportation Center"
        ]
      },
      "id": 1
    },
    {
      "type": "Feature",
      "geometry": {
        "type": "Point",
        "coordinates": [
          -75.144692263,
          40.039056058
        ]
      },
      "properties": {
        "id": 2,
        "name": "Olney",
        "line": "PhillySEPTAB1"
      },
      "id": 2
    },
    {
      "type": "Feature",
      "geometry": {
        "type": "Point",
        "coordinates": [
          -75.146692089,
          40.029910021
        ]
      },
      "properties": {
        "id": 3,
        "name": "Logan",
        "line": "PhillySEPTAB1"
      },
      "id": 3
    },
    {
      "type": "Feature",
      "geometry": {
        "type": "Point",
        "coordinates": [
          -75.147870082,
          40.024561017
        ]
      },
      "properties": {
        "id": 4,
        "name": "Wyoming",
        "line": "PhillySEPTAB1"
      },
      "id": 4
    },
    {
      "type": "Feature",
      "geometry": {
        "type": "Point",
        "coordinates": [
          -75.149291764,
          40.018023946
        ]
      },
      "properties": {
        "id": 5,
        "name": "Hunting Park",
        "line": "PhillySEPTAB1"
      },
      "id": 5
    },
    {
      "type": "Feature",
      "geometry": {
        "type": "Point",
        "coordinates": [
          -75.15120907,
          40.009247015
        ]
      },
      "properties": {
        "id": 6,
        "name": "Erie",
        "line": "PhillySEPTAB1"
      },
      "id": 6
    },
    {
      "type": "Feature",
      "geometry": {
        "type": "Point",
        "coordinates": [
          -75.152877826,
          40.001596964
        ]
      },
      "properties": {
        "id": 7,
        "name": "Broad-Allegheny",
        "line": "PhillySEPTAB1",
        "alternate_names": [
          "Allegheny"
        ]
      },
      "id": 7
    },
    {
      "type": "Feature",
      "geometry": {
        "type": "Point",
        "coordinates": [
          -75.154512935,
          39.994109986
        ]
      },
      "properties": {
        "id": 8,
        "name": "North Philadelphia",
        "line": "PhillySEPTAB1"
      },
      "id": 8
    },
    {
      "type": "Feature",
      "geometry": {
        "type": "Point",
        "coordinates": [
          -75.156036978,
          39.987066995
        ]
      },
      "properties": {
        "id": 9,
        "name": "Susquehanna-Dauphin",
        "line": "PhillySEPTAB1"
      },
      "id": 9
    },
    {
      "type": "Feature",
      "geometry": {
        "type": "Point",
        "coordinates": [
          -75.157880655,
          39.978677924
        ]
      },
      "properties": {
        "id": 10,
        "name": "Cecil B. Moore",
        "line": "PhillySEPTAB1"
      },
      "id": 10
    },
    {
      "type": "Feature",
      "geometry": {
        "type": "Point",
        "coordinates": [
          -75.159442082,
          39.971468019
        ]
      },
      "properties": {
        "id": 11,
        "name": "Broad-Girard",
        "line": "PhillySEPTAB1",
        "alternate_names": [
          "Girard"
        ]
      },
      "id": 11
    },
    {
      "type": "Feature",
      "geometry": {
        "type": "Point",
        "coordinates": [
          -75.160458467,
          39.966981485
        ]
      },
      "properties": {
        "id": 12,
        "name": "Fairmount",
        "line": "PhillySEPTAB1"
      },
      "id": 12
    },
    {
      "type": "Feature",
      "geometry": {
        "type": "Point",
        "coordinates": [
          -75.161431373,
          39.962436082
        ]
      },
      "properties": {
        "id": 13,
        "name": "Spring Garden",
        "line": "PhillySEPTAB1"
      },
      "id": 13
    },
    {
      "type": "Feature",
      "geometry": {
        "type": "Point",
        "coordinates": [
          -75.162600757,
          39.957010946
        ]
      },
      "properties": {
        "id": 14,
        "name": "Race-Vine",
        "line": "PhillySEPTAB1"
      },
      "id": 14
    },
    {
      "type": "Feature",
      "geometry": {
        "type": "Point",
        "coordinates": [
          -75.163593872,
          39.952388971
        ]
      },
      "properties": {
        "id": 15,
        "name": "15th St/City Hall",
        "line": "PhillySEPTAB1",
        "alternate_names": [
          "City Hall",
          "15th Street"
        ]
      },
      "id": 15
    },
    {
      "type": "Feature",
      "geometry": {
        "type": "Point",
        "coordinates": [
          -75.164382622,
          39.948798918
        ]
      },
      "properties": {
        "id": 16,
        "name": "Walnut-Locust",
        "line": "PhillySEPTAB1"
      },
      "id": 16
    },
    {
      "type": "Feature",
      "geometry": {
        "type": "Point",
        "coordinates": [
          -75.165401892,
          39.944085977
        ]
      },
      "properties": {
        "id": 17,
        "name": "Lombard-South",
        "line": "PhillySEPTAB1"
      },
      "id": 17
    },
    {
      "type": "Feature",
      "geometry": {
        "type": "Point",
        "coordinates": [
          -75.167129411,
          39.936194089
        ]
      },
      "properties": {
        "id": 18,
        "name": "Ellsworth-Federal",
        "line": "PhillySEPTAB1"
      },
      "id": 18
    },
    {
      "type": "Feature",
      "geometry": {
        "type": "Point",
        "coordinates": [
          -75.168500531,
          39.929847904
        ]
      },
      "properties": {
        "id": 19,
        "name": "Tasker-Morris",
        "line": "PhillySEPTAB1"
      },
      "id": 19
    },
    {
      "type": "Feature",
      "geometry": {
        "type": "Point",
        "coordinates": [
          -75.169680842,
          39.924385965
        ]
      },
      "properties": {
        "id": 20,
        "name": "Snyder",
        "line": "PhillySEPTAB1"
      },
      "id": 20
    },
    {
      "type": "Feature",
      "geometry": {
        "type": "Point",
        "coordinates": [
          -75.171338924,
          39.916814983
        ]
      },
      "properties": {
        "id": 21,
        "name": "Oregon",
        "line": "PhillySEPTAB1"
      },
      "id": 21
    },
    {
      "type": "Feature",
      "geometry": {
        "type": "Point",
        "coordinates": [
          -75.173936096,
          39.905434157
        ]
      },
      "properties": {
        "id": 22,
        "name": "NRG",
        "line": "PhillySEPTAB1"
      },
      "id": 22
    },
    {
      "type": "Feature",
      "geometry": {
        "type": "Point",
        "coordinates": [
          -75.136794064,
          40.041851535
        ]
      },
      "properties": {
        "id": 23,
        "name": "Fern Rock",
        "line": "PhillySEPTAB2",
        "alternate_names": [
          "Fern Rock Transportation Center"
        ]
      },
      "id": 23
    },
    {
      "type": "Feature",
      "geometry": {
        "type": "Point",
        "coordinates": [
          -75.144692263,
          40.039056058
        ]
      },
      "properties": {
        "id": 24,
        "name": "Olney",
        "line": "PhillySEPTAB2"
      },
      "id": 24
    },
    {
      "type": "Feature",
      "geometry": {
        "type": "Point",
        "coordinates": [
          -75.15120907,
          40.009247015
        ]
      },
      "properties": {
        "id": 25,
        "name": "Erie",
        "line": "PhillySEPTAB2"
      },
      "id": 25
    },
    {
      "type": "Feature",
      "geometry": {
        "type": "Point",
        "coordinates": [
          -75.159442082,
          39.971468019
        ]
      },
      "properties": {
        "id": 26,
        "name": "Broad-Girard",
        "line": "PhillySEPTAB2",
        "alternate_names": [
          "Girard"
        ]
      },
      "id": 26
    },
    {
      "type": "Feature",
      "geometry": {
        "type": "Point",
        "coordinates": [
          -75.161431373,
          39.962436082
        ]
      },
      "properties": {
        "id": 27,
        "name": "Spring Garden",
        "line": "PhillySEPTAB2"
      },
      "id": 27
    },
    {
      "type": "Feature",
      "geometry": {
        "type": "Point",
        "coordinates": [
          -75.162600757,
          39.957010946
        ]
      },
      "properties": {
        "id": 28,
        "name": "Race-Vine",
        "line": "PhillySEPTAB2"
      },
      "id": 28
    },
    {
      "type": "Feature",
      "geometry": {
        "type": "Point",
        "coordinates": [
          -75.163593872,
          39.952388971
        ]
      },
      "properties": {
        "id": 29,
        "name": "15th St/City Hall",
        "line": "PhillySEPTAB2",
        "alternate_names": [
          "City Hall",
          "15th Street"
        ]
      },
      "id": 29
    },
    {
      "type": "Feature",
      "geometry": {
        "type": "Point",
        "coordinates": [
          -75.164382622,
          39.948798918
        ]
      },
      "properties": {
        "id": 30,
        "name": "Walnut-Locust",
        "line": "PhillySEPTAB2"
      },
      "id": 30
    },
    {
      "type": "Feature",
      "geometry": {
        "type": "Point",
        "coordinates": [
          -75.173936096,
          39.905434157
        ]
      },
      "properties": {
        "id": 31,
        "name": "NRG",
        "line": "PhillySEPTAB2"
      },
      "id": 31
    },
    {
      "type": "Feature",
      "geometry": {
        "type": "Point",
        "coordinates": [
          -75.136794064,
          40.041851535
        ]
      },
      "properties": {
        "id": 32,
        "name": "Fern Rock",
        "line": "PhillySEPTAB3",
        "alternate_names": [
          "Fern Rock Transportation Center"
        ]
      },
      "id": 32
    },
    {
      "type": "Feature",
      "geometry": {
        "type": "Point",
        "coordinates": [
          -75.144692263,
          40.039056058
        ]
      },
      "properties": {
        "id": 33,
        "name": "Olney",
        "line": "PhillySEPTAB3"
      },
      "id": 33
    },
    {
      "type": "Feature",
      "geometry": {
        "type": "Point",
        "coordinates": [
          -75.15120907,
          40.009247015
        ]
      },
      "properties": {
        "id": 34,
        "name": "Erie",
        "line": "PhillySEPTAB3"
      },
      "id": 34
    },
    {
      "type": "Feature",
      "geometry": {
        "type": "Point",
        "coordinates": [
          -75.154512935,
          39.994109986
        ]
      },
      "properties": {
        "id": 35,
        "name": "North Philadelphia",
        "line": "PhillySEPTAB3"
      },
      "id": 35
    },
    {
      "type": "Feature",
      "geometry": {
        "type": "Point",
        "coordinates": [
          -75.159442082,
          39.971468019
        ]
      },
      "properties": {
        "id": 36,
        "name": "Broad-Girard",
        "line": "PhillySEPTAB3",
        "alternate_names": [
          "Girard"
        ]
      },
      "id": 36
    },
    {
      "type": "Feature",
      "geometry": {
        "type": "Point",
        "coordinates": [
          -75.160458467,
          39.966981485
        ]
      },
      "properties": {
        "id": 37,
        "name": "Fairmount",
        "line": "PhillySEPTAB3"
      },
      "id": 37
    },
    {
      "type": "Feature",
      "geometry": {
        "type": "Point",
        "coordinates": [
          -75.153099021,
          39.955383986
        ]
      },
      "properties": {
        "id": 38,
        "name": "Chinatown",
        "line": "PhillySEPTAB3"
      },
      "id": 38
    },
    {
      "type": "Feature",
      "geometry": {
        "type": "Point",
        "coordinates": [
          -75.153752946,
          39.951149428
        ]
      },
      "properties": {
        "id": 39,
        "name": "8th-Market",
        "line": "PhillySEPTAB3",
        "alternate_names": [
          "8th",
          "8th Street"
        ]
      },
      "id": 39
    },
    {
      "type": "Feature",
      "geometry": {
        "type": "Point",
        "coordinates": [
          -75.259726992,
          39.96260519
        ]
      },
      "properties": {
        "id": 40,
        "name": "69th Street Transportation Center",
        "line": "PhillySEPTAL"
      },
      "id": 40
    },
    {
      "type": "Feature",
      "geometry": {
        "type": "Point",
        "coordinates": [
          -75.252408928,
          39.96442743
        ]
      },
      "properties": {
        "id": 41,
        "name": "Millbourne",
        "line": "PhillySEPTAL"
      },
      "id": 41
    },
    {
      "type": "Feature",
      "geometry": {
        "type": "Point",
        "coordinates": [
          -75.246756006,
          39.96270795
        ]
      },
      "properties": {
        "id": 42,
        "name": "63rd",
        "line": "PhillySEPTAL"
      },
      "id": 42
    },
    {
      "type": "Feature",
      "geometry": {
        "type": "Point",
        "coordinates": [
          -75.24072895,
          39.961966405
        ]
      },
      "properties": {
        "id": 43,
        "name": "60th",
        "line": "PhillySEPTAL"
      },
      "id": 43
    },
    {
      "type": "Feature",
      "geometry": {
        "type": "Point",
        "coordinates": [
          -75.232839939,
          39.96099251
        ]
      },
      "properties": {
        "id": 44,
        "name": "56th",
        "line": "PhillySEPTAL"
      },
      "id": 44
    },
    {
      "type": "Feature",
      "geometry": {
        "type": "Point",
        "coordinates": [
          -75.224877024,
          39.96000481
        ]
      },
      "properties": {
        "id": 45,
        "name": "52nd",
        "line": "PhillySEPTAL"
      },
      "id": 45
    },
    {
      "type": "Feature",
      "geometry": {
        "type": "Point",
        "coordinates": [
          -75.214008972,
          39.958652234
        ]
      },
      "properties": {
        "id": 46,
        "name": "46th",
        "line": "PhillySEPTAL"
      },
      "id": 46
    },
    {
      "type": "Feature",
      "geometry": {
        "type": "Point",
        "coordinates": [
          -75.201955961,
          39.95715631
        ]
      },
      "properties": {
        "id": 47,
        "name": "40th",
        "line": "PhillySEPTAL"
      },
      "id": 47
    },
    {
      "type": "Feature",
      "geometry": {
        "type": "Point",
        "coordinates": [
          -75.191462021,
          39.955843831
        ]
      },
      "properties": {
        "id": 48,
        "name": "34th",
        "line": "PhillySEPTAL"
      },
      "id": 48
    },
    {
      "type": "Feature",
      "geometry": {
        "type": "Point",
        "coordinates": [
          -75.183277031,
          39.954836736
        ]
      },
      "properties": {
        "id": 49,
        "name": "Drexel Station at 30th St",
        "line": "PhillySEPTAL",
        "alternate_names": [
          "30th St",
          "30 St",
          "30th Street"
        ]
      },
      "id": 49
    },
    {
      "type": "Feature",
      "geometry": {
        "type": "Point",
        "coordinates": [
          -75.165255972,
          39.952581227
        ]
      },
      "properties": {
        "id": 50,
        "name": "15th",
        "line": "PhillySEPTAL"
      },
      "id": 50
    },
    {
      "type": "Feature",
      "geometry": {
        "type": "Point",
        "coordinates": [
          -75.161451946,
          39.952103432
        ]
      },
      "properties": {
        "id": 51,
        "name": "13th",
        "line": "PhillySEPTAL"
      },
      "id": 51
    },
    {
      "type": "Feature",
      "geometry": {
        "type": "Point",
        "coordinates": [
          -75.158316013,
          39.951715895
        ]
      },
      "properties": {
        "id": 52,
        "name": "11th",
        "line": "PhillySEPTAL"
      },
      "id": 52
    },
    {
      "type": "Feature",
      "geometry": {
        "type": "Point",
        "coordinates": [
          -75.153577064,
          39.951127486
        ]
      },
      "properties": {
        "id": 53,
        "name": "8th",
        "line": "PhillySEPTAL"
      },
      "id": 53
    },
    {
      "type": "Feature",
      "geometry": {
        "type": "Point",
        "coordinates": [
          -75.148905046,
          39.950553645
        ]
      },
      "properties": {
        "id": 54,
        "name": "5th",
        "line": "PhillySEPTAL"
      },
      "id": 54
    },
    {
      "type": "Feature",
      "geometry": {
        "type": "Point",
        "coordinates": [
          -75.143755046,
          39.949888644
        ]
      },
      "properties": {
        "id": 55,
        "name": "2nd",
        "line": "PhillySEPTAL"
      },
      "id": 55
    },
    {
      "type": "Feature",
      "geometry": {
        "type": "Point",
        "coordinates": [
          -75.140409419,
          39.96049515
        ]
      },
      "properties": {
        "id": 56,
        "name": "Spring Garden",
        "line": "PhillySEPTAL"
      },
      "id": 56
    },
    {
      "type": "Feature",
      "geometry": {
        "type": "Point",
        "coordinates": [
          -75.136240848,
          39.968910246
        ]
      },
      "properties": {
        "id": 57,
        "name": "Front-Girard",
        "line": "PhillySEPTAL",
        "alternate_names": [
          "Girard"
        ]
      },
      "id": 57
    },
    {
      "type": "Feature",
      "geometry": {
        "type": "Point",
        "coordinates": [
          -75.133553058,
          39.978660919
        ]
      },
      "properties": {
        "id": 58,
        "name": "Berks",
        "line": "PhillySEPTAL"
      },
      "id": 58
    },
    {
      "type": "Feature",
      "geometry": {
        "type": "Point",
        "coordinates": [
          -75.132182351,
          39.985172006
        ]
      },
      "properties": {
        "id": 59,
        "name": "York-Dauphin",
        "line": "PhillySEPTAL"
      },
      "id": 59
    },
    {
      "type": "Feature",
      "geometry": {
        "type": "Point",
        "coordinates": [
          -75.127388127,
          39.988833229
        ]
      },
      "properties": {
        "id": 60,
        "name": "Huntingdon",
        "line": "PhillySEPTAL"
      },
      "id": 60
    },
    {
      "type": "Feature",
      "geometry": {
        "type": "Point",
        "coordinates": [
          -75.122565852,
          39.991455736
        ]
      },
      "properties": {
        "id": 61,
        "name": "Somerset",
        "line": "PhillySEPTAL"
      },
      "id": 61
    },
    {
      "type": "Feature",
      "geometry": {
        "type": "Point",
        "coordinates": [
          -75.113377631,
          39.996499389
        ]
      },
      "properties": {
        "id": 62,
        "name": "Kensington-Allegheny",
        "line": "PhillySEPTAL",
        "alternate_names": [
          "Allegheny"
        ]
      },
      "id": 62
    },
    {
      "type": "Feature",
      "geometry": {
        "type": "Point",
        "coordinates": [
          -75.106506054,
          40.000268519
        ]
      },
      "properties": {
        "id": 63,
        "name": "Tioga",
        "line": "PhillySEPTAL"
      },
      "id": 63
    },
    {
      "type": "Feature",
      "geometry": {
        "type": "Point",
        "coordinates": [
          -75.096441986,
          40.005799242
        ]
      },
      "properties": {
        "id": 64,
        "name": "Erie-Torresdale",
        "line": "PhillySEPTAL"
      },
      "id": 64
    },
    {
      "type": "Feature",
      "geometry": {
        "type": "Point",
        "coordinates": [
          -75.088723143,
          40.01088143
        ]
      },
      "properties": {
        "id": 65,
        "name": "Church",
        "line": "PhillySEPTAL"
      },
      "id": 65
    },
    {
      "type": "Feature",
      "geometry": {
        "type": "Point",
        "coordinates": [
          -75.08396428,
          40.0164975
        ]
      },
      "properties": {
        "id": 66,
        "name": "Arrott Transportation Center",
        "line": "PhillySEPTAL"
      },
      "id": 66
    },
    {
      "type": "Feature",
      "geometry": {
        "type": "Point",
        "coordinates": [
          -75.077878963,
          40.022992963
        ]
      },
      "properties": {
        "id": 67,
        "name": "Frankford Transportation Center",
        "line": "PhillySEPTAL"
      },
      "id": 67
    },
    {
      "type": "Feature",
      "geometry": {
        "type": "Point",
        "coordinates": [
          -75.348153252,
          40.104890529
        ]
      },
      "properties": {
        "id": 68,
        "name": "Bridgeport",
        "line": "PhillySEPTAM"
      },
      "id": 68
    },
    {
      "type": "Feature",
      "geometry": {
        "type": "Point",
        "coordinates": [
          -75.342496363,
          40.071227268
        ]
      },
      "properties": {
        "id": 69,
        "name": "Gulph Mills",
        "line": "PhillySEPTAM"
      },
      "id": 69
    },
    {
      "type": "Feature",
      "geometry": {
        "type": "Point",
        "coordinates": [
          -75.340766481,
          40.032695068
        ]
      },
      "properties": {
        "id": 70,
        "name": "Stadium (Ithan Ave)",
        "line": "PhillySEPTAM"
      },
      "id": 70
    },
    {
      "type": "Feature",
      "geometry": {
        "type": "Point",
        "coordinates": [
          -75.330294451,
          40.021426734
        ]
      },
      "properties": {
        "id": 71,
        "name": "Roberts Rd",
        "line": "PhillySEPTAM"
      },
      "id": 71
    },
    {
      "type": "Feature",
      "geometry": {
        "type": "Point",
        "coordinates": [
          -75.291637984,
          39.986602024
        ]
      },
      "properties": {
        "id": 72,
        "name": "Beechwood-Brookline",
        "line": "PhillySEPTAM"
      },
      "id": 72
    },
    {
      "type": "Feature",
      "geometry": {
        "type": "Point",
        "coordinates": [
          -75.274205999,
          39.968680001
        ]
      },
      "properties": {
        "id": 73,
        "name": "Parkview",
        "line": "PhillySEPTAM"
      },
      "id": 73
    },
    {
      "type": "Feature",
      "geometry": {
        "type": "Point",
        "coordinates": [
          -75.281542424,
          39.974740926
        ]
      },
      "properties": {
        "id": 74,
        "name": "Township Line Rd",
        "line": "PhillySEPTAM"
      },
      "id": 74
    },
    {
      "type": "Feature",
      "geometry": {
        "type": "Point",
        "coordinates": [
          -75.283990196,
          39.980999948
        ]
      },
      "properties": {
        "id": 75,
        "name": "Penfield",
        "line": "PhillySEPTAM"
      },
      "id": 75
    },
    {
      "type": "Feature",
      "geometry": {
        "type": "Point",
        "coordinates": [
          -75.298389996,
          39.993480006
        ]
      },
      "properties": {
        "id": 76,
        "name": "Wynnewood Rd",
        "line": "PhillySEPTAM"
      },
      "id": 76
    },
    {
      "type": "Feature",
      "geometry": {
        "type": "Point",
        "coordinates": [
          -75.309489119,
          39.999985116
        ]
      },
      "properties": {
        "id": 77,
        "name": "Ardmore Ave",
        "line": "PhillySEPTAM"
      },
      "id": 77
    },
    {
      "type": "Feature",
      "geometry": {
        "type": "Point",
        "coordinates": [
          -75.31528606,
          40.010018273
        ]
      },
      "properties": {
        "id": 78,
        "name": "Haverford",
        "line": "PhillySEPTAM"
      },
      "id": 78
    },
    {
      "type": "Feature",
      "geometry": {
        "type": "Point",
        "coordinates": [
          -75.323352331,
          40.018013001
        ]
      },
      "properties": {
        "id": 79,
        "name": "Bryn Mawr",
        "line": "PhillySEPTAM"
      },
      "id": 79
    },
    {
      "type": "Feature",
      "geometry": {
        "type": "Point",
        "coordinates": [
          -75.336319045,
          40.027877958
        ]
      },
      "properties": {
        "id": 80,
        "name": "Garrett Hill",
        "line": "PhillySEPTAM"
      },
      "id": 80
    },
    {
      "type": "Feature",
      "geometry": {
        "type": "Point",
        "coordinates": [
          -75.343968964,
          40.03405071
        ]
      },
      "properties": {
        "id": 81,
        "name": "Villanova",
        "line": "PhillySEPTAM"
      },
      "id": 81
    },
    {
      "type": "Feature",
      "geometry": {
        "type": "Point",
        "coordinates": [
          -75.353582624,
          40.042019071
        ]
      },
      "properties": {
        "id": 82,
        "name": "Radnor",
        "line": "PhillySEPTAM"
      },
      "id": 82
    },
    {
      "type": "Feature",
      "geometry": {
        "type": "Point",
        "coordinates": [
          -75.347148688,
          40.050361751
        ]
      },
      "properties": {
        "id": 83,
        "name": "County Line",
        "line": "PhillySEPTAM"
      },
      "id": 83
    },
    {
      "type": "Feature",
      "geometry": {
        "type": "Point",
        "coordinates": [
          -75.339481429,
          40.057898414
        ]
      },
      "properties": {
        "id": 84,
        "name": "Matsonford",
        "line": "PhillySEPTAM"
      },
      "id": 84
    },
    {
      "type": "Feature",
      "geometry": {
        "type": "Point",
        "coordinates": [
          -75.348908021,
          40.081241984
        ]
      },
      "properties": {
        "id": 85,
        "name": "Hughes Park",
        "line": "PhillySEPTAM"
      },
      "id": 85
    },
    {
      "type": "Feature",
      "geometry": {
        "type": "Point",
        "coordinates": [
          -75.352056048,
          40.098868005
        ]
      },
      "properties": {
        "id": 86,
        "name": "DeKalb St",
        "line": "PhillySEPTAM"
      },
      "id": 86
    },
    {
      "type": "Feature",
      "geometry": {
        "type": "Point",
        "coordinates": [
          -75.303536055,
          39.996189387
        ]
      },
      "properties": {
        "id": 87,
        "name": "Ardmore Junction",
        "line": "PhillySEPTAM"
      },
      "id": 87
    },
    {
      "type": "Feature",
      "geometry": {
        "type": "Point",
        "coordinates": [
          -75.345223901,
          40.113486083
        ]
      },
      "properties": {
        "id": 88,
        "name": "Norristown Transportation Center",
        "line": "PhillySEPTAM"
      },
      "id": 88
    },
    {
      "type": "Feature",
      "geometry": {
        "type": "Point",
        "coordinates": [
          -75.259141584,
          39.962739344
        ]
      },
      "properties": {
        "id": 89,
        "name": "69th Street Transportation Center",
        "line": "PhillySEPTAM"
      },
      "id": 89
    },
    {
      "type": "Feature",
      "geometry": {
        "type": "Point",
        "coordinates": [
          -75.245957,
          39.983838
        ]
      },
      "properties": {
        "id": 90,
        "name": "63rd-Malvern",
        "line": "PhillySEPTAT1"
      },
      "id": 90
    },
    {
      "type": "Feature",
      "geometry": {
        "type": "Point",
        "coordinates": [
          -75.247009,
          39.983697
        ]
      },
      "properties": {
        "id": 91,
        "name": "Malvern Av & 63rd St",
        "line": "PhillySEPTAT1"
      },
      "id": 91
    },
    {
      "type": "Feature",
      "geometry": {
        "type": "Point",
        "coordinates": [
          -75.246661,
          39.980912
        ]
      },
      "properties": {
        "id": 92,
        "name": "63rd St & Lebanon Av",
        "line": "PhillySEPTAT1"
      },
      "id": 92
    },
    {
      "type": "Feature",
      "geometry": {
        "type": "Point",
        "coordinates": [
          -75.246184,
          39.97835
        ]
      },
      "properties": {
        "id": 93,
        "name": "63rd St & Jefferson St",
        "line": "PhillySEPTAT1"
      },
      "id": 93
    },
    {
      "type": "Feature",
      "geometry": {
        "type": "Point",
        "coordinates": [
          -75.244986,
          39.975332
        ]
      },
      "properties": {
        "id": 94,
        "name": "Lansdowne Av & 63rd - FS",
        "line": "PhillySEPTAT1"
      },
      "id": 94
    },
    {
      "type": "Feature",
      "geometry": {
        "type": "Point",
        "coordinates": [
          -75.243651,
          39.975499
        ]
      },
      "properties": {
        "id": 95,
        "name": "Lansdowne Av & 62nd St",
        "line": "PhillySEPTAT1"
      },
      "id": 95
    },
    {
      "type": "Feature",
      "geometry": {
        "type": "Point",
        "coordinates": [
          -75.241879,
          39.975693
        ]
      },
      "properties": {
        "id": 96,
        "name": "Lansdowne Av & 61st St",
        "line": "PhillySEPTAT1"
      },
      "id": 96
    },
    {
      "type": "Feature",
      "geometry": {
        "type": "Point",
        "coordinates": [
          -75.240378,
          39.975851
        ]
      },
      "properties": {
        "id": 97,
        "name": "Lansdowne Av & 60th St",
        "line": "PhillySEPTAT1"
      },
      "id": 97
    },
    {
      "type": "Feature",
      "geometry": {
        "type": "Point",
        "coordinates": [
          -75.238653,
          39.976054
        ]
      },
      "properties": {
        "id": 98,
        "name": "Lansdowne Av & 59th St",
        "line": "PhillySEPTAT1"
      },
      "id": 98
    },
    {
      "type": "Feature",
      "geometry": {
        "type": "Point",
        "coordinates": [
          -75.236904,
          39.976248
        ]
      },
      "properties": {
        "id": 99,
        "name": "Lansdowne Av & 58th St",
        "line": "PhillySEPTAT1"
      },
      "id": 99
    },
    {
      "type": "Feature",
      "geometry": {
        "type": "Point",
        "coordinates": [
          -75.235403,
          39.976406
        ]
      },
      "properties": {
        "id": 100,
        "name": "Lansdowne Av & 57th St",
        "line": "PhillySEPTAT1"
      },
      "id": 100
    },
    {
      "type": "Feature",
      "geometry": {
        "type": "Point",
        "coordinates": [
          -75.233761,
          39.976591
        ]
      },
      "properties": {
        "id": 101,
        "name": "Lansdowne Av & 56th St",
        "line": "PhillySEPTAT1"
      },
      "id": 101
    },
    {
      "type": "Feature",
      "geometry": {
        "type": "Point",
        "coordinates": [
          -75.231858,
          39.976811
        ]
      },
      "properties": {
        "id": 102,
        "name": "Lansdowne Av & 55th St",
        "line": "PhillySEPTAT1"
      },
      "id": 102
    },
    {
      "type": "Feature",
      "geometry": {
        "type": "Point",
        "coordinates": [
          -75.229908,
          39.977013
        ]
      },
      "properties": {
        "id": 103,
        "name": "Lansdowne Av & 54th St",
        "line": "PhillySEPTAT1"
      },
      "id": 103
    },
    {
      "type": "Feature",
      "geometry": {
        "type": "Point",
        "coordinates": [
          -75.227451,
          39.977295
        ]
      },
      "properties": {
        "id": 104,
        "name": "Lansdowne Av & Lancaster Av",
        "line": "PhillySEPTAT1"
      },
      "id": 104
    },
    {
      "type": "Feature",
      "geometry": {
        "type": "Point",
        "coordinates": [
          -75.226176,
          39.976855
        ]
      },
      "properties": {
        "id": 105,
        "name": "Lancaster Av & Bible Way",
        "line": "PhillySEPTAT1"
      },
      "id": 105
    },
    {
      "type": "Feature",
      "geometry": {
        "type": "Point",
        "coordinates": [
          -75.22259,
          39.975207
        ]
      },
      "properties": {
        "id": 106,
        "name": "Lancaster Av & 50th St",
        "line": "PhillySEPTAT1"
      },
      "id": 106
    },
    {
      "type": "Feature",
      "geometry": {
        "type": "Point",
        "coordinates": [
          -75.219747,
          39.973748
        ]
      },
      "properties": {
        "id": 107,
        "name": "Lancaster Av & Thompson St",
        "line": "PhillySEPTAT1"
      },
      "id": 107
    },
    {
      "type": "Feature",
      "geometry": {
        "type": "Point",
        "coordinates": [
          -75.218615,
          39.973059
        ]
      },
      "properties": {
        "id": 108,
        "name": "Lancaster Av & Girard Av",
        "line": "PhillySEPTAT1"
      },
      "id": 108
    },
    {
      "type": "Feature",
      "geometry": {
        "type": "Point",
        "coordinates": [
          -75.216115,
          39.971555
        ]
      },
      "properties": {
        "id": 109,
        "name": "Lancaster Av & 47th St",
        "line": "PhillySEPTAT1"
      },
      "id": 109
    },
    {
      "type": "Feature",
      "geometry": {
        "type": "Point",
        "coordinates": [
          -75.212991,
          39.969667
        ]
      },
      "properties": {
        "id": 110,
        "name": "Lancaster Av & 45th St",
        "line": "PhillySEPTAT1"
      },
      "id": 110
    },
    {
      "type": "Feature",
      "geometry": {
        "type": "Point",
        "coordinates": [
          -75.211541,
          39.968772
        ]
      },
      "properties": {
        "id": 111,
        "name": "Lancaster Av & 44th St",
        "line": "PhillySEPTAT1"
      },
      "id": 111
    },
    {
      "type": "Feature",
      "geometry": {
        "type": "Point",
        "coordinates": [
          -75.209878,
          39.967725
        ]
      },
      "properties": {
        "id": 112,
        "name": "Lancaster Av & 43th St",
        "line": "PhillySEPTAT1"
      },
      "id": 112
    },
    {
      "type": "Feature",
      "geometry": {
        "type": "Point",
        "coordinates": [
          -75.207662,
          39.966391
        ]
      },
      "properties": {
        "id": 113,
        "name": "Lancaster Av & 42nd St",
        "line": "PhillySEPTAT1"
      },
      "id": 113
    },
    {
      "type": "Feature",
      "geometry": {
        "type": "Point",
        "coordinates": [
          -75.205564,
          39.965093
        ]
      },
      "properties": {
        "id": 114,
        "name": "Lancaster Av & 41st St",
        "line": "PhillySEPTAT1"
      },
      "id": 114
    },
    {
      "type": "Feature",
      "geometry": {
        "type": "Point",
        "coordinates": [
          -75.20244,
          39.963151
        ]
      },
      "properties": {
        "id": 115,
        "name": "Lancaster Av & 40th St",
        "line": "PhillySEPTAT1"
      },
      "id": 115
    },
    {
      "type": "Feature",
      "geometry": {
        "type": "Point",
        "coordinates": [
          -75.201901,
          39.957929
        ]
      },
      "properties": {
        "id": 116,
        "name": "40th St & Filbert St",
        "line": "PhillySEPTAT1"
      },
      "id": 116
    },
    {
      "type": "Feature",
      "geometry": {
        "type": "Point",
        "coordinates": [
          -75.200353,
          39.962004
        ]
      },
      "properties": {
        "id": 117,
        "name": "Lancaster Av & Spring Garden St",
        "line": "PhillySEPTAT1"
      },
      "id": 117
    },
    {
      "type": "Feature",
      "geometry": {
        "type": "Point",
        "coordinates": [
          -75.197016,
          39.960267
        ]
      },
      "properties": {
        "id": 118,
        "name": "Lancaster Av & 38th St",
        "line": "PhillySEPTAT1"
      },
      "id": 118
    },
    {
      "type": "Feature",
      "geometry": {
        "type": "Point",
        "coordinates": [
          -75.193786,
          39.958565
        ]
      },
      "properties": {
        "id": 119,
        "name": "Lancaster Av & 36th St",
        "line": "PhillySEPTAT1"
      },
      "id": 119
    },
    {
      "type": "Feature",
      "geometry": {
        "type": "Point",
        "coordinates": [
          -75.194162,
          39.955335
        ]
      },
      "properties": {
        "id": 120,
        "name": "36th St Trolley Portal Station",
        "line": "PhillySEPTAT1"
      },
      "id": 120
    },
    {
      "type": "Feature",
      "geometry": {
        "type": "Point",
        "coordinates": [
          -75.189523,
          39.954782
        ]
      },
      "properties": {
        "id": 121,
        "name": "33rd St",
        "line": "PhillySEPTAT1"
      },
      "id": 121
    },
    {
      "type": "Feature",
      "geometry": {
        "type": "Point",
        "coordinates": [
          -75.1835,
          39.954815
        ]
      },
      "properties": {
        "id": 122,
        "name": "Drexel Station at 30th St",
        "line": "PhillySEPTAT1",
        "alternate_names": [
          "30th St",
          "30 St",
          "30th Street"
        ]
      },
      "id": 122
    },
    {
      "type": "Feature",
      "geometry": {
        "type": "Point",
        "coordinates": [
          -75.176736,
          39.953962
        ]
      },
      "properties": {
        "id": 123,
        "name": "22nd St",
        "line": "PhillySEPTAT1"
      },
      "id": 123
    },
    {
      "type": "Feature",
      "geometry": {
        "type": "Point",
        "coordinates": [
          -75.171637,
          39.953327
        ]
      },
      "properties": {
        "id": 124,
        "name": "19th St",
        "line": "PhillySEPTAT1"
      },
      "id": 124
    },
    {
      "type": "Feature",
      "geometry": {
        "type": "Point",
        "coordinates": [
          -75.165369,
          39.952502
        ]
      },
      "properties": {
        "id": 125,
        "name": "15th St/City Hall",
        "line": "PhillySEPTAT1",
        "alternate_names": [
          "City Hall",
          "15th Street"
        ]
      },
      "id": 125
    },
    {
      "type": "Feature",
      "geometry": {
        "type": "Point",
        "coordinates": [
          -75.162559,
          39.952532
        ]
      },
      "properties": {
        "id": 126,
        "name": "13th St",
        "line": "PhillySEPTAT1"
      },
      "id": 126
    },
    {
      "type": "Feature",
      "geometry": {
        "type": "Point",
        "coordinates": [
          -75.241816,
          39.914129
        ]
      },
      "properties": {
        "id": 127,
        "name": "Elmwood Av & 73rd St",
        "line": "PhillySEPTAT2"
      },
      "id": 127
    },
    {
      "type": "Feature",
      "geometry": {
        "type": "Point",
        "coordinates": [
          -75.246376,
          39.917099
        ]
      },
      "properties": {
        "id": 128,
        "name": "Woodland Av & Island Av",
        "line": "PhillySEPTAT2"
      },
      "id": 128
    },
    {
      "type": "Feature",
      "geometry": {
        "type": "Point",
        "coordinates": [
          -75.212429,
          39.940794
        ]
      },
      "properties": {
        "id": 129,
        "name": "49th St & Woodland Av",
        "line": "PhillySEPTAT2"
      },
      "id": 129
    },
    {
      "type": "Feature",
      "geometry": {
        "type": "Point",
        "coordinates": [
          -75.213907,
          39.939886
        ]
      },
      "properties": {
        "id": 130,
        "name": "Woodland Av & 50th St",
        "line": "PhillySEPTAT2"
      },
      "id": 130
    },
    {
      "type": "Feature",
      "geometry": {
        "type": "Point",
        "coordinates": [
          -75.246342,
          39.943963
        ]
      },
      "properties": {
        "id": 131,
        "name": "61st-Baltimore",
        "line": "PhillySEPTAT2"
      },
      "id": 131
    },
    {
      "type": "Feature",
      "geometry": {
        "type": "Point",
        "coordinates": [
          -75.244429,
          39.944299
        ]
      },
      "properties": {
        "id": 132,
        "name": "Baltimore Av & 60th St",
        "line": "PhillySEPTAT2"
      },
      "id": 132
    },
    {
      "type": "Feature",
      "geometry": {
        "type": "Point",
        "coordinates": [
          -75.241899,
          39.945197
        ]
      },
      "properties": {
        "id": 133,
        "name": "Baltimore Av & 59th St",
        "line": "PhillySEPTAT2"
      },
      "id": 133
    },
    {
      "type": "Feature",
      "geometry": {
        "type": "Point",
        "coordinates": [
          -75.240304,
          39.945783
        ]
      },
      "properties": {
        "id": 134,
        "name": "Baltimore Av & 58th St",
        "line": "PhillySEPTAT2"
      },
      "id": 134
    },
    {
      "type": "Feature",
      "geometry": {
        "type": "Point",
        "coordinates": [
          -75.237327,
          39.946386
        ]
      },
      "properties": {
        "id": 135,
        "name": "Baltimore Av & 57th St",
        "line": "PhillySEPTAT2"
      },
      "id": 135
    },
    {
      "type": "Feature",
      "geometry": {
        "type": "Point",
        "coordinates": [
          -75.235602,
          39.946785
        ]
      },
      "properties": {
        "id": 136,
        "name": "Baltimore Av & 56th St",
        "line": "PhillySEPTAT2"
      },
      "id": 136
    },
    {
      "type": "Feature",
      "geometry": {
        "type": "Point",
        "coordinates": [
          -75.233746,
          39.947246
        ]
      },
      "properties": {
        "id": 137,
        "name": "Baltimore Av & 55th St",
        "line": "PhillySEPTAT2"
      },
      "id": 137
    },
    {
      "type": "Feature",
      "geometry": {
        "type": "Point",
        "coordinates": [
          -75.231466,
          39.947742
        ]
      },
      "properties": {
        "id": 138,
        "name": "Baltimore Av & 54th St",
        "line": "PhillySEPTAT2"
      },
      "id": 138
    },
    {
      "type": "Feature",
      "geometry": {
        "type": "Point",
        "coordinates": [
          -75.229612,
          39.947766
        ]
      },
      "properties": {
        "id": 139,
        "name": "Baltimore Av & 53rd St",
        "line": "PhillySEPTAT2"
      },
      "id": 139
    },
    {
      "type": "Feature",
      "geometry": {
        "type": "Point",
        "coordinates": [
          -75.227912,
          39.947727
        ]
      },
      "properties": {
        "id": 140,
        "name": "Baltimore Av & Broomall St",
        "line": "PhillySEPTAT2"
      },
      "id": 140
    },
    {
      "type": "Feature",
      "geometry": {
        "type": "Point",
        "coordinates": [
          -75.225456,
          39.947715
        ]
      },
      "properties": {
        "id": 141,
        "name": "Baltimore Av & 51st St",
        "line": "PhillySEPTAT2"
      },
      "id": 141
    },
    {
      "type": "Feature",
      "geometry": {
        "type": "Point",
        "coordinates": [
          -75.223377,
          39.947872
        ]
      },
      "properties": {
        "id": 142,
        "name": "Baltimore Av & 50th St",
        "line": "PhillySEPTAT2"
      },
      "id": 142
    },
    {
      "type": "Feature",
      "geometry": {
        "type": "Point",
        "coordinates": [
          -75.221404,
          39.948101
        ]
      },
      "properties": {
        "id": 143,
        "name": "Baltimore Av & 49th St",
        "line": "PhillySEPTAT2"
      },
      "id": 143
    },
    {
      "type": "Feature",
      "geometry": {
        "type": "Point",
        "coordinates": [
          -75.219503,
          39.948312
        ]
      },
      "properties": {
        "id": 144,
        "name": "Baltimore Av & Florence Av",
        "line": "PhillySEPTAT2"
      },
      "id": 144
    },
    {
      "type": "Feature",
      "geometry": {
        "type": "Point",
        "coordinates": [
          -75.217188,
          39.94854
        ]
      },
      "properties": {
        "id": 145,
        "name": "Baltimore Av & 47th St",
        "line": "PhillySEPTAT2"
      },
      "id": 145
    },
    {
      "type": "Feature",
      "geometry": {
        "type": "Point",
        "coordinates": [
          -75.215061,
          39.948786
        ]
      },
      "properties": {
        "id": 146,
        "name": "Baltimore Av & 46th St",
        "line": "PhillySEPTAT2"
      },
      "id": 146
    },
    {
      "type": "Feature",
      "geometry": {
        "type": "Point",
        "coordinates": [
          -75.213018,
          39.949006
        ]
      },
      "properties": {
        "id": 147,
        "name": "Baltimore Av & 45th St",
        "line": "PhillySEPTAT2"
      },
      "id": 147
    },
    {
      "type": "Feature",
      "geometry": {
        "type": "Point",
        "coordinates": [
          -75.21127,
          39.949181
        ]
      },
      "properties": {
        "id": 148,
        "name": "Baltimore Av & 44th St",
        "line": "PhillySEPTAT2"
      },
      "id": 148
    },
    {
      "type": "Feature",
      "geometry": {
        "type": "Point",
        "coordinates": [
          -75.20932,
          39.949481
        ]
      },
      "properties": {
        "id": 149,
        "name": "Baltimore Av & 43rd St",
        "line": "PhillySEPTAT2"
      },
      "id": 149
    },
    {
      "type": "Feature",
      "geometry": {
        "type": "Point",
        "coordinates": [
          -75.207265,
          39.949736
        ]
      },
      "properties": {
        "id": 150,
        "name": "Baltimore Av & 42nd St",
        "line": "PhillySEPTAT2"
      },
      "id": 150
    },
    {
      "type": "Feature",
      "geometry": {
        "type": "Point",
        "coordinates": [
          -75.203333,
          39.949533
        ]
      },
      "properties": {
        "id": 151,
        "name": "40th St Portal",
        "line": "PhillySEPTAT2"
      },
      "id": 151
    },
    {
      "type": "Feature",
      "geometry": {
        "type": "Point",
        "coordinates": [
          -75.202021,
          39.957259
        ]
      },
      "properties": {
        "id": 152,
        "name": "40th-Market",
        "line": "PhillySEPTAT2"
      },
      "id": 152
    },
    {
      "type": "Feature",
      "geometry": {
        "type": "Point",
        "coordinates": [
          -75.196586,
          39.950993
        ]
      },
      "properties": {
        "id": 153,
        "name": "37th-Spruce",
        "line": "PhillySEPTAT2"
      },
      "id": 153
    },
    {
      "type": "Feature",
      "geometry": {
        "type": "Point",
        "coordinates": [
          -75.194533,
          39.953854
        ]
      },
      "properties": {
        "id": 154,
        "name": "36th-Sansom",
        "line": "PhillySEPTAT2"
      },
      "id": 154
    },
    {
      "type": "Feature",
      "geometry": {
        "type": "Point",
        "coordinates": [
          -75.189523,
          39.954782
        ]
      },
      "properties": {
        "id": 155,
        "name": "33rd St",
        "line": "PhillySEPTAT2"
      },
      "id": 155
    },
    {
      "type": "Feature",
      "geometry": {
        "type": "Point",
        "coordinates": [
          -75.1835,
          39.954815
        ]
      },
      "properties": {
        "id": 156,
        "name": "Drexel Station at 30th St",
        "line": "PhillySEPTAT2",
        "alternate_names": [
          "30th St",
          "30 St",
          "30th Street"
        ]
      },
      "id": 156
    },
    {
      "type": "Feature",
      "geometry": {
        "type": "Point",
        "coordinates": [
          -75.176736,
          39.953962
        ]
      },
      "properties": {
        "id": 157,
        "name": "22nd St",
        "line": "PhillySEPTAT2"
      },
      "id": 157
    },
    {
      "type": "Feature",
      "geometry": {
        "type": "Point",
        "coordinates": [
          -75.171637,
          39.953327
        ]
      },
      "properties": {
        "id": 158,
        "name": "19th St",
        "line": "PhillySEPTAT2"
      },
      "id": 158
    },
    {
      "type": "Feature",
      "geometry": {
        "type": "Point",
        "coordinates": [
          -75.165369,
          39.952502
        ]
      },
      "properties": {
        "id": 159,
        "name": "15th St/City Hall",
        "line": "PhillySEPTAT2",
        "alternate_names": [
          "City Hall",
          "15th Street"
        ]
      },
      "id": 159
    },
    {
      "type": "Feature",
      "geometry": {
        "type": "Point",
        "coordinates": [
          -75.162559,
          39.952532
        ]
      },
      "properties": {
        "id": 160,
        "name": "13th St",
        "line": "PhillySEPTAT2"
      },
      "id": 160
    },
    {
      "type": "Feature",
      "geometry": {
        "type": "Point",
        "coordinates": [
          -75.262376,
          39.919085
        ]
      },
      "properties": {
        "id": 161,
        "name": "Darby Transit Center",
        "line": "PhillySEPTAT3"
      },
      "id": 161
    },
    {
      "type": "Feature",
      "geometry": {
        "type": "Point",
        "coordinates": [
          -75.261845,
          39.918924
        ]
      },
      "properties": {
        "id": 162,
        "name": "9th St & Main St - MBFS",
        "line": "PhillySEPTAT3"
      },
      "id": 162
    },
    {
      "type": "Feature",
      "geometry": {
        "type": "Point",
        "coordinates": [
          -75.260545,
          39.919921
        ]
      },
      "properties": {
        "id": 163,
        "name": "9th St & Ridge Av",
        "line": "PhillySEPTAT3"
      },
      "id": 163
    },
    {
      "type": "Feature",
      "geometry": {
        "type": "Point",
        "coordinates": [
          -75.258866,
          39.921142
        ]
      },
      "properties": {
        "id": 164,
        "name": "9th St & Summit St",
        "line": "PhillySEPTAT3"
      },
      "id": 164
    },
    {
      "type": "Feature",
      "geometry": {
        "type": "Point",
        "coordinates": [
          -75.257482,
          39.92205
        ]
      },
      "properties": {
        "id": 165,
        "name": "9th St & Summit St - MBFS",
        "line": "PhillySEPTAT3"
      },
      "id": 165
    },
    {
      "type": "Feature",
      "geometry": {
        "type": "Point",
        "coordinates": [
          -75.255994,
          39.922566
        ]
      },
      "properties": {
        "id": 166,
        "name": "9th St & Cedar Av",
        "line": "PhillySEPTAT3"
      },
      "id": 166
    },
    {
      "type": "Feature",
      "geometry": {
        "type": "Point",
        "coordinates": [
          -75.254279,
          39.923697
        ]
      },
      "properties": {
        "id": 167,
        "name": "Chester Av & Alfred Av",
        "line": "PhillySEPTAT3"
      },
      "id": 167
    },
    {
      "type": "Feature",
      "geometry": {
        "type": "Point",
        "coordinates": [
          -75.252542,
          39.924525
        ]
      },
      "properties": {
        "id": 168,
        "name": "Yeadon",
        "line": "PhillySEPTAT3"
      },
      "id": 168
    },
    {
      "type": "Feature",
      "geometry": {
        "type": "Point",
        "coordinates": [
          -75.250817,
          39.925102
        ]
      },
      "properties": {
        "id": 169,
        "name": "Chester Av & Stetser Av",
        "line": "PhillySEPTAT3"
      },
      "id": 169
    },
    {
      "type": "Feature",
      "geometry": {
        "type": "Point",
        "coordinates": [
          -75.249175,
          39.925617
        ]
      },
      "properties": {
        "id": 170,
        "name": "Chester Av & Duncan Av",
        "line": "PhillySEPTAT3"
      },
      "id": 170
    },
    {
      "type": "Feature",
      "geometry": {
        "type": "Point",
        "coordinates": [
          -75.247486,
          39.92607
        ]
      },
      "properties": {
        "id": 171,
        "name": "Chester Av & Yeadon Av",
        "line": "PhillySEPTAT3"
      },
      "id": 171
    },
    {
      "type": "Feature",
      "geometry": {
        "type": "Point",
        "coordinates": [
          -75.246565,
          39.92631
        ]
      },
      "properties": {
        "id": 172,
        "name": "Chester Av & Church Ln",
        "line": "PhillySEPTAT3"
      },
      "id": 172
    },
    {
      "type": "Feature",
      "geometry": {
        "type": "Point",
        "coordinates": [
          -75.244762,
          39.929359
        ]
      },
      "properties": {
        "id": 173,
        "name": "Chester Av & 65th St",
        "line": "PhillySEPTAT3"
      },
      "id": 173
    },
    {
      "type": "Feature",
      "geometry": {
        "type": "Point",
        "coordinates": [
          -75.24108,
          39.92905
        ]
      },
      "properties": {
        "id": 174,
        "name": "65th St & Belmar Av",
        "line": "PhillySEPTAT3"
      },
      "id": 174
    },
    {
      "type": "Feature",
      "geometry": {
        "type": "Point",
        "coordinates": [
          -75.238897,
          39.928628
        ]
      },
      "properties": {
        "id": 175,
        "name": "65th St & Chester Av",
        "line": "PhillySEPTAT3"
      },
      "id": 175
    },
    {
      "type": "Feature",
      "geometry": {
        "type": "Point",
        "coordinates": [
          -75.23714,
          39.927902
        ]
      },
      "properties": {
        "id": 176,
        "name": "65th St & Kingsessing Av",
        "line": "PhillySEPTAT3"
      },
      "id": 176
    },
    {
      "type": "Feature",
      "geometry": {
        "type": "Point",
        "coordinates": [
          -75.235461,
          39.92889
        ]
      },
      "properties": {
        "id": 177,
        "name": "Mt. Moriah",
        "line": "PhillySEPTAT3"
      },
      "id": 177
    },
    {
      "type": "Feature",
      "geometry": {
        "type": "Point",
        "coordinates": [
          -75.233888,
          39.929994
        ]
      },
      "properties": {
        "id": 178,
        "name": "Kingsessing Av & 62nd St",
        "line": "PhillySEPTAT3"
      },
      "id": 178
    },
    {
      "type": "Feature",
      "geometry": {
        "type": "Point",
        "coordinates": [
          -75.232386,
          39.931045
        ]
      },
      "properties": {
        "id": 179,
        "name": "Kingsessing Av & 61st St",
        "line": "PhillySEPTAT3"
      },
      "id": 179
    },
    {
      "type": "Feature",
      "geometry": {
        "type": "Point",
        "coordinates": [
          -75.230316,
          39.932479
        ]
      },
      "properties": {
        "id": 180,
        "name": "Kingsessing Av & 60th St",
        "line": "PhillySEPTAT3"
      },
      "id": 180
    },
    {
      "type": "Feature",
      "geometry": {
        "type": "Point",
        "coordinates": [
          -75.231399,
          39.933632
        ]
      },
      "properties": {
        "id": 181,
        "name": "60th St & Chester Av",
        "line": "PhillySEPTAT3"
      },
      "id": 181
    },
    {
      "type": "Feature",
      "geometry": {
        "type": "Point",
        "coordinates": [
          -75.229944,
          39.934754
        ]
      },
      "properties": {
        "id": 182,
        "name": "Chester Av & 59th St",
        "line": "PhillySEPTAT3"
      },
      "id": 182
    },
    {
      "type": "Feature",
      "geometry": {
        "type": "Point",
        "coordinates": [
          -75.228572,
          39.935653
        ]
      },
      "properties": {
        "id": 183,
        "name": "Chester Av & 58th St",
        "line": "PhillySEPTAT3"
      },
      "id": 183
    },
    {
      "type": "Feature",
      "geometry": {
        "type": "Point",
        "coordinates": [
          -75.227187,
          39.936642
        ]
      },
      "properties": {
        "id": 184,
        "name": "Chester Av & 57th St",
        "line": "PhillySEPTAT3"
      },
      "id": 184
    },
    {
      "type": "Feature",
      "geometry": {
        "type": "Point",
        "coordinates": [
          -75.225661,
          39.937701
        ]
      },
      "properties": {
        "id": 185,
        "name": "Chester Av & 56th St",
        "line": "PhillySEPTAT3"
      },
      "id": 185
    },
    {
      "type": "Feature",
      "geometry": {
        "type": "Point",
        "coordinates": [
          -75.224301,
          39.938654
        ]
      },
      "properties": {
        "id": 186,
        "name": "Chester Av & 55th St",
        "line": "PhillySEPTAT3"
      },
      "id": 186
    },
    {
      "type": "Feature",
      "geometry": {
        "type": "Point",
        "coordinates": [
          -75.222952,
          39.939607
        ]
      },
      "properties": {
        "id": 187,
        "name": "Chester Av & 54th St",
        "line": "PhillySEPTAT3"
      },
      "id": 187
    },
    {
      "type": "Feature",
      "geometry": {
        "type": "Point",
        "coordinates": [
          -75.221556,
          39.940577
        ]
      },
      "properties": {
        "id": 188,
        "name": "Chester Av & 53rd St",
        "line": "PhillySEPTAT3"
      },
      "id": 188
    },
    {
      "type": "Feature",
      "geometry": {
        "type": "Point",
        "coordinates": [
          -75.220184,
          39.941539
        ]
      },
      "properties": {
        "id": 189,
        "name": "Chester Av & 52nd St",
        "line": "PhillySEPTAT3"
      },
      "id": 189
    },
    {
      "type": "Feature",
      "geometry": {
        "type": "Point",
        "coordinates": [
          -75.219048,
          39.942349
        ]
      },
      "properties": {
        "id": 190,
        "name": "Chester Av & 51st St",
        "line": "PhillySEPTAT3"
      },
      "id": 190
    },
    {
      "type": "Feature",
      "geometry": {
        "type": "Point",
        "coordinates": [
          -75.216622,
          39.944041
        ]
      },
      "properties": {
        "id": 191,
        "name": "Chester Av & 49th St",
        "line": "PhillySEPTAT3"
      },
      "id": 191
    },
    {
      "type": "Feature",
      "geometry": {
        "type": "Point",
        "coordinates": [
          -75.215344,
          39.944958
        ]
      },
      "properties": {
        "id": 192,
        "name": "Chester Av & 48th St",
        "line": "PhillySEPTAT3"
      },
      "id": 192
    },
    {
      "type": "Feature",
      "geometry": {
        "type": "Point",
        "coordinates": [
          -75.213984,
          39.945901
        ]
      },
      "properties": {
        "id": 193,
        "name": "Chester Av & 47th St",
        "line": "PhillySEPTAT3"
      },
      "id": 193
    },
    {
      "type": "Feature",
      "geometry": {
        "type": "Point",
        "coordinates": [
          -75.212682,
          39.946827
        ]
      },
      "properties": {
        "id": 194,
        "name": "Chester Av & 46th St",
        "line": "PhillySEPTAT3"
      },
      "id": 194
    },
    {
      "type": "Feature",
      "geometry": {
        "type": "Point",
        "coordinates": [
          -75.211428,
          39.9477
        ]
      },
      "properties": {
        "id": 195,
        "name": "Chester Av & 45th St",
        "line": "PhillySEPTAT3"
      },
      "id": 195
    },
    {
      "type": "Feature",
      "geometry": {
        "type": "Point",
        "coordinates": [
          -75.209135,
          39.948356
        ]
      },
      "properties": {
        "id": 196,
        "name": "Chester Av & 43rd St",
        "line": "PhillySEPTAT3"
      },
      "id": 196
    },
    {
      "type": "Feature",
      "geometry": {
        "type": "Point",
        "coordinates": [
          -75.207151,
          39.948424
        ]
      },
      "properties": {
        "id": 197,
        "name": "Chester Av & 42nd St",
        "line": "PhillySEPTAT3"
      },
      "id": 197
    },
    {
      "type": "Feature",
      "geometry": {
        "type": "Point",
        "coordinates": [
          -75.203333,
          39.949533
        ]
      },
      "properties": {
        "id": 198,
        "name": "40th St Portal",
        "line": "PhillySEPTAT3"
      },
      "id": 198
    },
    {
      "type": "Feature",
      "geometry": {
        "type": "Point",
        "coordinates": [
          -75.202021,
          39.957259
        ]
      },
      "properties": {
        "id": 199,
        "name": "40th-Market",
        "line": "PhillySEPTAT3"
      },
      "id": 199
    },
    {
      "type": "Feature",
      "geometry": {
        "type": "Point",
        "coordinates": [
          -75.196586,
          39.950993
        ]
      },
      "properties": {
        "id": 200,
        "name": "37th-Spruce",
        "line": "PhillySEPTAT3"
      },
      "id": 200
    },
    {
      "type": "Feature",
      "geometry": {
        "type": "Point",
        "coordinates": [
          -75.194533,
          39.953854
        ]
      },
      "properties": {
        "id": 201,
        "name": "36th-Sansom",
        "line": "PhillySEPTAT3"
      },
      "id": 201
    },
    {
      "type": "Feature",
      "geometry": {
        "type": "Point",
        "coordinates": [
          -75.189523,
          39.954782
        ]
      },
      "properties": {
        "id": 202,
        "name": "33rd St",
        "line": "PhillySEPTAT3"
      },
      "id": 202
    },
    {
      "type": "Feature",
      "geometry": {
        "type": "Point",
        "coordinates": [
          -75.1835,
          39.954815
        ]
      },
      "properties": {
        "id": 203,
        "name": "Drexel Station at 30th St",
        "line": "PhillySEPTAT3",
        "alternate_names": [
          "30th St",
          "30 St",
          "30th Street"
        ]
      },
      "id": 203
    },
    {
      "type": "Feature",
      "geometry": {
        "type": "Point",
        "coordinates": [
          -75.176736,
          39.953962
        ]
      },
      "properties": {
        "id": 204,
        "name": "22nd St",
        "line": "PhillySEPTAT3"
      },
      "id": 204
    },
    {
      "type": "Feature",
      "geometry": {
        "type": "Point",
        "coordinates": [
          -75.171637,
          39.953327
        ]
      },
      "properties": {
        "id": 205,
        "name": "19th St",
        "line": "PhillySEPTAT3"
      },
      "id": 205
    },
    {
      "type": "Feature",
      "geometry": {
        "type": "Point",
        "coordinates": [
          -75.165369,
          39.952502
        ]
      },
      "properties": {
        "id": 206,
        "name": "15th St/City Hall",
        "line": "PhillySEPTAT3",
        "alternate_names": [
          "City Hall",
          "15th Street"
        ]
      },
      "id": 206
    },
    {
      "type": "Feature",
      "geometry": {
        "type": "Point",
        "coordinates": [
          -75.162559,
          39.952532
        ]
      },
      "properties": {
        "id": 207,
        "name": "13th St",
        "line": "PhillySEPTAT3"
      },
      "id": 207
    },
    {
      "type": "Feature",
      "geometry": {
        "type": "Point",
        "coordinates": [
          -75.262376,
          39.919085
        ]
      },
      "properties": {
        "id": 208,
        "name": "Darby Transit Center",
        "line": "PhillySEPTAT4"
      },
      "id": 208
    },
    {
      "type": "Feature",
      "geometry": {
        "type": "Point",
        "coordinates": [
          -75.260053,
          39.918091
        ]
      },
      "properties": {
        "id": 209,
        "name": "Main St & Mill St",
        "line": "PhillySEPTAT4"
      },
      "id": 209
    },
    {
      "type": "Feature",
      "geometry": {
        "type": "Point",
        "coordinates": [
          -75.257315,
          39.918088
        ]
      },
      "properties": {
        "id": 210,
        "name": "Main St & Summit St",
        "line": "PhillySEPTAT4"
      },
      "id": 210
    },
    {
      "type": "Feature",
      "geometry": {
        "type": "Point",
        "coordinates": [
          -75.255852,
          39.917791
        ]
      },
      "properties": {
        "id": 211,
        "name": "Main St & 6th St",
        "line": "PhillySEPTAT4"
      },
      "id": 211
    },
    {
      "type": "Feature",
      "geometry": {
        "type": "Point",
        "coordinates": [
          -75.254613,
          39.917504
        ]
      },
      "properties": {
        "id": 212,
        "name": "Main St & 5th St",
        "line": "PhillySEPTAT4"
      },
      "id": 212
    },
    {
      "type": "Feature",
      "geometry": {
        "type": "Point",
        "coordinates": [
          -75.253044,
          39.917144
        ]
      },
      "properties": {
        "id": 213,
        "name": "Main St & 4th St",
        "line": "PhillySEPTAT4"
      },
      "id": 213
    },
    {
      "type": "Feature",
      "geometry": {
        "type": "Point",
        "coordinates": [
          -75.251841,
          39.916866
        ]
      },
      "properties": {
        "id": 214,
        "name": "Main St & 3rd St",
        "line": "PhillySEPTAT4"
      },
      "id": 214
    },
    {
      "type": "Feature",
      "geometry": {
        "type": "Point",
        "coordinates": [
          -75.250567,
          39.916579
        ]
      },
      "properties": {
        "id": 215,
        "name": "Main St & 2nd St",
        "line": "PhillySEPTAT4"
      },
      "id": 215
    },
    {
      "type": "Feature",
      "geometry": {
        "type": "Point",
        "coordinates": [
          -75.24921,
          39.916363
        ]
      },
      "properties": {
        "id": 216,
        "name": "Main St & Front St",
        "line": "PhillySEPTAT4"
      },
      "id": 216
    },
    {
      "type": "Feature",
      "geometry": {
        "type": "Point",
        "coordinates": [
          -75.246376,
          39.917099
        ]
      },
      "properties": {
        "id": 217,
        "name": "Woodland Av & Island Av",
        "line": "PhillySEPTAT4"
      },
      "id": 217
    },
    {
      "type": "Feature",
      "geometry": {
        "type": "Point",
        "coordinates": [
          -75.244412,
          39.918432
        ]
      },
      "properties": {
        "id": 218,
        "name": "Woodland Av & 72nd St",
        "line": "PhillySEPTAT4"
      },
      "id": 218
    },
    {
      "type": "Feature",
      "geometry": {
        "type": "Point",
        "coordinates": [
          -75.243077,
          39.919361
        ]
      },
      "properties": {
        "id": 219,
        "name": "Woodland Av & 71st St",
        "line": "PhillySEPTAT4"
      },
      "id": 219
    },
    {
      "type": "Feature",
      "geometry": {
        "type": "Point",
        "coordinates": [
          -75.24148,
          39.920483
        ]
      },
      "properties": {
        "id": 220,
        "name": "Woodland Av & 70th St",
        "line": "PhillySEPTAT4"
      },
      "id": 220
    },
    {
      "type": "Feature",
      "geometry": {
        "type": "Point",
        "coordinates": [
          -75.240097,
          39.921463
        ]
      },
      "properties": {
        "id": 221,
        "name": "Woodland Av & 69th St",
        "line": "PhillySEPTAT4"
      },
      "id": 221
    },
    {
      "type": "Feature",
      "geometry": {
        "type": "Point",
        "coordinates": [
          -75.238441,
          39.922621
        ]
      },
      "properties": {
        "id": 222,
        "name": "Woodland Av & 68th St",
        "line": "PhillySEPTAT4"
      },
      "id": 222
    },
    {
      "type": "Feature",
      "geometry": {
        "type": "Point",
        "coordinates": [
          -75.236927,
          39.923689
        ]
      },
      "properties": {
        "id": 223,
        "name": "Woodland Av & 67th St",
        "line": "PhillySEPTAT4"
      },
      "id": 223
    },
    {
      "type": "Feature",
      "geometry": {
        "type": "Point",
        "coordinates": [
          -75.235614,
          39.924615
        ]
      },
      "properties": {
        "id": 224,
        "name": "Woodland Av & 66th St",
        "line": "PhillySEPTAT4"
      },
      "id": 224
    },
    {
      "type": "Feature",
      "geometry": {
        "type": "Point",
        "coordinates": [
          -75.234396,
          39.925479
        ]
      },
      "properties": {
        "id": 225,
        "name": "Woodland Av & 65th St",
        "line": "PhillySEPTAT4"
      },
      "id": 225
    },
    {
      "type": "Feature",
      "geometry": {
        "type": "Point",
        "coordinates": [
          -75.233142,
          39.926352
        ]
      },
      "properties": {
        "id": 226,
        "name": "Woodland Av & 64th St",
        "line": "PhillySEPTAT4"
      },
      "id": 226
    },
    {
      "type": "Feature",
      "geometry": {
        "type": "Point",
        "coordinates": [
          -75.231782,
          39.927314
        ]
      },
      "properties": {
        "id": 227,
        "name": "Woodland Av & 63rd St",
        "line": "PhillySEPTAT4"
      },
      "id": 227
    },
    {
      "type": "Feature",
      "geometry": {
        "type": "Point",
        "coordinates": [
          -75.230765,
          39.928017
        ]
      },
      "properties": {
        "id": 228,
        "name": "Woodland Av & 62nd St",
        "line": "PhillySEPTAT4"
      },
      "id": 228
    },
    {
      "type": "Feature",
      "geometry": {
        "type": "Point",
        "coordinates": [
          -75.229287,
          39.929041
        ]
      },
      "properties": {
        "id": 229,
        "name": "Woodland Av & 61st St",
        "line": "PhillySEPTAT4"
      },
      "id": 229
    },
    {
      "type": "Feature",
      "geometry": {
        "type": "Point",
        "coordinates": [
          -75.227642,
          39.930217
        ]
      },
      "properties": {
        "id": 230,
        "name": "Woodland Av & 60th St",
        "line": "PhillySEPTAT4"
      },
      "id": 230
    },
    {
      "type": "Feature",
      "geometry": {
        "type": "Point",
        "coordinates": [
          -75.224673,
          39.932309
        ]
      },
      "properties": {
        "id": 231,
        "name": "Woodland Av & 58th St",
        "line": "PhillySEPTAT4"
      },
      "id": 231
    },
    {
      "type": "Feature",
      "geometry": {
        "type": "Point",
        "coordinates": [
          -75.223289,
          39.933297
        ]
      },
      "properties": {
        "id": 232,
        "name": "Woodland Av & 57th St",
        "line": "PhillySEPTAT4"
      },
      "id": 232
    },
    {
      "type": "Feature",
      "geometry": {
        "type": "Point",
        "coordinates": [
          -75.22181,
          39.934339
        ]
      },
      "properties": {
        "id": 233,
        "name": "Woodland Av & 56th St",
        "line": "PhillySEPTAT4"
      },
      "id": 233
    },
    {
      "type": "Feature",
      "geometry": {
        "type": "Point",
        "coordinates": [
          -75.22045,
          39.935292
        ]
      },
      "properties": {
        "id": 234,
        "name": "Woodland Av & 55th St",
        "line": "PhillySEPTAT4"
      },
      "id": 234
    },
    {
      "type": "Feature",
      "geometry": {
        "type": "Point",
        "coordinates": [
          -75.219054,
          39.936262
        ]
      },
      "properties": {
        "id": 235,
        "name": "Woodland Av & 54th St",
        "line": "PhillySEPTAT4"
      },
      "id": 235
    },
    {
      "type": "Feature",
      "geometry": {
        "type": "Point",
        "coordinates": [
          -75.217681,
          39.937242
        ]
      },
      "properties": {
        "id": 236,
        "name": "Woodland Av & 53rd St",
        "line": "PhillySEPTAT4"
      },
      "id": 236
    },
    {
      "type": "Feature",
      "geometry": {
        "type": "Point",
        "coordinates": [
          -75.216297,
          39.938203
        ]
      },
      "properties": {
        "id": 237,
        "name": "Woodland Av & 52nd St",
        "line": "PhillySEPTAT4"
      },
      "id": 237
    },
    {
      "type": "Feature",
      "geometry": {
        "type": "Point",
        "coordinates": [
          -75.215197,
          39.938987
        ]
      },
      "properties": {
        "id": 238,
        "name": "Woodland Av & 51st St",
        "line": "PhillySEPTAT4"
      },
      "id": 238
    },
    {
      "type": "Feature",
      "geometry": {
        "type": "Point",
        "coordinates": [
          -75.213907,
          39.939886
        ]
      },
      "properties": {
        "id": 239,
        "name": "Woodland Av & 50th St",
        "line": "PhillySEPTAT4"
      },
      "id": 239
    },
    {
      "type": "Feature",
      "geometry": {
        "type": "Point",
        "coordinates": [
          -75.212665,
          39.940767
        ]
      },
      "properties": {
        "id": 240,
        "name": "Woodland Av & 49th St",
        "line": "PhillySEPTAT4"
      },
      "id": 240
    },
    {
      "type": "Feature",
      "geometry": {
        "type": "Point",
        "coordinates": [
          -75.211728,
          39.941953
        ]
      },
      "properties": {
        "id": 241,
        "name": "Woodland Av & 48th St",
        "line": "PhillySEPTAT4"
      },
      "id": 241
    },
    {
      "type": "Feature",
      "geometry": {
        "type": "Point",
        "coordinates": [
          -75.210839,
          39.943245
        ]
      },
      "properties": {
        "id": 242,
        "name": "Woodland Av & 47th St",
        "line": "PhillySEPTAT4"
      },
      "id": 242
    },
    {
      "type": "Feature",
      "geometry": {
        "type": "Point",
        "coordinates": [
          -75.209797,
          39.944323
        ]
      },
      "properties": {
        "id": 243,
        "name": "Woodland Av & 46th St",
        "line": "PhillySEPTAT4"
      },
      "id": 243
    },
    {
      "type": "Feature",
      "geometry": {
        "type": "Point",
        "coordinates": [
          -75.208565,
          39.94541
        ]
      },
      "properties": {
        "id": 244,
        "name": "Woodland Av & 45th St",
        "line": "PhillySEPTAT4"
      },
      "id": 244
    },
    {
      "type": "Feature",
      "geometry": {
        "type": "Point",
        "coordinates": [
          -75.207121,
          39.946675
        ]
      },
      "properties": {
        "id": 245,
        "name": "Woodland Av & 42nd St",
        "line": "PhillySEPTAT4"
      },
      "id": 245
    },
    {
      "type": "Feature",
      "geometry": {
        "type": "Point",
        "coordinates": [
          -75.203333,
          39.949533
        ]
      },
      "properties": {
        "id": 246,
        "name": "40th St Portal",
        "line": "PhillySEPTAT4"
      },
      "id": 246
    },
    {
      "type": "Feature",
      "geometry": {
        "type": "Point",
        "coordinates": [
          -75.202021,
          39.957259
        ]
      },
      "properties": {
        "id": 247,
        "name": "40th-Market",
        "line": "PhillySEPTAT4"
      },
      "id": 247
    },
    {
      "type": "Feature",
      "geometry": {
        "type": "Point",
        "coordinates": [
          -75.196586,
          39.950993
        ]
      },
      "properties": {
        "id": 248,
        "name": "37th-Spruce",
        "line": "PhillySEPTAT4"
      },
      "id": 248
    },
    {
      "type": "Feature",
      "geometry": {
        "type": "Point",
        "coordinates": [
          -75.194533,
          39.953854
        ]
      },
      "properties": {
        "id": 249,
        "name": "36th-Sansom",
        "line": "PhillySEPTAT4"
      },
      "id": 249
    },
    {
      "type": "Feature",
      "geometry": {
        "type": "Point",
        "coordinates": [
          -75.189523,
          39.954782
        ]
      },
      "properties": {
        "id": 250,
        "name": "33rd St",
        "line": "PhillySEPTAT4"
      },
      "id": 250
    },
    {
      "type": "Feature",
      "geometry": {
        "type": "Point",
        "coordinates": [
          -75.1835,
          39.954815
        ]
      },
      "properties": {
        "id": 251,
        "name": "Drexel Station at 30th St",
        "line": "PhillySEPTAT4",
        "alternate_names": [
          "30th St",
          "30 St",
          "30th Street"
        ]
      },
      "id": 251
    },
    {
      "type": "Feature",
      "geometry": {
        "type": "Point",
        "coordinates": [
          -75.176736,
          39.953962
        ]
      },
      "properties": {
        "id": 252,
        "name": "22nd St",
        "line": "PhillySEPTAT4"
      },
      "id": 252
    },
    {
      "type": "Feature",
      "geometry": {
        "type": "Point",
        "coordinates": [
          -75.171637,
          39.953327
        ]
      },
      "properties": {
        "id": 253,
        "name": "19th St",
        "line": "PhillySEPTAT4"
      },
      "id": 253
    },
    {
      "type": "Feature",
      "geometry": {
        "type": "Point",
        "coordinates": [
          -75.165369,
          39.952502
        ]
      },
      "properties": {
        "id": 254,
        "name": "15th St/City Hall",
        "line": "PhillySEPTAT4",
        "alternate_names": [
          "City Hall",
          "15th Street"
        ]
      },
      "id": 254
    },
    {
      "type": "Feature",
      "geometry": {
        "type": "Point",
        "coordinates": [
          -75.162559,
          39.952532
        ]
      },
      "properties": {
        "id": 255,
        "name": "13th St",
        "line": "PhillySEPTAT4"
      },
      "id": 255
    },
    {
      "type": "Feature",
      "geometry": {
        "type": "Point",
        "coordinates": [
          -75.23926,
          39.898748
        ]
      },
      "properties": {
        "id": 256,
        "name": "80th St/Eastwick",
        "line": "PhillySEPTAT5"
      },
      "id": 256
    },
    {
      "type": "Feature",
      "geometry": {
        "type": "Point",
        "coordinates": [
          -75.23927,
          39.899471
        ]
      },
      "properties": {
        "id": 257,
        "name": "Island Av & Suffolk Av - M",
        "line": "PhillySEPTAT5"
      },
      "id": 257
    },
    {
      "type": "Feature",
      "geometry": {
        "type": "Point",
        "coordinates": [
          -75.240461,
          39.904257
        ]
      },
      "properties": {
        "id": 258,
        "name": "Island Av & Lindbergh Blvd",
        "line": "PhillySEPTAT5"
      },
      "id": 258
    },
    {
      "type": "Feature",
      "geometry": {
        "type": "Point",
        "coordinates": [
          -75.241432,
          39.907284
        ]
      },
      "properties": {
        "id": 259,
        "name": "Island Av & 76th St",
        "line": "PhillySEPTAT5"
      },
      "id": 259
    },
    {
      "type": "Feature",
      "geometry": {
        "type": "Point",
        "coordinates": [
          -75.242029,
          39.90915
        ]
      },
      "properties": {
        "id": 260,
        "name": "Island Av & Tanager St - F",
        "line": "PhillySEPTAT5"
      },
      "id": 260
    },
    {
      "type": "Feature",
      "geometry": {
        "type": "Point",
        "coordinates": [
          -75.242661,
          39.911186
        ]
      },
      "properties": {
        "id": 261,
        "name": "Island Av & Buist Av",
        "line": "PhillySEPTAT5"
      },
      "id": 261
    },
    {
      "type": "Feature",
      "geometry": {
        "type": "Point",
        "coordinates": [
          -75.242998,
          39.913266
        ]
      },
      "properties": {
        "id": 262,
        "name": "Elmwood Av & Island Av - M",
        "line": "PhillySEPTAT5"
      },
      "id": 262
    },
    {
      "type": "Feature",
      "geometry": {
        "type": "Point",
        "coordinates": [
          -75.242642,
          39.914015
        ]
      },
      "properties": {
        "id": 263,
        "name": "Elmwood Loop",
        "line": "PhillySEPTAT5"
      },
      "id": 263
    },
    {
      "type": "Feature",
      "geometry": {
        "type": "Point",
        "coordinates": [
          -75.241816,
          39.914129
        ]
      },
      "properties": {
        "id": 264,
        "name": "Elmwood Av & 73rd St",
        "line": "PhillySEPTAT5"
      },
      "id": 264
    },
    {
      "type": "Feature",
      "geometry": {
        "type": "Point",
        "coordinates": [
          -75.240408,
          39.9151
        ]
      },
      "properties": {
        "id": 265,
        "name": "Elmwood Av & 72nd St",
        "line": "PhillySEPTAT5"
      },
      "id": 265
    },
    {
      "type": "Feature",
      "geometry": {
        "type": "Point",
        "coordinates": [
          -75.239013,
          39.91608
        ]
      },
      "properties": {
        "id": 266,
        "name": "Elmwood Av & 71st St",
        "line": "PhillySEPTAT5"
      },
      "id": 266
    },
    {
      "type": "Feature",
      "geometry": {
        "type": "Point",
        "coordinates": [
          -75.237452,
          39.91713
        ]
      },
      "properties": {
        "id": 267,
        "name": "Elmwood Av & 70th St",
        "line": "PhillySEPTAT5"
      },
      "id": 267
    },
    {
      "type": "Feature",
      "geometry": {
        "type": "Point",
        "coordinates": [
          -75.236081,
          39.918101
        ]
      },
      "properties": {
        "id": 268,
        "name": "Elmwood Av & 69th St",
        "line": "PhillySEPTAT5"
      },
      "id": 268
    },
    {
      "type": "Feature",
      "geometry": {
        "type": "Point",
        "coordinates": [
          -75.234425,
          39.91925
        ]
      },
      "properties": {
        "id": 269,
        "name": "Elmwood Av & 68th St",
        "line": "PhillySEPTAT5"
      },
      "id": 269
    },
    {
      "type": "Feature",
      "geometry": {
        "type": "Point",
        "coordinates": [
          -75.232911,
          39.920327
        ]
      },
      "properties": {
        "id": 270,
        "name": "Elmwood Av & 67th St",
        "line": "PhillySEPTAT5"
      },
      "id": 270
    },
    {
      "type": "Feature",
      "geometry": {
        "type": "Point",
        "coordinates": [
          -75.231587,
          39.921236
        ]
      },
      "properties": {
        "id": 271,
        "name": "Elmwood Av & 66th St",
        "line": "PhillySEPTAT5"
      },
      "id": 271
    },
    {
      "type": "Feature",
      "geometry": {
        "type": "Point",
        "coordinates": [
          -75.230404,
          39.922082
        ]
      },
      "properties": {
        "id": 272,
        "name": "Elmwood Av & 65th St",
        "line": "PhillySEPTAT5"
      },
      "id": 272
    },
    {
      "type": "Feature",
      "geometry": {
        "type": "Point",
        "coordinates": [
          -75.229126,
          39.922972
        ]
      },
      "properties": {
        "id": 273,
        "name": "Elmwood Av & 64th St",
        "line": "PhillySEPTAT5"
      },
      "id": 273
    },
    {
      "type": "Feature",
      "geometry": {
        "type": "Point",
        "coordinates": [
          -75.227778,
          39.923934
        ]
      },
      "properties": {
        "id": 274,
        "name": "Elmwood Av & 63rd St",
        "line": "PhillySEPTAT5"
      },
      "id": 274
    },
    {
      "type": "Feature",
      "geometry": {
        "type": "Point",
        "coordinates": [
          -75.22656,
          39.924842
        ]
      },
      "properties": {
        "id": 275,
        "name": "Elmwood Av & 62nd St",
        "line": "PhillySEPTAT5"
      },
      "id": 275
    },
    {
      "type": "Feature",
      "geometry": {
        "type": "Point",
        "coordinates": [
          -75.224868,
          39.926044
        ]
      },
      "properties": {
        "id": 276,
        "name": "Elmwood Av & 61st St",
        "line": "PhillySEPTAT5"
      },
      "id": 276
    },
    {
      "type": "Feature",
      "geometry": {
        "type": "Point",
        "coordinates": [
          -75.221994,
          39.928039
        ]
      },
      "properties": {
        "id": 277,
        "name": "Elmwood Av & 59th St",
        "line": "PhillySEPTAT5"
      },
      "id": 277
    },
    {
      "type": "Feature",
      "geometry": {
        "type": "Point",
        "coordinates": [
          -75.220586,
          39.928964
        ]
      },
      "properties": {
        "id": 278,
        "name": "Elmwood Av & 58th St",
        "line": "PhillySEPTAT5"
      },
      "id": 278
    },
    {
      "type": "Feature",
      "geometry": {
        "type": "Point",
        "coordinates": [
          -75.219226,
          39.929935
        ]
      },
      "properties": {
        "id": 279,
        "name": "Elmwood Av & 57th St",
        "line": "PhillySEPTAT5"
      },
      "id": 279
    },
    {
      "type": "Feature",
      "geometry": {
        "type": "Point",
        "coordinates": [
          -75.217747,
          39.930986
        ]
      },
      "properties": {
        "id": 280,
        "name": "Elmwood Av & 56th St",
        "line": "PhillySEPTAT5"
      },
      "id": 280
    },
    {
      "type": "Feature",
      "geometry": {
        "type": "Point",
        "coordinates": [
          -75.216232,
          39.932402
        ]
      },
      "properties": {
        "id": 281,
        "name": "Lindbergh Blvd & Wheeler S",
        "line": "PhillySEPTAT5"
      },
      "id": 281
    },
    {
      "type": "Feature",
      "geometry": {
        "type": "Point",
        "coordinates": [
          -75.215532,
          39.9334
        ]
      },
      "properties": {
        "id": 282,
        "name": "Lindbergh Blvd & 54th St",
        "line": "PhillySEPTAT5"
      },
      "id": 282
    },
    {
      "type": "Feature",
      "geometry": {
        "type": "Point",
        "coordinates": [
          -75.214358,
          39.935121
        ]
      },
      "properties": {
        "id": 283,
        "name": "Lindbergh Blvd & 53rd St",
        "line": "PhillySEPTAT5"
      },
      "id": 283
    },
    {
      "type": "Feature",
      "geometry": {
        "type": "Point",
        "coordinates": [
          -75.212251,
          39.936991
        ]
      },
      "properties": {
        "id": 284,
        "name": "Grays Av & 51st St",
        "line": "PhillySEPTAT5"
      },
      "id": 284
    },
    {
      "type": "Feature",
      "geometry": {
        "type": "Point",
        "coordinates": [
          -75.211286,
          39.939819
        ]
      },
      "properties": {
        "id": 285,
        "name": "49th St & Paschall Av",
        "line": "PhillySEPTAT5"
      },
      "id": 285
    },
    {
      "type": "Feature",
      "geometry": {
        "type": "Point",
        "coordinates": [
          -75.212429,
          39.940794
        ]
      },
      "properties": {
        "id": 286,
        "name": "49th St & Woodland Av",
        "line": "PhillySEPTAT5"
      },
      "id": 286
    },
    {
      "type": "Feature",
      "geometry": {
        "type": "Point",
        "coordinates": [
          -75.211728,
          39.941953
        ]
      },
      "properties": {
        "id": 287,
        "name": "Woodland Av & 48th St",
        "line": "PhillySEPTAT5"
      },
      "id": 287
    },
    {
      "type": "Feature",
      "geometry": {
        "type": "Point",
        "coordinates": [
          -75.209797,
          39.944323
        ]
      },
      "properties": {
        "id": 288,
        "name": "Woodland Av & 46th St",
        "line": "PhillySEPTAT5"
      },
      "id": 288
    },
    {
      "type": "Feature",
      "geometry": {
        "type": "Point",
        "coordinates": [
          -75.208565,
          39.94541
        ]
      },
      "properties": {
        "id": 289,
        "name": "Woodland Av & 45th St",
        "line": "PhillySEPTAT5"
      },
      "id": 289
    },
    {
      "type": "Feature",
      "geometry": {
        "type": "Point",
        "coordinates": [
          -75.207121,
          39.946675
        ]
      },
      "properties": {
        "id": 290,
        "name": "Woodland Av & 42nd St",
        "line": "PhillySEPTAT5"
      },
      "id": 290
    },
    {
      "type": "Feature",
      "geometry": {
        "type": "Point",
        "coordinates": [
          -75.203333,
          39.949533
        ]
      },
      "properties": {
        "id": 291,
        "name": "40th St Portal",
        "line": "PhillySEPTAT5"
      },
      "id": 291
    },
    {
      "type": "Feature",
      "geometry": {
        "type": "Point",
        "coordinates": [
          -75.202021,
          39.957259
        ]
      },
      "properties": {
        "id": 292,
        "name": "40th-Market",
        "line": "PhillySEPTAT5"
      },
      "id": 292
    },
    {
      "type": "Feature",
      "geometry": {
        "type": "Point",
        "coordinates": [
          -75.196586,
          39.950993
        ]
      },
      "properties": {
        "id": 293,
        "name": "37th-Spruce",
        "line": "PhillySEPTAT5"
      },
      "id": 293
    },
    {
      "type": "Feature",
      "geometry": {
        "type": "Point",
        "coordinates": [
          -75.194533,
          39.953854
        ]
      },
      "properties": {
        "id": 294,
        "name": "36th-Sansom",
        "line": "PhillySEPTAT5"
      },
      "id": 294
    },
    {
      "type": "Feature",
      "geometry": {
        "type": "Point",
        "coordinates": [
          -75.189523,
          39.954782
        ]
      },
      "properties": {
        "id": 295,
        "name": "33rd St",
        "line": "PhillySEPTAT5"
      },
      "id": 295
    },
    {
      "type": "Feature",
      "geometry": {
        "type": "Point",
        "coordinates": [
          -75.1835,
          39.954815
        ]
      },
      "properties": {
        "id": 296,
        "name": "Drexel Station at 30th St",
        "line": "PhillySEPTAT5",
        "alternate_names": [
          "30th St",
          "30 St",
          "30th Street"
        ]
      },
      "id": 296
    },
    {
      "type": "Feature",
      "geometry": {
        "type": "Point",
        "coordinates": [
          -75.176736,
          39.953962
        ]
      },
      "properties": {
        "id": 297,
        "name": "22nd St",
        "line": "PhillySEPTAT5"
      },
      "id": 297
    },
    {
      "type": "Feature",
      "geometry": {
        "type": "Point",
        "coordinates": [
          -75.171637,
          39.953327
        ]
      },
      "properties": {
        "id": 298,
        "name": "19th St",
        "line": "PhillySEPTAT5"
      },
      "id": 298
    },
    {
      "type": "Feature",
      "geometry": {
        "type": "Point",
        "coordinates": [
          -75.165369,
          39.952502
        ]
      },
      "properties": {
        "id": 299,
        "name": "15th St/City Hall",
        "line": "PhillySEPTAT5",
        "alternate_names": [
          "City Hall",
          "15th Street"
        ]
      },
      "id": 299
    },
    {
      "type": "Feature",
      "geometry": {
        "type": "Point",
        "coordinates": [
          -75.162559,
          39.952532
        ]
      },
      "properties": {
        "id": 300,
        "name": "13th St",
        "line": "PhillySEPTAT5"
      },
      "id": 300
    },
    {
      "type": "Feature",
      "geometry": {
        "type": "Point",
        "coordinates": [
          -75.393998,
          39.918478
        ]
      },
      "properties": {
        "id": 301,
        "name": "Orange St/Media",
        "line": "PhillySEPTAD1"
      },
      "id": 301
    },
    {
      "type": "Feature",
      "geometry": {
        "type": "Point",
        "coordinates": [
          -75.392145,
          39.918209
        ]
      },
      "properties": {
        "id": 302,
        "name": "Veterans Sq",
        "line": "PhillySEPTAD1"
      },
      "id": 302
    },
    {
      "type": "Feature",
      "geometry": {
        "type": "Point",
        "coordinates": [
          -75.391165,
          39.918066
        ]
      },
      "properties": {
        "id": 303,
        "name": "Olive St",
        "line": "PhillySEPTAD1"
      },
      "id": 303
    },
    {
      "type": "Feature",
      "geometry": {
        "type": "Point",
        "coordinates": [
          -75.389584,
          39.917843
        ]
      },
      "properties": {
        "id": 304,
        "name": "Jackson St",
        "line": "PhillySEPTAD1"
      },
      "id": 304
    },
    {
      "type": "Feature",
      "geometry": {
        "type": "Point",
        "coordinates": [
          -75.387766,
          39.917592
        ]
      },
      "properties": {
        "id": 305,
        "name": "Monroe St",
        "line": "PhillySEPTAD1"
      },
      "id": 305
    },
    {
      "type": "Feature",
      "geometry": {
        "type": "Point",
        "coordinates": [
          -75.385772,
          39.917333
        ]
      },
      "properties": {
        "id": 306,
        "name": "Edgmont St",
        "line": "PhillySEPTAD1"
      },
      "id": 306
    },
    {
      "type": "Feature",
      "geometry": {
        "type": "Point",
        "coordinates": [
          -75.382998,
          39.91693
        ]
      },
      "properties": {
        "id": 307,
        "name": "Manchester Av",
        "line": "PhillySEPTAD1"
      },
      "id": 307
    },
    {
      "type": "Feature",
      "geometry": {
        "type": "Point",
        "coordinates": [
          -75.380614,
          39.916626
        ]
      },
      "properties": {
        "id": 308,
        "name": "Providence Rd",
        "line": "PhillySEPTAD1"
      },
      "id": 308
    },
    {
      "type": "Feature",
      "geometry": {
        "type": "Point",
        "coordinates": [
          -75.376861,
          39.916071
        ]
      },
      "properties": {
        "id": 309,
        "name": "Beatty Rd",
        "line": "PhillySEPTAD1"
      },
      "id": 309
    },
    {
      "type": "Feature",
      "geometry": {
        "type": "Point",
        "coordinates": [
          -75.369922,
          39.914872
        ]
      },
      "properties": {
        "id": 310,
        "name": "Pine Ridge",
        "line": "PhillySEPTAD1"
      },
      "id": 310
    },
    {
      "type": "Feature",
      "geometry": {
        "type": "Point",
        "coordinates": [
          -75.357953,
          39.915276
        ]
      },
      "properties": {
        "id": 311,
        "name": "Paper Mill Rd",
        "line": "PhillySEPTAD1"
      },
      "id": 311
    },
    {
      "type": "Feature",
      "geometry": {
        "type": "Point",
        "coordinates": [
          -75.348992,
          39.918011
        ]
      },
      "properties": {
        "id": 312,
        "name": "Springfield Mall",
        "line": "PhillySEPTAD1"
      },
      "id": 312
    },
    {
      "type": "Feature",
      "geometry": {
        "type": "Point",
        "coordinates": [
          -75.345353,
          39.921167
        ]
      },
      "properties": {
        "id": 313,
        "name": "Thomson Av",
        "line": "PhillySEPTAD1"
      },
      "id": 313
    },
    {
      "type": "Feature",
      "geometry": {
        "type": "Point",
        "coordinates": [
          -75.339659,
          39.924617
        ]
      },
      "properties": {
        "id": 314,
        "name": "Woodland Av",
        "line": "PhillySEPTAD1"
      },
      "id": 314
    },
    {
      "type": "Feature",
      "geometry": {
        "type": "Point",
        "coordinates": [
          -75.337154,
          39.926267
        ]
      },
      "properties": {
        "id": 315,
        "name": "Leamy Av",
        "line": "PhillySEPTAD1"
      },
      "id": 315
    },
    {
      "type": "Feature",
      "geometry": {
        "type": "Point",
        "coordinates": [
          -75.333515,
          39.928665
        ]
      },
      "properties": {
        "id": 316,
        "name": "Saxer Av",
        "line": "PhillySEPTAD1"
      },
      "id": 316
    },
    {
      "type": "Feature",
      "geometry": {
        "type": "Point",
        "coordinates": [
          -75.329458,
          39.934409
        ]
      },
      "properties": {
        "id": 317,
        "name": "Springfield Rd",
        "line": "PhillySEPTAD1"
      },
      "id": 317
    },
    {
      "type": "Feature",
      "geometry": {
        "type": "Point",
        "coordinates": [
          -75.325872,
          39.940734
        ]
      },
      "properties": {
        "id": 318,
        "name": "Scenic Rd",
        "line": "PhillySEPTAD1"
      },
      "id": 318
    },
    {
      "type": "Feature",
      "geometry": {
        "type": "Point",
        "coordinates": [
          -75.321592,
          39.944559
        ]
      },
      "properties": {
        "id": 319,
        "name": "Drexeline",
        "line": "PhillySEPTAD1"
      },
      "id": 319
    },
    {
      "type": "Feature",
      "geometry": {
        "type": "Point",
        "coordinates": [
          -75.315955,
          39.947106
        ]
      },
      "properties": {
        "id": 320,
        "name": "Drexelbrook",
        "line": "PhillySEPTAD1"
      },
      "id": 320
    },
    {
      "type": "Feature",
      "geometry": {
        "type": "Point",
        "coordinates": [
          -75.312636,
          39.947826
        ]
      },
      "properties": {
        "id": 321,
        "name": "Anderson Av",
        "line": "PhillySEPTAD1"
      },
      "id": 321
    },
    {
      "type": "Feature",
      "geometry": {
        "type": "Point",
        "coordinates": [
          -75.306033,
          39.949203
        ]
      },
      "properties": {
        "id": 322,
        "name": "Aronimink",
        "line": "PhillySEPTAD1"
      },
      "id": 322
    },
    {
      "type": "Feature",
      "geometry": {
        "type": "Point",
        "coordinates": [
          -75.29987,
          39.94859
        ]
      },