{
  "type": "FeatureCollection",
  "features": [
    {
      "type": "Feature",
      "geometry": {
        "type": "Point",
        "coordinates": [
          139.682893,
          35.697012
        ]
      },
      "properties": {
        "id": 1,
        "name": "Nakano-sakaue (中野坂上)",
        "alternate_names": [
          "中野坂上",
          "nakano sakaue"
        ],
        "line": "TokyoMetroM",
        "order": 0,
        "display_name": "Nakano-sakaue (中野坂上)"
      },
      "id": 1
    },
    {
      "type": "Feature",
      "geometry": {
        "type": "Point",
        "coordinates": [
          139.682205,
          35.697085
        ]
      },
      "properties": {
        "id": 46,
        "name": "Nakano-sakaue (中野坂上)",
        "alternate_names": [
          "中野坂上",
          "nakano sakaue"
        ],
        "line": "TokyoMetroMb",
        "order": 0,
        "display_name": "Nakano-sakaue (中野坂上)"
      },
      "id": 46
    },
    {
      "type": "Feature",
      "geometry": {
        "type": "Point",
        "coordinates": [
          139.70253,
          35.65911
        ]
      },
      "properties": {
        "id": 50,
        "name": "Shibuya (渋谷)",
        "alternate_names": [
          "渋谷",
          "shibuya"
        ],
        "line": "TokyoMetroF",
        "order": 0,
        "display_name": "Shibuya (渋谷)"
      },
      "id": 50
    },
    {
      "type": "Feature",
      "geometry": {
        "type": "Point",
        "coordinates": [
          139.832146,
          35.776889
        ]
      },
      "properties": {
        "id": 66,
        "name": "Kita-ayase (北綾瀬)",
        "alternate_names": [
          "北綾瀬",
          "kita ayase"
        ],
        "line": "TokyoMetroC",
        "order": 0,
        "display_name": "Kita-ayase (北綾瀬)"
      },
      "id": 66
    },
    {
      "type": "Feature",
      "geometry": {
        "type": "Point",
        "coordinates": [
          139.813807,
          35.708478
        ]
      },
      "properties": {
        "id": 86,
        "name": "Oshiage (押上)",
        "alternate_names": [
          "押上",
          "スカイツリー前",
          "oshiage"
        ],
        "line": "TokyoMetroZ",
        "order": 0,
        "display_name": "Oshiage (押上)"
      },
      "id": 86
    },
    {
      "type": "Feature",
      "geometry": {
        "type": "Point",
        "coordinates": [
          139.722138,
          35.783442
        ]
      },
      "properties": {
        "id": 100,
        "name": "Akabane-iwabuchi (赤羽岩淵)",
        "alternate_names": [
          "赤羽岩淵",
          "akabane iwabuchi"
        ],
        "line": "TokyoMetroN",
        "order": 0,
        "display_name": "Akabane-iwabuchi (赤羽岩淵)"
      },
      "id": 100
    },
    {
      "type": "Feature",
      "geometry": {
        "type": "Point",
        "coordinates": [
          139.80547,
          35.74925
        ]
      },
      "properties": {
        "id": 119,
        "name": "Kita-senju (北千住)",
        "alternate_names": [
          "北千住",
          "kita senju"
        ],
        "line": "TokyoMetroH",
        "order": 0,
        "display_name": "Kita-senju (北千住)"
      },
      "id": 119
    },
    {
      "type": "Feature",
      "geometry": {
        "type": "Point",
        "coordinates": [
          139.82658,
          35.64597
        ]
      },
      "properties": {
        "id": 141,
        "name": "Shin-kiba (新木場)",
        "alternate_names": [
          "新木場",
          "shin kiba"
        ],
        "line": "TokyoMetroY",
        "order": 0,
        "display_name": "Shin-kiba (新木場)"
      },
      "id": 141
    },
    {
      "type": "Feature",
      "geometry": {
        "type": "Point",
        "coordinates": [
          139.665602,
          35.70581
        ]
      },
      "properties": {
        "id": 165,
        "name": "Nakano (中野)",
        "alternate_names": [
          "中野",
          "nakano"
        ],
        "line": "TokyoMetroT",
        "order": 0,
        "display_name": "Nakano (中野)"
      },
      "id": 165
    },
    {
      "type": "Feature",
      "geometry": {
        "type": "Point",
        "coordinates": [
          139.797035,
          35.709565
        ]
      },
      "properties": {
        "id": 188,
        "name": "Asakusa (浅草)",
        "alternate_names": [
          "浅草",
          "asakusa"
        ],
        "line": "TokyoMetroG",
        "order": 0,
        "display_name": "Asakusa (浅草)"
      },
      "id": 188
    },
    {
      "type": "Feature",
      "geometry": {
        "type": "Point",
        "coordinates": [
          139.715626,
          35.633853
        ]
      },
      "properties": {
        "id": 207,
        "name": "Meguro (目黒)",
        "alternate_names": [
          "目黒",
          "meguro"
        ],
        "line": "ToeiSubwayI",
        "order": 0,
        "display_name": "Meguro (目黒)"
      },
      "id": 207
    },
    {
      "type": "Feature",
      "geometry": {
        "type": "Point",
        "coordinates": [
          139.629412,
          35.758485
        ]
      },
      "properties": {
        "id": 234,
        "name": "Hikarigaoka (光が丘)",
        "alternate_names": [
          "光が丘",
          "hikarigaoka"
        ],
        "line": "ToeiSubwayE",
        "order": 0,
        "display_name": "Hikarigaoka (光が丘)"
      },
      "id": 234
    },
    {
      "type": "Feature",
      "geometry": {
        "type": "Point",
        "coordinates": [
          139.926603,
          35.722765
        ]
      },
      "properties": {
        "id": 273,
        "name": "Motoyawata (本八幡)",
        "alternate_names": [
          "本八幡",
          "motoyawata"
        ],
        "line": "ToeiSubwayS",
        "order": 0,
        "display_name": "Motoyawata (本八幡)"
      },
      "id": 273
    },
    {
      "type": "Feature",
      "geometry": {
        "type": "Point",
        "coordinates": [
          139.706258,
          35.587265
        ]
      },
      "properties": {
        "id": 294,
        "name": "Nishi-magome (西馬込)",
        "alternate_names": [
          "西馬込",
          "nishi magome"
        ],
        "line": "ToeiSubwayA",
        "order": 0,
        "display_name": "Nishi-magome (西馬込)"
      },
      "id": 294
    },
    {
      "type": "Feature",
      "geometry": {
        "type": "Point",
        "coordinates": [
          139.699226,
          35.693381
        ]
      },
      "properties": {
        "id": 271,
        "name": "Shinjuku-nishiguchi (新宿西口)",
        "alternate_names": [
          "新宿西口",
          "shinjuku nishiguchi"
        ],
        "line": "ToeiSubwayE",
        "order": 395,
        "display_name": "Shinjuku-nishiguchi (新宿西口)"
      },
      "id": 271
    },
    {
      "type": "Feature",
      "geometry": {
        "type": "Point",
        "coordinates": [
          139.707421,
          35.697897
        ]
      },
      "properties": {
        "id": 270,
        "name": "Higashi-shinjuku (東新宿)",
        "alternate_names": [
          "東新宿",
          "higashi shinjuku"
        ],
        "line": "ToeiSubwayE",
        "order": 380,
        "display_name": "Higashi-shinjuku (東新宿)"
      },
      "id": 270
    },
    {
      "type": "Feature",
      "geometry": {
        "type": "Point",
        "coordinates": [
          139.718087,
          35.699092
        ]
      },
      "properties": {
        "id": 269,
        "name": "Wakamatsu-kawada (若松河田)",
        "alternate_names": [
          "若松河田",
          "wakamatsu kawada"
        ],
        "line": "ToeiSubwayE",
        "order": 369,
        "display_name": "Wakamatsu-kawada (若松河田)"
      },
      "id": 269
    },
    {
      "type": "Feature",
      "geometry": {
        "type": "Point",
        "coordinates": [
          139.725032,
          35.699446
        ]
      },
      "properties": {
        "id": 268,
        "name": "Ushigome-yanagicho (牛込柳町)",
        "alternate_names": [
          "牛込柳町",
          "ushigome yanagicho"
        ],
        "line": "ToeiSubwayE",
        "order": 361,
        "display_name": "Ushigome-yanagicho (牛込柳町)"
      },
      "id": 268
    },
    {
      "type": "Feature",
      "geometry": {
        "type": "Point",
        "coordinates": [
          139.736019,
          35.700816
        ]
      },
      "properties": {
        "id": 267,
        "name": "Ushigome-kagurazaka (牛込神楽坂)",
        "alternate_names": [
          "牛込神楽坂",
          "ushigome kagurazaka"
        ],
        "line": "ToeiSubwayE",
        "order": 348,
        "display_name": "Ushigome-kagurazaka (牛込神楽坂)"
      },
      "id": 267
    },
    {
      "type": "Feature",
      "geometry": {
        "type": "Point",
        "coordinates": [
          139.745319,
          35.70282
        ]
      },
      "properties": {
        "id": 266,
        "name": "Iidabashi (飯田橋)",
        "alternate_names": [
          "飯田橋",
          "iidabashi"
        ],
        "line": "ToeiSubwayE",
        "order": 333,
        "display_name": "Iidabashi (飯田橋)"
      },
      "id": 266
    },
    {
      "type": "Feature",
      "geometry": {
        "type": "Point",
        "coordinates": [
          139.752485,
          35.708437
        ]
      },
      "properties": {
        "id": 265,
        "name": "Kasuga (春日)",
        "alternate_names": [
          "春日",
          "kasuga"
        ],
        "line": "ToeiSubwayE",
        "order": 321,
        "display_name": "Kasuga (春日)"
      },
      "id": 265
    },
    {
      "type": "Feature",
      "geometry": {
        "type": "Point",
        "coordinates": [
          139.760533,
          35.707427
        ]
      },
      "properties": {
        "id": 264,
        "name": "Hongo-sanchome (本郷三丁目)",
        "alternate_names": [
          "本郷三丁目",
          "hongo sanchome"
        ],
        "line": "ToeiSubwayE",
        "order": 310,
        "display_name": "Hongo-sanchome (本郷三丁目)"
      },
      "id": 264
    },
    {
      "type": "Feature",
      "geometry": {
        "type": "Point",
        "coordinates": [
          139.773343,
          35.707893
        ]
      },
      "properties": {
        "id": 263,
        "name": "Ueno-okachimachi (上野御徒町)",
        "alternate_names": [
          "上野御徒町",
          "ueno okachimachi"
        ],
        "line": "ToeiSubwayE",
        "order": 299,
        "display_name": "Ueno-okachimachi (上野御徒町)"
      },
      "id": 263
    },
    {
      "type": "Feature",
      "geometry": {
        "type": "Point",
        "coordinates": [
          139.782155,
          35.706944
        ]
      },
      "properties": {
        "id": 262,
        "name": "Shin-Okachimachi (新御徒町)",
        "alternate_names": [
          "新御徒町",
          "shin okachimachi"
        ],
        "line": "ToeiSubwayE",
        "order": 295,
        "display_name": "Shin-Okachimachi (新御徒町)"
      },
      "id": 262
    },
    {
      "type": "Feature",
      "geometry": {
        "type": "Point",
        "coordinates": [
          139.792224,
          35.705549
        ]
      },
      "properties": {
        "id": 261,
        "name": "Kuramae (蔵前)",
        "alternate_names": [
          "蔵前",
          "kuramae"
        ],
        "line": "ToeiSubwayE",
        "order": 290,
        "display_name": "Kuramae (蔵前)"
      },
      "id": 261
    },
    {
      "type": "Feature",
      "geometry": {
        "type": "Point",
        "coordinates": [
          139.797545,
          35.696812
        ]
      },
      "properties": {
        "id": 260,
        "name": "Ryogoku (両国)",
        "alternate_names": [
          "両国",
          "ryogoku"
        ],
        "line": "ToeiSubwayE",
        "order": 282,
        "display_name": "Ryogoku (両国)"
      },
      "id": 260
    },
    {
      "type": "Feature",
      "geometry": {
        "type": "Point",
        "coordinates": [
          139.798403,
          35.687932
        ]
      },
      "properties": {
        "id": 259,
        "name": "Morishita (森下)",
        "alternate_names": [
          "森下",
          "morishita"
        ],
        "line": "ToeiSubwayE",
        "order": 279,
        "display_name": "Morishita (森下)"
      },
      "id": 259
    },
    {
      "type": "Feature",
      "geometry": {
        "type": "Point",
        "coordinates": [
          139.798853,
          35.682363
        ]
      },
      "properties": {
        "id": 258,
        "name": "Kiyosumi-shirakawa (清澄白河)",
        "alternate_names": [
          "清澄白河",
          "kiyosumi shirakawa"
        ],
        "line": "ToeiSubwayE",
        "order": 276,
        "display_name": "Kiyosumi-shirakawa (清澄白河)"
      },
      "id": 258
    },
    {
      "type": "Feature",
      "geometry": {
        "type": "Point",
        "coordinates": [
          139.71563,
          35.633213
        ]
      },
      "properties": {
        "id": 118,
        "name": "Meguro (目黒)",
        "alternate_names": [
          "目黒",
          "meguro"
        ],
        "line": "TokyoMetroN",
        "order": 266,
        "display_name": "Meguro (目黒)"
      },
      "id": 118
    },
    {
      "type": "Feature",
      "geometry": {
        "type": "Point",
        "coordinates": [
          139.795216,
          35.672732
        ]
      },
      "properties": {
        "id": 257,
        "name": "Monzen-nakacho (門前仲町)",
        "alternate_names": [
          "門前仲町",
          "monzen nakacho"
        ],
        "line": "ToeiSubwayE",
        "order": 261,
        "display_name": "Monzen-nakacho (門前仲町)"
      },
      "id": 257
    },
    {
      "type": "Feature",
      "geometry": {
        "type": "Point",
        "coordinates": [
          139.783993,
          35.663684
        ]
      },
      "properties": {
        "id": 256,
        "name": "Tsukishima (月島)",
        "alternate_names": [
          "月島",
          "tsukishima"
        ],
        "line": "ToeiSubwayE",
        "order": 254,
        "display_name": "Tsukishima (月島)"
      },
      "id": 256
    },
    {
      "type": "Feature",
      "geometry": {
        "type": "Point",
        "coordinates": [
          139.725856,
          35.637775
        ]
      },
      "properties": {
        "id": 117,
        "name": "Shirokanedai (白金台)",
        "alternate_names": [
          "白金台",
          "shirokanedai"
        ],
        "line": "TokyoMetroN",
        "order": 251,
        "display_name": "Shirokanedai (白金台)"
      },
      "id": 117
    },
    {
      "type": "Feature",
      "geometry": {
        "type": "Point",
        "coordinates": [
          139.777225,
          35.658854
        ]
      },
      "properties": {
        "id": 255,
        "name": "Kachidoki (勝どき)",
        "alternate_names": [
          "勝どき",
          "kachidoki"
        ],
        "line": "ToeiSubwayE",
        "order": 251,
        "display_name": "Kachidoki (勝どき)"
      },
      "id": 255
    },
    {
      "type": "Feature",
      "geometry": {
        "type": "Point",
        "coordinates": [
          139.734271,
          35.64315
        ]
      },
      "properties": {
        "id": 116,
        "name": "Shirokane-takanawa (白金高輪)",
        "alternate_names": [
          "白金高輪",
          "shirokane takanawa"
        ],
        "line": "TokyoMetroN",
        "order": 240,
        "display_name": "Shirokane-takanawa (白金高輪)"
      },
      "id": 116
    },
    {
      "type": "Feature",
      "geometry": {
        "type": "Point",
        "coordinates": [
          139.766906,
          35.664901
        ]
      },
      "properties": {
        "id": 254,
        "name": "Tsukijishijo (築地市場)",
        "alternate_names": [
          "築地市場",
          "tsukijishijo"
        ],
        "line": "ToeiSubwayE",
        "order": 239,
        "display_name": "Tsukijishijo (築地市場)"
      },
      "id": 254
    },
    {
      "type": "Feature",
      "geometry": {
        "type": "Point",
        "coordinates": [
          139.711691,
          35.730149
        ]
      },
      "properties": {
        "id": 20,
        "name": "Ikebukuro (池袋)",
        "alternate_names": [
          "池袋",
          "ikebukuro"
        ],
        "line": "TokyoMetroM",
        "order": 237,
        "display_name": "Ikebukuro (池袋)"
      },
      "id": 20
    },
    {
      "type": "Feature",
      "geometry": {
        "type": "Point",
        "coordinates": [
          139.760318,
          35.663132
        ]
      },
      "properties": {
        "id": 253,
        "name": "Shiodome (汐留)",
        "alternate_names": [
          "汐留",
          "shiodome"
        ],
        "line": "ToeiSubwayE",
        "order": 230,
        "display_name": "Shiodome (汐留)"
      },
      "id": 253
    },
    {
      "type": "Feature",
      "geometry": {
        "type": "Point",
        "coordinates": [
          139.736998,
          35.654814
        ]
      },
      "properties": {
        "id": 115,
        "name": "Azabu-juban (麻布十番)",
        "alternate_names": [
          "麻布十番",
          "azabu juban"
        ],
        "line": "TokyoMetroN",
        "order": 229,
        "display_name": "Azabu-juban (麻布十番)"
      },
      "id": 115
    },
    {
      "type": "Feature",
      "geometry": {
        "type": "Point",
        "coordinates": [
          139.729382,
          35.726156
        ]
      },
      "properties": {
        "id": 19,
        "name": "Shin-otsuka (新大塚)",
        "alternate_names": [
          "新大塚",
          "shin otsuka"
        ],
        "line": "TokyoMetroM",
        "order": 222,
        "display_name": "Shin-otsuka (新大塚)"
      },
      "id": 19
    },
    {
      "type": "Feature",
      "geometry": {
        "type": "Point",
        "coordinates": [
          139.679859,
          35.66905
        ]
      },
      "properties": {
        "id": 85,
        "name": "Yoyogi-uehara (代々木上原)",
        "alternate_names": [
          "代々木上原",
          "yoyogi uehara"
        ],
        "line": "TokyoMetroC",
        "order": 222,
        "display_name": "Yoyogi-uehara (代々木上原)"
      },
      "id": 85
    },
    {
      "type": "Feature",
      "geometry": {
        "type": "Point",
        "coordinates": [
          139.755689,
          35.656622
        ]
      },
      "properties": {
        "id": 252,
        "name": "Daimon (大門)",
        "alternate_names": [
          "大門",
          "daimon"
        ],
        "line": "ToeiSubwayE",
        "order": 220,
        "display_name": "Daimon (大門)"
      },
      "id": 252
    },
    {
      "type": "Feature",
      "geometry": {
        "type": "Point",
        "coordinates": [
          139.689803,
          35.669159
        ]
      },
      "properties": {
        "id": 84,
        "name": "Yoyogi-koen (代々木公園)",
        "alternate_names": [
          "代々木公園",
          "yoyogi koen"
        ],
        "line": "TokyoMetroC",
        "order": 214,
        "display_name": "Yoyogi-koen (代々木公園)"
      },
      "id": 84
    },
    {
      "type": "Feature",
      "geometry": {
        "type": "Point",
        "coordinates": [
          139.738827,
          35.665084
        ]
      },
      "properties": {
        "id": 114,
        "name": "Roppongi-itchome (六本木一丁目)",
        "alternate_names": [
          "六本木一丁目",
          "roppongi itchome"
        ],
        "line": "TokyoMetroN",
        "order": 213,
        "display_name": "Roppongi-itchome (六本木一丁目)"
      },
      "id": 114
    },
    {
      "type": "Feature",
      "geometry": {
        "type": "Point",
        "coordinates": [
          139.645905,
          35.791965
        ]
      },
      "properties": {
        "id": 233,
        "name": "Nishi-takashimadaira (西高島平)",
        "alternate_names": [
          "西高島平",
          "nishi takashimadaira"
        ],
        "line": "ToeiSubwayI",
        "order": 212,
        "display_name": "Nishi-takashimadaira (西高島平)"
      },
      "id": 233
    },
    {
      "type": "Feature",
      "geometry": {
        "type": "Point",
        "coordinates": [
          139.654067,
          35.790345
        ]
      },
      "properties": {
        "id": 232,
        "name": "Shin-takashimadaira (新高島平)",
        "alternate_names": [
          "新高島平",
          "shin takashimadaira"
        ],
        "line": "ToeiSubwayI",
        "order": 209,
        "display_name": "Shin-takashimadaira (新高島平)"
      },
      "id": 232
    },
    {
      "type": "Feature",
      "geometry": {
        "type": "Point",
        "coordinates": [
          139.736924,
          35.71722
        ]
      },
      "properties": {
        "id": 18,
        "name": "Myogadani (茗荷谷)",
        "alternate_names": [
          "茗荷谷",
          "myogadani"
        ],
        "line": "TokyoMetroM",
        "order": 206,
        "display_name": "Myogadani (茗荷谷)"
      },
      "id": 18
    },
    {
      "type": "Feature",
      "geometry": {
        "type": "Point",
        "coordinates": [
          139.661382,
          35.788982
        ]
      },
      "properties": {
        "id": 231,
        "name": "Takashimadaira (高島平)",
        "alternate_names": [
          "高島平",
          "takashimadaira"
        ],
        "line": "ToeiSubwayI",
        "order": 205,
        "display_name": "Takashimadaira (高島平)"
      },
      "id": 231
    },
    {
      "type": "Feature",
      "geometry": {
        "type": "Point",
        "coordinates": [
          139.703965,
          35.669154
        ]
      },
      "properties": {
        "id": 83,
        "name": "Meiji-jingumae (明治神宮前)",
        "alternate_names": [
          "明治神宮前",
          "原宿",
          "meiji jingumae",
          "harajuku"
        ],
        "line": "TokyoMetroC",
        "order": 203,
        "display_name": "Meiji-jingumae (明治神宮前)"
      },
      "id": 83
    },
    {
      "type": "Feature",
      "geometry": {
        "type": "Point",
        "coordinates": [
          139.741429,
          35.673089
        ]
      },
      "properties": {
        "id": 113,
        "name": "Tameike-sanno (溜池山王)",
        "alternate_names": [
          "溜池山王",
          "tameike sanno"
        ],
        "line": "TokyoMetroN",
        "order": 202,
        "display_name": "Tameike-sanno (溜池山王)"
      },
      "id": 113
    },
    {
      "type": "Feature",
      "geometry": {
        "type": "Point",
        "coordinates": [
          139.743986,
          35.654953
        ]
      },
      "properties": {
        "id": 251,
        "name": "Akabanebashi (赤羽橋)",
        "alternate_names": [
          "赤羽橋",
          "akabanebashi"
        ],
        "line": "ToeiSubwayE",
        "order": 201,
        "display_name": "Akabanebashi (赤羽橋)"
      },
      "id": 251
    },
    {
      "type": "Feature",
      "geometry": {
        "type": "Point",
        "coordinates": [
          139.612864,
          35.788348
        ]
      },
      "properties": {
        "id": 164,
        "name": "Wakoshi (和光市)",
        "alternate_names": [
          "和光市",
          "wakoshi"
        ],
        "line": "TokyoMetroY",
        "order": 200,
        "display_name": "Wakoshi (和光市)"
      },
      "id": 164
    },
    {
      "type": "Feature",
      "geometry": {
        "type": "Point",
        "coordinates": [
          139.672871,
          35.7871
        ]
      },
      "properties": {
        "id": 230,
        "name": "Nishidai (西台)",
        "alternate_names": [
          "西台",
          "nishidai"
        ],
        "line": "ToeiSubwayI",
        "order": 200,
        "display_name": "Nishidai (西台)"
      },
      "id": 230
    },
    {
      "type": "Feature",
      "geometry": {
        "type": "Point",
        "coordinates": [
          139.711392,
          35.665718
        ]
      },
      "properties": {
        "id": 82,
        "name": "Omote-sando (表参道)",
        "alternate_names": [
          "表参道",
          "omote sando"
        ],
        "line": "TokyoMetroC",
        "order": 199,
        "display_name": "Omote-sando (表参道)"
      },
      "id": 82
    },
    {
      "type": "Feature",
      "geometry": {
        "type": "Point",
        "coordinates": [
          139.736323,
          35.656424
        ]
      },
      "properties": {
        "id": 250,
        "name": "Azabu-juban (麻布十番)",
        "alternate_names": [
          "麻布十番",
          "azabu juban"
        ],
        "line": "ToeiSubwayE",
        "order": 194,
        "display_name": "Azabu-juban (麻布十番)"
      },
      "id": 250
    },
    {
      "type": "Feature",
      "geometry": {
        "type": "Point",
        "coordinates": [
          139.739282,
          35.67833
        ]
      },
      "properties": {
        "id": 112,
        "name": "Nagatacho (永田町)",
        "alternate_names": [
          "永田町",
          "nagatacho"
        ],
        "line": "TokyoMetroN",
        "order": 193,
        "display_name": "Nagatacho (永田町)"
      },
      "id": 112
    },
    {
      "type": "Feature",
      "geometry": {
        "type": "Point",
        "coordinates": [
          139.679261,
          35.784211
        ]
      },
      "properties": {
        "id": 229,
        "name": "Hasune (蓮根)",
        "alternate_names": [
          "蓮根",
          "hasune"
        ],
        "line": "ToeiSubwayI",
        "order": 191,
        "display_name": "Hasune (蓮根)"
      },
      "id": 229
    },
    {
      "type": "Feature",
      "geometry": {
        "type": "Point",
        "coordinates": [
          139.750861,
          35.707307
        ]
      },
      "properties": {
        "id": 17,
        "name": "Korakuen (後楽園)",
        "alternate_names": [
          "後楽園",
          "korakuen"
        ],
        "line": "TokyoMetroM",
        "order": 183,
        "display_name": "Korakuen (後楽園)"
      },
      "id": 17
    },
    {
      "type": "Feature",
      "geometry": {
        "type": "Point",
        "coordinates": [
          139.631132,
          35.776703
        ]
      },
      "properties": {
        "id": 163,
        "name": "Chikatetsu-narimasu (地下鉄成増)",
        "alternate_names": [
          "地下鉄成増",
          "chikatetsu narimasu"
        ],
        "line": "TokyoMetroY",
        "order": 183,
        "display_name": "Chikatetsu-narimasu (地下鉄成増)"
      },
      "id": 163
    },
    {
      "type": "Feature",
      "geometry": {
        "type": "Point",
        "coordinates": [
          139.726251,
          35.666577
        ]
      },
      "properties": {
        "id": 81,
        "name": "Nogizaka (乃木坂)",
        "alternate_names": [
          "乃木坂",
          "nogizaka"
        ],
        "line": "TokyoMetroC",
        "order": 180,
        "display_name": "Nogizaka (乃木坂)"
      },
      "id": 81
    },
    {
      "type": "Feature",
      "geometry": {
        "type": "Point",
        "coordinates": [
          139.685764,
          35.777434
        ]
      },
      "properties": {
        "id": 228,
        "name": "Shimura-sanchome (志村三丁目)",
        "alternate_names": [
          "志村三丁目",
          "shimura sanchome"
        ],
        "line": "ToeiSubwayI",
        "order": 177,
        "display_name": "Shimura-sanchome (志村三丁目)"
      },
      "id": 228
    },
    {
      "type": "Feature",
      "geometry": {
        "type": "Point",
        "coordinates": [
          139.731362,
          35.664112
        ]
      },
      "properties": {
        "id": 249,
        "name": "Roppongi (六本木)",
        "alternate_names": [
          "六本木",
          "roppongi"
        ],
        "line": "ToeiSubwayE",
        "order": 177,
        "display_name": "Roppongi (六本木)"
      },
      "id": 249
    },
    {
      "type": "Feature",
      "geometry": {
        "type": "Point",
        "coordinates": [
          139.729596,
          35.686103
        ]
      },
      "properties": {
        "id": 111,
        "name": "Yotsuya (四ツ谷)",
        "alternate_names": [
          "四ツ谷",
          "yotsuya"
        ],
        "line": "TokyoMetroN",
        "order": 172,
        "display_name": "Yotsuya (四ツ谷)"
      },
      "id": 111
    },
    {
      "type": "Feature",
      "geometry": {
        "type": "Point",
        "coordinates": [
          139.644004,
          35.769953
        ]
      },
      "properties": {
        "id": 162,
        "name": "Chikatetsu-akatsuka (地下鉄赤塚)",
        "alternate_names": [
          "地下鉄赤塚",
          "chikatetsu akatsuka"
        ],
        "line": "TokyoMetroY",
        "order": 170,
        "display_name": "Chikatetsu-akatsuka (地下鉄赤塚)"
      },
      "id": 162
    },
    {
      "type": "Feature",
      "geometry": {
        "type": "Point",
        "coordinates": [
          139.760018,
          35.706627
        ]
      },
      "properties": {
        "id": 16,
        "name": "Hongo-sanchome (本郷三丁目)",
        "alternate_names": [
          "本郷三丁目",
          "hongo sanchome"
        ],
        "line": "TokyoMetroM",
        "order": 169,
        "display_name": "Hongo-sanchome (本郷三丁目)"
      },
      "id": 16
    },
    {
      "type": "Feature",
      "geometry": {
        "type": "Point",
        "coordinates": [
          139.736379,
          35.672226
        ]
      },
      "properties": {
        "id": 80,
        "name": "Akasaka (赤坂)",
        "alternate_names": [
          "赤坂",
          "akasaka"
        ],
        "line": "TokyoMetroC",
        "order": 165,
        "display_name": "Akasaka (赤坂)"
      },
      "id": 80
    },
    {
      "type": "Feature",
      "geometry": {
        "type": "Point",
        "coordinates": [
          139.695211,
          35.776159
        ]
      },
      "properties": {
        "id": 227,
        "name": "Shimura-sakaue (志村坂上)",
        "alternate_names": [
          "志村坂上",
          "shimura sakaue"
        ],
        "line": "ToeiSubwayI",
        "order": 165,
        "display_name": "Shimura-sakaue (志村坂上)"
      },
      "id": 227
    },
    {
      "type": "Feature",
      "geometry": {
        "type": "Point",
        "coordinates": [
          139.6988,
          35.64414
        ]
      },
      "properties": {
        "id": 140,
        "name": "Naka-meguro (中目黒)",
        "alternate_names": [
          "中目黒",
          "naka meguro"
        ],
        "line": "TokyoMetroH",
        "order": 164,
        "display_name": "Naka-meguro (中目黒)"
      },
      "id": 140
    },
    {
      "type": "Feature",
      "geometry": {
        "type": "Point",
        "coordinates": [
          139.736347,
          35.692875
        ]
      },
      "properties": {
        "id": 110,
        "name": "Ichigaya (市ケ谷)",
        "alternate_names": [
          "市ケ谷",
          "ichigaya"
        ],
        "line": "TokyoMetroN",
        "order": 161,
        "display_name": "Ichigaya (市ケ谷)"
      },
      "id": 110
    },
    {
      "type": "Feature",
      "geometry": {
        "type": "Point",
        "coordinates": [
          139.723964,
          35.67308
        ]
      },
      "properties": {
        "id": 248,
        "name": "Aoyama-itchome (青山一丁目)",
        "alternate_names": [
          "青山一丁目",
          "aoyama itchome"
        ],
        "line": "ToeiSubwayE",
        "order": 160,
        "display_name": "Aoyama-itchome (青山一丁目)"
      },
      "id": 248
    },
    {
      "type": "Feature",
      "geometry": {
        "type": "Point",
        "coordinates": [
          139.743171,
          35.673704
        ]
      },
      "properties": {
        "id": 79,
        "name": "Kokkai-gijidomae (国会議事堂前)",
        "alternate_names": [
          "国会議事堂前",
          "kokkai gijidomae"
        ],
        "line": "TokyoMetroC",
        "order": 158,
        "display_name": "Kokkai-gijidomae (国会議事堂前)"
      },
      "id": 79
    },
    {
      "type": "Feature",
      "geometry": {
        "type": "Point",
        "coordinates": [
          139.702644,
          35.768569
        ]
      },
      "properties": {
        "id": 226,
        "name": "Motohasunuma (本蓮沼)",
        "alternate_names": [
          "本蓮沼",
          "motohasunuma"
        ],
        "line": "ToeiSubwayI",
        "order": 158,
        "display_name": "Motohasunuma (本蓮沼)"
      },
      "id": 226
    },
    {
      "type": "Feature",
      "geometry": {
        "type": "Point",
        "coordinates": [
          139.95861,
          35.7074
        ]
      },
      "properties": {
        "id": 187,
        "name": "Nishi-funabashi (西船橋)",
        "alternate_names": [
          "西船橋",
          "nishi funabashi"
        ],
        "line": "TokyoMetroT",
        "order": 157,
        "display_name": "Nishi-funabashi (西船橋)"
      },
      "id": 187
    },
    {
      "type": "Feature",
      "geometry": {
        "type": "Point",
        "coordinates": [
          139.698964,
          35.688557
        ]
      },
      "properties": {
        "id": 293,
        "name": "Shinjuku (新宿)",
        "alternate_names": [
          "新宿",
          "shinjuku"
        ],
        "line": "ToeiSubwayS",
        "order": 157,
        "display_name": "Shinjuku (新宿)"
      },
      "id": 293
    },
    {
      "type": "Feature",
      "geometry": {
        "type": "Point",
        "coordinates": [
          139.654361,
          35.757619
        ]
      },
      "properties": {
        "id": 161,
        "name": "Heiwadai (平和台)",
        "alternate_names": [
          "平和台",
          "heiwadai"
        ],
        "line": "TokyoMetroY",
        "order": 156,
        "display_name": "Heiwadai (平和台)"
      },
      "id": 161
    },
    {
      "type": "Feature",
      "geometry": {
        "type": "Point",
        "coordinates": [
          139.764412,
          35.700446
        ]
      },
      "properties": {
        "id": 15,
        "name": "Ochanomizu (御茶ノ水)",
        "alternate_names": [
          "御茶ノ水",
          "ochanomizu"
        ],
        "line": "TokyoMetroM",
        "order": 155,
        "display_name": "Ochanomizu (御茶ノ水)"
      },
      "id": 15
    },
    {
      "type": "Feature",
      "geometry": {
        "type": "Point",
        "coordinates": [
          139.701957,
          35.659476
        ]
      },
      "properties": {
        "id": 99,
        "name": "Shibuya (渋谷)",
        "alternate_names": [
          "渋谷",
          "shibuya"
        ],
        "line": "TokyoMetroZ",
        "order": 154,
        "display_name": "Shibuya (渋谷)"
      },
      "id": 99
    },
    {
      "type": "Feature",
      "geometry": {
        "type": "Point",
        "coordinates": [
          139.705776,
          35.761367
        ]
      },
      "properties": {
        "id": 225,
        "name": "Itabashihoncho (板橋本町)",
        "alternate_names": [
          "板橋本町",
          "itabashihoncho"
        ],
        "line": "ToeiSubwayI",
        "order": 153,
        "display_name": "Itabashihoncho (板橋本町)"
      },
      "id": 225
    },
    {
      "type": "Feature",
      "geometry": {
        "type": "Point",
        "coordinates": [
          139.706914,
          35.690826
        ]
      },
      "properties": {
        "id": 292,
        "name": "Shinjuku-sanchome (新宿三丁目)",
        "alternate_names": [
          "新宿三丁目",
          "shinjuku sanchome"
        ],
        "line": "ToeiSubwayS",
        "order": 151,
        "display_name": "Shinjuku-sanchome (新宿三丁目)"
      },
      "id": 292
    },
    {
      "type": "Feature",
      "geometry": {
        "type": "Point",
        "coordinates": [
          139.708723,
          35.647029
        ]
      },
      "properties": {
        "id": 139,
        "name": "Ebisu (恵比寿)",
        "alternate_names": [
          "恵比寿",
          "ebisu"
        ],
        "line": "TokyoMetroH",
        "order": 150,
        "display_name": "Ebisu (恵比寿)"
      },
      "id": 139
    },
    {
      "type": "Feature",
      "geometry": {
        "type": "Point",
        "coordinates": [
          139.66548,
          35.74963
        ]
      },
      "properties": {
        "id": 160,
        "name": "Hikawadai (氷川台)",
        "alternate_names": [
          "氷川台",
          "hikawadai"
        ],
        "line": "TokyoMetroY",
        "order": 150,
        "display_name": "Hikawadai (氷川台)"
      },
      "id": 160
    },
    {
      "type": "Feature",
      "geometry": {
        "type": "Point",
        "coordinates": [
          139.743766,
          35.701507
        ]
      },
      "properties": {
        "id": 109,
        "name": "Iidabashi (飯田橋)",
        "alternate_names": [
          "飯田橋",
          "iidabashi"
        ],
        "line": "TokyoMetroN",
        "order": 148,
        "display_name": "Iidabashi (飯田橋)"
      },
      "id": 109
    },
    {
      "type": "Feature",
      "geometry": {
        "type": "Point",
        "coordinates": [
          139.710233,
          35.751463
        ]
      },
      "properties": {
        "id": 224,
        "name": "Itabashi-kuyakushomae (板橋区役所前)",
        "alternate_names": [
          "板橋区役所前",
          "itabashi kuyakushomae"
        ],
        "line": "ToeiSubwayI",
        "order": 148,
        "display_name": "Itabashi-kuyakushomae (板橋区役所前)"
      },
      "id": 224
    },
    {
      "type": "Feature",
      "geometry": {
        "type": "Point",
        "coordinates": [
          139.751747,
          35.672522
        ]
      },
      "properties": {
        "id": 78,
        "name": "Kasumigaseki (霞ケ関)",
        "alternate_names": [
          "霞ケ関",
          "kasumigaseki"
        ],
        "line": "TokyoMetroC",
        "order": 147,
        "display_name": "Kasumigaseki (霞ケ関)"
      },
      "id": 78
    },
    {
      "type": "Feature",
      "geometry": {
        "type": "Point",
        "coordinates": [
          139.70204,
          35.658851
        ]
      },
      "properties": {
        "id": 206,
        "name": "Shibuya (渋谷)",
        "alternate_names": [
          "渋谷",
          "shibuya"
        ],
        "line": "TokyoMetroG",
        "order": 147,
        "display_name": "Shibuya (渋谷)"
      },
      "id": 206
    },
    {
      "type": "Feature",
      "geometry": {
        "type": "Point",
        "coordinates": [
          139.714653,
          35.679865
        ]
      },
      "properties": {
        "id": 247,
        "name": "Kokuritsu-kyogijo (国立競技場)",
        "alternate_names": [
          "国立競技場",
          "kokuritsu kyogijo"
        ],
        "line": "ToeiSubwayE",
        "order": 147,
        "display_name": "Kokuritsu-kyogijo (国立競技場)"
      },
      "id": 247
    },
    {
      "type": "Feature",
      "geometry": {
        "type": "Point",
        "coordinates": [
          139.767473,
          35.69487
        ]
      },
      "properties": {
        "id": 14,
        "name": "Awajicho (淡路町)",
        "alternate_names": [
          "淡路町",
          "awajicho"
        ],
        "line": "TokyoMetroM",
        "order": 146,
        "display_name": "Awajicho (淡路町)"
      },
      "id": 14
    },
    {
      "type": "Feature",
      "geometry": {
        "type": "Point",
        "coordinates": [
          139.67952,
          35.74336
        ]
      },
      "properties": {
        "id": 159,
        "name": "Kotake-mukaihara (小竹向原)",
        "alternate_names": [
          "小竹向原",
          "kotake mukaihara"
        ],
        "line": "TokyoMetroY",
        "order": 145,
        "display_name": "Kotake-mukaihara (小竹向原)"
      },
      "id": 159
    },
    {
      "type": "Feature",
      "geometry": {
        "type": "Point",
        "coordinates": [
          139.712461,
          35.665097
        ]
      },
      "properties": {
        "id": 98,
        "name": "Omote-sando (表参道)",
        "alternate_names": [
          "表参道",
          "omote sando"
        ],
        "line": "TokyoMetroZ",
        "order": 143,
        "display_name": "Omote-sando (表参道)"
      },
      "id": 98
    },
    {
      "type": "Feature",
      "geometry": {
        "type": "Point",
        "coordinates": [
          139.941879,
          35.703319
        ]
      },
      "properties": {
        "id": 186,
        "name": "Baraki-nakayama (原木中山)",
        "alternate_names": [
          "原木中山",
          "baraki nakayama"
        ],
        "line": "TokyoMetroT",
        "order": 142,
        "display_name": "Baraki-nakayama (原木中山)"
      },
      "id": 186
    },
    {
      "type": "Feature",
      "geometry": {
        "type": "Point",
        "coordinates": [
          139.719827,
          35.748901
        ]
      },
      "properties": {
        "id": 223,
        "name": "Shin-itabashi (新板橋)",
        "alternate_names": [
          "新板橋",
          "shin itabashi"
        ],
        "line": "ToeiSubwayI",
        "order": 142,
        "display_name": "Shin-itabashi (新板橋)"
      },
      "id": 223
    },
    {
      "type": "Feature",
      "geometry": {
        "type": "Point",
        "coordinates": [
          139.766201,
          35.686875
        ]
      },
      "properties": {
        "id": 13,
        "name": "Otemachi (大手町)",
        "alternate_names": [
          "大手町",
          "otemachi"
        ],
        "line": "TokyoMetroM",
        "order": 140,
        "display_name": "Otemachi (大手町)"
      },
      "id": 13
    },
    {
      "type": "Feature",
      "geometry": {
        "type": "Point",
        "coordinates": [
          139.68942,
          35.73821
        ]
      },
      "properties": {
        "id": 158,
        "name": "Senkawa (千川)",
        "alternate_names": [
          "千川",
          "senkawa"
        ],
        "line": "TokyoMetroY",
        "order": 140,
        "display_name": "Senkawa (千川)"
      },
      "id": 158
    },
    {
      "type": "Feature",
      "geometry": {
        "type": "Point",
        "coordinates": [
          139.758536,
          35.674112
        ]
      },
      "properties": {
        "id": 77,
        "name": "Hibiya (日比谷)",
        "alternate_names": [
          "日比谷",
          "hibiya"
        ],
        "line": "TokyoMetroC",
        "order": 139,
        "display_name": "Hibiya (日比谷)"
      },
      "id": 77
    },
    {
      "type": "Feature",
      "geometry": {
        "type": "Point",
        "coordinates": [
          139.712476,
          35.66504
        ]
      },
      "properties": {
        "id": 205,
        "name": "Omote-sando (表参道)",
        "alternate_names": [
          "表参道",
          "omote sando"
        ],
        "line": "TokyoMetroG",
        "order": 137,
        "display_name": "Omote-sando (表参道)"
      },
      "id": 205
    },
    {
      "type": "Feature",
      "geometry": {
        "type": "Point",
        "coordinates": [
          139.728859,
          35.743667
        ]
      },
      "properties": {
        "id": 222,
        "name": "Nishi-sugamo (西巣鴨)",
        "alternate_names": [
          "西巣鴨",
          "nishi sugamo"
        ],
        "line": "ToeiSubwayI",
        "order": 135,
        "display_name": "Nishi-sugamo (西巣鴨)"
      },
      "id": 222
    },
    {
      "type": "Feature",
      "geometry": {
        "type": "Point",
        "coordinates": [
          139.722318,
          35.692334
        ]
      },
      "properties": {
        "id": 291,
        "name": "Akebonobashi (曙橋)",
        "alternate_names": [
          "曙橋",
          "akebonobashi"
        ],
        "line": "ToeiSubwayS",
        "order": 135,
        "display_name": "Akebonobashi (曙橋)"
      },
      "id": 291
    },
    {
      "type": "Feature",
      "geometry": {
        "type": "Point",
        "coordinates": [
          139.764783,
          35.681938
        ]
      },
      "properties": {
        "id": 12,
        "name": "Tokyo (東京)",
        "alternate_names": [
          "東京",
          "tokyo"
        ],
        "line": "TokyoMetroM",
        "order": 134,
        "display_name": "Tokyo (東京)"
      },
      "id": 12
    },
    {
      "type": "Feature",
      "geometry": {
        "type": "Point",
        "coordinates": [
          139.761612,
          35.680541
        ]
      },
      "properties": {
        "id": 76,
        "name": "Nijubashimae (二重橋前)",
        "alternate_names": [
          "二重橋前",
          "丸の内",
          "nijubashimae",
          "marunouchi"
        ],
        "line": "TokyoMetroC",
        "order": 132,
        "display_name": "Nijubashimae (二重橋前)"
      },
      "id": 76
    },
    {
      "type": "Feature",
      "geometry": {
        "type": "Point",
        "coordinates": [
          139.724216,
          35.672831
        ]
      },
      "properties": {
        "id": 97,
        "name": "Aoyama-itchome (青山一丁目)",
        "alternate_names": [
          "青山一丁目",
          "aoyama itchome"
        ],
        "line": "TokyoMetroZ",
        "order": 132,
        "display_name": "Aoyama-itchome (青山一丁目)"
      },
      "id": 97
    },
    {
      "type": "Feature",
      "geometry": {
        "type": "Point",
        "coordinates": [
          139.698514,
          35.733286
        ]
      },
      "properties": {
        "id": 157,
        "name": "Kanamecho (要町)",
        "alternate_names": [
          "要町",
          "kanamecho"
        ],
        "line": "TokyoMetroY",
        "order": 132,
        "display_name": "Kanamecho (要町)"
      },
      "id": 157
    },
    {
      "type": "Feature",
      "geometry": {
        "type": "Point",
        "coordinates": [
          139.612845,
          35.788318
        ]
      },
      "properties": {
        "id": 65,
        "name": "Wakoshi (和光市)",
        "alternate_names": [
          "和光市",
          "wakoshi"
        ],
        "line": "TokyoMetroF",
        "order": 131,
        "display_name": "Wakoshi (和光市)"
      },
      "id": 65
    },
    {
      "type": "Feature",
      "geometry": {
        "type": "Point",
        "coordinates": [
          139.92421,
          35.69107
        ]
      },
      "properties": {
        "id": 185,
        "name": "Myoden (妙典)",
        "alternate_names": [
          "妙典",
          "myoden"
        ],
        "line": "TokyoMetroT",
        "order": 131,
        "display_name": "Myoden (妙典)"
      },
      "id": 185
    },
    {
      "type": "Feature",
      "geometry": {
        "type": "Point",
        "coordinates": [
          139.722234,
          35.651499
        ]
      },
      "properties": {
        "id": 138,
        "name": "Hiro-o (広尾)",
        "alternate_names": [
          "広尾",
          "hiro o"
        ],
        "line": "TokyoMetroH",
        "order": 130,
        "display_name": "Hiro-o (広尾)"
      },
      "id": 138
    },
    {
      "type": "Feature",
      "geometry": {
        "type": "Point",
        "coordinates": [
          139.75185,
          35.708392
        ]
      },
      "properties": {
        "id": 108,
        "name": "Korakuen (後楽園)",
        "alternate_names": [
          "後楽園",
          "korakuen"
        ],
        "line": "TokyoMetroN",
        "order": 129,
        "display_name": "Korakuen (後楽園)"
      },
      "id": 108
    },
    {
      "type": "Feature",
      "geometry": {
        "type": "Point",
        "coordinates": [
          139.914175,
          35.682628
        ]
      },
      "properties": {
        "id": 184,
        "name": "Gyotoku (行徳)",
        "alternate_names": [
          "行徳",
          "gyotoku"
        ],
        "line": "TokyoMetroT",
        "order": 129,
        "display_name": "Gyotoku (行徳)"
      },
      "id": 184
    },
    {
      "type": "Feature",
      "geometry": {
        "type": "Point",
        "coordinates": [
          139.717804,
          35.670412
        ]
      },
      "properties": {
        "id": 204,
        "name": "Gaiemmae (外苑前)",
        "alternate_names": [
          "外苑前",
          "gaiemmae"
        ],
        "line": "TokyoMetroG",
        "order": 129,
        "display_name": "Gaiemmae (外苑前)"
      },
      "id": 204
    },
    {
      "type": "Feature",
      "geometry": {
        "type": "Point",
        "coordinates": [
          139.738297,
          35.733906
        ]
      },
      "properties": {
        "id": 221,
        "name": "Sugamo (巣鴨)",
        "alternate_names": [
          "巣鴨",
          "sugamo"
        ],
        "line": "ToeiSubwayI",
        "order": 129,
        "display_name": "Sugamo (巣鴨)"
      },
      "id": 221
    },
    {
      "type": "Feature",
      "geometry": {
        "type": "Point",
        "coordinates": [
          139.763144,
          35.68528
        ]
      },
      "properties": {
        "id": 75,
        "name": "Otemachi (大手町)",
        "alternate_names": [
          "大手町",
          "otemachi"
        ],
        "line": "TokyoMetroC",
        "order": 128,
        "display_name": "Otemachi (大手町)"
      },
      "id": 75
    },
    {
      "type": "Feature",
      "geometry": {
        "type": "Point",
        "coordinates": [
          139.902256,
          35.672745
        ]
      },
      "properties": {
        "id": 183,
        "name": "Minami-gyotoku (南行徳)",
        "alternate_names": [
          "南行徳",
          "minami gyotoku"
        ],
        "line": "TokyoMetroT",
        "order": 127,
        "display_name": "Minami-gyotoku (南行徳)"
      },
      "id": 183
    },
    {
      "type": "Feature",
      "geometry": {
        "type": "Point",
        "coordinates": [
          139.724156,
          35.672765
        ]
      },
      "properties": {
        "id": 203,
        "name": "Aoyama-itchome (青山一丁目)",
        "alternate_names": [
          "青山一丁目",
          "aoyama itchome"
        ],
        "line": "TokyoMetroG",
        "order": 125,
        "display_name": "Aoyama-itchome (青山一丁目)"
      },
      "id": 203
    },
    {
      "type": "Feature",
      "geometry": {
        "type": "Point",
        "coordinates": [
          139.701689,
          35.683518
        ]
      },
      "properties": {
        "id": 246,
        "name": "Yoyogi (代々木)",
        "alternate_names": [
          "代々木",
          "yoyogi"
        ],
        "line": "ToeiSubwayE",
        "order": 125,
        "display_name": "Yoyogi (代々木)"
      },
      "id": 246
    },
    {
      "type": "Feature",
      "geometry": {
        "type": "Point",
        "coordinates": [
          139.893211,
          35.665936
        ]
      },
      "properties": {
        "id": 182,
        "name": "Urayasu (浦安)",
        "alternate_names": [
          "浦安",
          "urayasu"
        ],
        "line": "TokyoMetroT",
        "order": 124,
        "display_name": "Urayasu (浦安)"
      },
      "id": 182
    },
    {
      "type": "Feature",
      "geometry": {
        "type": "Point",
        "coordinates": [
          139.710879,
          35.729166
        ]
      },
      "properties": {
        "id": 156,
        "name": "Ikebukuro (池袋)",
        "alternate_names": [
          "池袋",
          "ikebukuro"
        ],
        "line": "TokyoMetroY",
        "order": 122,
        "display_name": "Ikebukuro (池袋)"
      },
      "id": 156
    },
    {
      "type": "Feature",
      "geometry": {
        "type": "Point",
        "coordinates": [
          139.745152,
          35.727943
        ]
      },
      "properties": {
        "id": 220,
        "name": "Sengoku (千石)",
        "alternate_names": [
          "千石",
          "sengoku"
        ],
        "line": "ToeiSubwayI",
        "order": 122,
        "display_name": "Sengoku (千石)"
      },
      "id": 220
    },
    {
      "type": "Feature",
      "geometry": {
        "type": "Point",
        "coordinates": [
          139.813175,
          35.710625
        ]
      },
      "properties": {
        "id": 313,
        "name": "Oshiage (押上)",
        "alternate_names": [
          "押上",
          "スカイツリー前",
          "oshiage",
          "skytree"
        ],
        "line": "ToeiSubwayA",
        "order": 121,
        "display_name": "Oshiage (押上)"
      },
      "id": 313
    },
    {
      "type": "Feature",
      "geometry": {
        "type": "Point",
        "coordinates": [
          139.73886,
          35.67844
        ]
      },
      "properties": {
        "id": 96,
        "name": "Nagatacho (永田町)",
        "alternate_names": [
          "永田町",
          "nagatacho"
        ],
        "line": "TokyoMetroZ",
        "order": 120,
        "display_name": "Nagatacho (永田町)"
      },
      "id": 96
    },
    {
      "type": "Feature",
      "geometry": {
        "type": "Point",
        "coordinates": [
          139.699042,
          35.688543
        ]
      },
      "properties": {
        "id": 245,
        "name": "Shinjuku (新宿)",
        "alternate_names": [
          "新宿",
          "shinjuku"
        ],
        "line": "ToeiSubwayE",
        "order": 118,
        "display_name": "Shinjuku (新宿)"
      },
      "id": 245
    },
    {
      "type": "Feature",
      "geometry": {
        "type": "Point",
        "coordinates": [
          139.737614,
          35.691471
        ]
      },
      "properties": {
        "id": 290,
        "name": "Ichigaya (市ヶ谷)",
        "alternate_names": [
          "市ヶ谷",
          "ichigaya"
        ],
        "line": "ToeiSubwayS",
        "order": 117,
        "display_name": "Ichigaya (市ヶ谷)"
      },
      "id": 290
    },
    {
      "type": "Feature",
      "geometry": {
        "type": "Point",
        "coordinates": [
          139.631141,
          35.776703
        ]
      },
      "properties": {
        "id": 64,
        "name": "Chikatetsu-narimasu (地下鉄成増)",
        "alternate_names": [
          "地下鉄成増",
          "chikatetsu narimasu"
        ],
        "line": "TokyoMetroF",
        "order": 116,
        "display_name": "Chikatetsu-narimasu (地下鉄成増)"
      },
      "id": 64
    },
    {
      "type": "Feature",
      "geometry": {
        "type": "Point",
        "coordinates": [
          139.763903,
          35.673113
        ]
      },
      "properties": {
        "id": 11,
        "name": "Ginza (銀座)",
        "alternate_names": [
          "銀座",
          "ginza"
        ],
        "line": "TokyoMetroM",
        "order": 115,
        "display_name": "Ginza (銀座)"
      },
      "id": 11
    },
    {
      "type": "Feature",
      "geometry": {
        "type": "Point",
        "coordinates": [
          139.804395,
          35.708588
        ]
      },
      "properties": {
        "id": 312,
        "name": "Honjo-azumabashi (本所吾妻橋)",
        "alternate_names": [
          "本所吾妻橋",
          "honjo azumabashi"
        ],
        "line": "ToeiSubwayA",
        "order": 115,
        "display_name": "Honjo-azumabashi (本所吾妻橋)"
      },
      "id": 312
    },
    {
      "type": "Feature",
      "geometry": {
        "type": "Point",
        "coordinates": [
          139.765452,
          35.696924
        ]
      },
      "properties": {
        "id": 74,
        "name": "Shin-ochanomizu (新御茶ノ水)",
        "alternate_names": [
          "新御茶ノ水",
          "shin ochanomizu"
        ],
        "line": "TokyoMetroC",
        "order": 114,
        "display_name": "Shin-ochanomizu (新御茶ノ水)"
      },
      "id": 74
    },
    {
      "type": "Feature",
      "geometry": {
        "type": "Point",
        "coordinates": [
          139.731211,
          35.66276
        ]
      },
      "properties": {
        "id": 137,
        "name": "Roppongi (六本木)",
        "alternate_names": [
          "六本木",
          "roppongi"
        ],
        "line": "TokyoMetroH",
        "order": 114,
        "display_name": "Roppongi (六本木)"
      },
      "id": 137
    },
    {
      "type": "Feature",
      "geometry": {
        "type": "Point",
        "coordinates": [
          139.87253,
          35.66365
        ]
      },
      "properties": {
        "id": 181,
        "name": "Kasai (葛西)",
        "alternate_names": [
          "葛西",
          "kasai"
        ],
        "line": "TokyoMetroT",
        "order": 114,
        "display_name": "Kasai (葛西)"
      },
      "id": 181
    },
    {
      "type": "Feature",
      "geometry": {
        "type": "Point",
        "coordinates": [
          139.718928,
          35.726014
        ]
      },
      "properties": {
        "id": 155,
        "name": "Higashi-ikebukuro (東池袋)",
        "alternate_names": [
          "東池袋",
          "higashi ikebukuro"
        ],
        "line": "TokyoMetroY",
        "order": 112,
        "display_name": "Higashi-ikebukuro (東池袋)"
      },
      "id": 155
    },
    {
      "type": "Feature",
      "geometry": {
        "type": "Point",
        "coordinates": [
          139.859602,
          35.664578
        ]
      },
      "properties": {
        "id": 180,
        "name": "Nishi-kasai (西葛西)",
        "alternate_names": [
          "西葛西",
          "nishi kasai"
        ],
        "line": "TokyoMetroT",
        "order": 112,
        "display_name": "Nishi-kasai (西葛西)"
      },
      "id": 180
    },
    {
      "type": "Feature",
      "geometry": {
        "type": "Point",
        "coordinates": [
          139.752469,
          35.721611
        ]
      },
      "properties": {
        "id": 219,
        "name": "Hakusan (白山)",
        "alternate_names": [
          "白山",
          "hakusan"
        ],
        "line": "ToeiSubwayI",
        "order": 111,
        "display_name": "Hakusan (白山)"
      },
      "id": 219
    },
    {
      "type": "Feature",
      "geometry": {
        "type": "Point",
        "coordinates": [
          139.757918,
          35.718025
        ]
      },
      "properties": {
        "id": 107,
        "name": "Todaimae (東大前)",
        "alternate_names": [
          "東大前",
          "todaimae"
        ],
        "line": "TokyoMetroN",
        "order": 109,
        "display_name": "Todaimae (東大前)"
      },
      "id": 107
    },
    {
      "type": "Feature",
      "geometry": {
        "type": "Point",
        "coordinates": [
          139.737269,
          35.676821
        ]
      },
      "properties": {
        "id": 202,
        "name": "Akasaka-mitsuke (赤坂見附)",
        "alternate_names": [
          "赤坂見附",
          "akasaka mitsuke"
        ],
        "line": "TokyoMetroG",
        "order": 109,
        "display_name": "Akasaka-mitsuke (赤坂見附)"
      },
      "id": 202
    },
    {
      "type": "Feature",
      "geometry": {
        "type": "Point",
        "coordinates": [
          139.751755,
          35.695463
        ]
      },
      "properties": {
        "id": 289,
        "name": "Kudanshita (九段下)",
        "alternate_names": [
          "九段下",
          "kudanshita"
        ],
        "line": "ToeiSubwayS",
        "order": 109,
        "display_name": "Kudanshita (九段下)"
      },
      "id": 289
    },
    {
      "type": "Feature",
      "geometry": {
        "type": "Point",
        "coordinates": [
          139.692705,
          35.690495
        ]
      },
      "properties": {
        "id": 244,
        "name": "Tochomae (都庁前)",
        "alternate_names": [
          "都庁前",
          "tochomae"
        ],
        "line": "ToeiSubwayE",
        "order": 107,
        "display_name": "Tochomae (都庁前)"
      },
      "id": 244
    },
    {
      "type": "Feature",
      "geometry": {
        "type": "Point",
        "coordinates": [
          139.757985,
          35.695892
        ]
      },
      "properties": {
        "id": 288,
        "name": "Jimbocho (神保町)",
        "alternate_names": [
          "神保町",
          "jimbocho"
        ],
        "line": "ToeiSubwayS",
        "order": 106,
        "display_name": "Jimbocho (神保町)"
      },
      "id": 288
    },
    {
      "type": "Feature",
      "geometry": {
        "type": "Point",
        "coordinates": [
          139.643972,
          35.769947
        ]
      },
      "properties": {
        "id": 63,
        "name": "Chikatetsu-akatsuka (地下鉄赤塚)",
        "alternate_names": [
          "地下鉄赤塚",
          "chikatetsu akatsuka"
        ],
        "line": "TokyoMetroF",
        "order": 105,
        "display_name": "Chikatetsu-akatsuka (地下鉄赤塚)"
      },
      "id": 63
    },
    {
      "type": "Feature",
      "geometry": {
        "type": "Point",
        "coordinates": [
          139.831706,
          35.668439
        ]
      },
      "properties": {
        "id": 179,
        "name": "Minami-sunamachi (南砂町)",
        "alternate_names": [
          "南砂町",
          "minami sunamachi"
        ],
        "line": "TokyoMetroT",
        "order": 105,
        "display_name": "Minami-sunamachi (南砂町)"
      },
      "id": 179
    },
    {
      "type": "Feature",
      "geometry": {
        "type": "Point",
        "coordinates": [
          139.796398,
          35.709032
        ]
      },
      "properties": {
        "id": 311,
        "name": "Asakusa (浅草)",
        "alternate_names": [
          "浅草",
          "asakusa"
        ],
        "line": "ToeiSubwayA",
        "order": 105,
        "display_name": "Asakusa (浅草)"
      },
      "id": 311
    },
    {
      "type": "Feature",
      "geometry": {
        "type": "Point",
        "coordinates": [
          139.727384,
          35.719129
        ]
      },
      "properties": {
        "id": 154,
        "name": "Gokokuji (護国寺)",
        "alternate_names": [
          "護国寺",
          "gokokuji"
        ],
        "line": "TokyoMetroY",
        "order": 104,
        "display_name": "Gokokuji (護国寺)"
      },
      "id": 154
    },
    {
      "type": "Feature",
      "geometry": {
        "type": "Point",
        "coordinates": [
          139.753487,
          35.709571
        ]
      },
      "properties": {
        "id": 218,
        "name": "Kasuga (春日)",
        "alternate_names": [
          "春日",
          "kasuga"
        ],
        "line": "ToeiSubwayI",
        "order": 103,
        "display_name": "Kasuga (春日)"
      },
      "id": 218
    },
    {
      "type": "Feature",
      "geometry": {
        "type": "Point",
        "coordinates": [
          139.741617,
          35.685387
        ]
      },
      "properties": {
        "id": 95,
        "name": "Hanzomon (半蔵門)",
        "alternate_names": [
          "半蔵門",
          "hanzomon"
        ],
        "line": "TokyoMetroZ",
        "order": 102,
        "display_name": "Hanzomon (半蔵門)"
      },
      "id": 95
    },
    {
      "type": "Feature",
      "geometry": {
        "type": "Point",
        "coordinates": [
          139.752665,
          35.674211
        ]
      },
      "properties": {
        "id": 10,
        "name": "Kasumigaseki (霞ケ関)",
        "alternate_names": [
          "霞ケ関",
          "kasumigaseki"
        ],
        "line": "TokyoMetroM",
        "order": 101,
        "display_name": "Kasumigaseki (霞ケ関)"
      },
      "id": 10
    },
    {
      "type": "Feature",
      "geometry": {
        "type": "Point",
        "coordinates": [
          139.769973,
          35.706805
        ]
      },
      "properties": {
        "id": 73,
        "name": "Yushima (湯島)",
        "alternate_names": [
          "湯島",
          "yushima"
        ],
        "line": "TokyoMetroC",
        "order": 100,
        "display_name": "Yushima (湯島)"
      },
      "id": 73
    },
    {
      "type": "Feature",
      "geometry": {
        "type": "Point",
        "coordinates": [
          139.753805,
          35.724364
        ]
      },
      "properties": {
        "id": 106,
        "name": "Hon-komagome (本駒込)",
        "alternate_names": [
          "本駒込",
          "hon komagome"
        ],
        "line": "TokyoMetroN",
        "order": 99,
        "display_name": "Hon-komagome (本駒込)"
      },
      "id": 106
    },
    {
      "type": "Feature",
      "geometry": {
        "type": "Point",
        "coordinates": [
          139.741978,
          35.67151
        ]
      },
      "properties": {
        "id": 201,
        "name": "Tameike-sanno (溜池山王)",
        "alternate_names": [
          "溜池山王",
          "tameike sanno"
        ],
        "line": "TokyoMetroG",
        "order": 99,
        "display_name": "Tameike-sanno (溜池山王)"
      },
      "id": 201
    },
    {
      "type": "Feature",
      "geometry": {
        "type": "Point",
        "coordinates": [
          139.755322,
          35.703495
        ]
      },
      "properties": {
        "id": 217,
        "name": "Suidobashi (水道橋)",
        "alternate_names": [
          "水道橋",
          "suidobashi"
        ],
        "line": "ToeiSubwayI",
        "order": 99,
        "display_name": "Suidobashi (水道橋)"
      },
      "id": 217
    },
    {
      "type": "Feature",
      "geometry": {
        "type": "Point",
        "coordinates": [
          139.684608,
          35.689794
        ]
      },
      "properties": {
        "id": 243,
        "name": "Nishi-shinjuku-gochome (西新宿五丁目)",
        "alternate_names": [
          "西新宿五丁目",
          "nishi shinjuku gochome"
        ],
        "line": "ToeiSubwayE",
        "order": 99,
        "display_name": "Nishi-shinjuku-gochome (西新宿五丁目)"
      },
      "id": 243
    },
    {
      "type": "Feature",
      "geometry": {
        "type": "Point",
        "coordinates": [
          139.790821,
          35.703157
        ]
      },
      "properties": {
        "id": 310,
        "name": "Kuramae (蔵前)",
        "alternate_names": [
          "蔵前",
          "kuramae"
        ],
        "line": "ToeiSubwayA",
        "order": 98,
        "display_name": "Kuramae (蔵前)"
      },
      "id": 310
    },
    {
      "type": "Feature",
      "geometry": {
        "type": "Point",
        "coordinates": [
          139.74471,
          35.662634
        ]
      },
      "properties": {
        "id": 136,
        "name": "Kamiyacho (神谷町)",
        "alternate_names": [
          "神谷町",
          "kamiyacho"
        ],
        "line": "TokyoMetroH",
        "order": 97,
        "display_name": "Kamiyacho (神谷町)"
      },
      "id": 136
    },
    {
      "type": "Feature",
      "geometry": {
        "type": "Point",
        "coordinates": [
          139.734165,
          35.709357
        ]
      },
      "properties": {
        "id": 153,
        "name": "Edogawabashi (江戸川橋)",
        "alternate_names": [
          "江戸川橋",
          "edogawabashi"
        ],
        "line": "TokyoMetroY",
        "order": 97,
        "display_name": "Edogawabashi (江戸川橋)"
      },
      "id": 153
    },
    {
      "type": "Feature",
      "geometry": {
        "type": "Point",
        "coordinates": [
          139.817676,
          35.66963
        ]
      },
      "properties": {
        "id": 178,
        "name": "Toyocho (東陽町)",
        "alternate_names": [
          "東陽町",
          "toyocho"
        ],
        "line": "TokyoMetroT",
        "order": 97,
        "display_name": "Toyocho (東陽町)"
      },
      "id": 178
    },
    {
      "type": "Feature",
      "geometry": {
        "type": "Point",
        "coordinates": [
          139.807098,
          35.669427
        ]
      },
      "properties": {
        "id": 177,
        "name": "Kiba (木場)",
        "alternate_names": [
          "木場",
          "kiba"
        ],
        "line": "TokyoMetroT",
        "order": 93,
        "display_name": "Kiba (木場)"
      },
      "id": 177
    },
    {
      "type": "Feature",
      "geometry": {
        "type": "Point",
        "coordinates": [
          139.786383,
          35.697474
        ]
      },
      "properties": {
        "id": 309,
        "name": "Asakusabashi (浅草橋)",
        "alternate_names": [
          "浅草橋",
          "asakusabashi"
        ],
        "line": "ToeiSubwayA",
        "order": 93,
        "display_name": "Asakusabashi (浅草橋)"
      },
      "id": 309
    },
    {
      "type": "Feature",
      "geometry": {
        "type": "Point",
        "coordinates": [
          139.654274,
          35.757525
        ]
      },
      "properties": {
        "id": 62,
        "name": "Heiwadai (平和台)",
        "alternate_names": [
          "平和台",
          "heiwadai"
        ],
        "line": "TokyoMetroF",
        "order": 92,
        "display_name": "Heiwadai (平和台)"
      },
      "id": 62
    },
    {
      "type": "Feature",
      "geometry": {
        "type": "Point",
        "coordinates": [
          139.747741,
          35.667308
        ]
      },
      "properties": {
        "id": 135,
        "name": "Toranomon-hills (虎ノ門ヒルズ)",
        "alternate_names": [
          "虎ノ門ヒルズ",
          "toranomon hills"
        ],
        "line": "TokyoMetroH",
        "order": 92,
        "display_name": "Toranomon-hills (虎ノ門ヒルズ)"
      },
      "id": 135
    },
    {
      "type": "Feature",
      "geometry": {
        "type": "Point",
        "coordinates": [
          139.766513,
          35.694971
        ]
      },
      "properties": {
        "id": 287,
        "name": "ToeiSubway (小川町 Ogawamachi)",
        "alternate_names": [
          "小川町",
          "ogawamachi"
        ],
        "line": "ToeiSubwayS",
        "order": 92,
        "display_name": "ToeiSubway (小川町 Ogawamachi)"
      },
      "id": 287
    },
    {
      "type": "Feature",
      "geometry": {
        "type": "Point",
        "coordinates": [
          139.745807,
          35.674767
        ]
      },
      "properties": {
        "id": 9,
        "name": "Kokkai-gijidomae (国会議事堂前)",
        "alternate_names": [
          "国会議事堂前",
          "kokkai gijidomae"
        ],
        "line": "TokyoMetroM",
        "order": 91,
        "display_name": "Kokkai-gijidomae (国会議事堂前)"
      },
      "id": 9
    },
    {
      "type": "Feature",
      "geometry": {
        "type": "Point",
        "coordinates": [
          139.751138,
          35.695393
        ]
      },
      "properties": {
        "id": 94,
        "name": "Kudanshita (九段下)",
        "alternate_names": [
          "九段下",
          "kudanshita"
        ],
        "line": "TokyoMetroZ",
        "order": 90,
        "display_name": "Kudanshita (九段下)"
      },
      "id": 94
    },
    {
      "type": "Feature",
      "geometry": {
        "type": "Point",
        "coordinates": [
          139.784878,
          35.692124
        ]
      },
      "properties": {
        "id": 308,
        "name": "Higashi-nihombashi (東日本橋)",
        "alternate_names": [
          "東日本橋",
          "higashi nihombashi"
        ],
        "line": "ToeiSubwayA",
        "order": 90,
        "display_name": "Higashi-nihombashi (東日本橋)"
      },
      "id": 308
    },
    {
      "type": "Feature",
      "geometry": {
        "type": "Point",
        "coordinates": [
          139.751121,
          35.673852
        ]
      },
      "properties": {
        "id": 134,
        "name": "Kasumigaseki (霞ケ関)",
        "alternate_names": [
          "霞ケ関",
          "kasumigaseki"
        ],
        "line": "TokyoMetroH",
        "order": 88,
        "display_name": "Kasumigaseki (霞ケ関)"
      },
      "id": 134
    },
    {
      "type": "Feature",
      "geometry": {
        "type": "Point",
        "coordinates": [
          139.750117,
          35.670154
        ]
      },
      "properties": {
        "id": 200,
        "name": "Toranomon (虎ノ門)",
        "alternate_names": [
          "虎ノ門",
          "toranomon"
        ],
        "line": "TokyoMetroG",
        "order": 88,
        "display_name": "Toranomon (虎ノ門)"
      },
      "id": 200
    },
    {
      "type": "Feature",
      "geometry": {
        "type": "Point",
        "coordinates": [
          139.75842,
          35.695358
        ]
      },
      "properties": {
        "id": 216,
        "name": "Jimbocho (神保町)",
        "alternate_names": [
          "神保町",
          "jimbocho"
        ],
        "line": "ToeiSubwayI",
        "order": 88,
        "display_name": "Jimbocho (神保町)"
      },
      "id": 216
    },
    {
      "type": "Feature",
      "geometry": {
        "type": "Point",
        "coordinates": [
          139.796103,
          35.671898
        ]
      },
      "properties": {
        "id": 176,
        "name": "Monzen-nakacho (門前仲町)",
        "alternate_names": [
          "門前仲町",
          "monzen nakacho"
        ],
        "line": "TokyoMetroT",
        "order": 87,
        "display_name": "Monzen-nakacho (門前仲町)"
      },
      "id": 176
    },
    {
      "type": "Feature",
      "geometry": {
        "type": "Point",
        "coordinates": [
          139.665478,
          35.749632
        ]
      },
      "properties": {
        "id": 61,
        "name": "Hikawadai (氷川台)",
        "alternate_names": [
          "氷川台",
          "hikawadai"
        ],
        "line": "TokyoMetroF",
        "order": 86,
        "display_name": "Hikawadai (氷川台)"
      },
      "id": 61
    },
    {
      "type": "Feature",
      "geometry": {
        "type": "Point",
        "coordinates": [
          139.757566,
          35.695889
        ]
      },
      "properties": {
        "id": 93,
        "name": "Jimbocho (神保町)",
        "alternate_names": [
          "神保町",
          "jimbocho"
        ],
        "line": "TokyoMetroZ",
        "order": 86,
        "display_name": "Jimbocho (神保町)"
      },
      "id": 93
    },
    {
      "type": "Feature",
      "geometry": {
        "type": "Point",
        "coordinates": [
          139.683064,
          35.697879
        ]
      },
      "properties": {
        "id": 242,
        "name": "Nakano-sakaue (中野坂上)",
        "alternate_names": [
          "中野坂上",
          "nakano sakaue"
        ],
        "line": "ToeiSubwayE",
        "order": 86,
        "display_name": "Nakano-sakaue (中野坂上)"
      },
      "id": 242
    },
    {
      "type": "Feature",
      "geometry": {
        "type": "Point",
        "coordinates": [
          139.77511,
          35.695531
        ]
      },
      "properties": {
        "id": 286,
        "name": "Iwamotocho (岩本町)",
        "alternate_names": [
          "岩本町",
          "iwamotocho"
        ],
        "line": "ToeiSubwayS",
        "order": 86,
        "display_name": "Iwamotocho (岩本町)"
      },
      "id": 286
    },
    {
      "type": "Feature",
      "geometry": {
        "type": "Point",
        "coordinates": [
          139.765744,
          35.71736
        ]
      },
      "properties": {
        "id": 72,
        "name": "Nezu (根津)",
        "alternate_names": [
          "根津",
          "nezu"
        ],
        "line": "TokyoMetroC",
        "order": 85,
        "display_name": "Nezu (根津)"
      },
      "id": 72
    },
    {
      "type": "Feature",
      "geometry": {
        "type": "Point",
        "coordinates": [
          139.74318,
          35.70122
        ]
      },
      "properties": {
        "id": 152,
        "name": "Iidabashi (飯田橋)",
        "alternate_names": [
          "飯田橋",
          "iidabashi"
        ],
        "line": "TokyoMetroY",
        "order": 84,
        "display_name": "Iidabashi (飯田橋)"
      },
      "id": 152
    },
    {
      "type": "Feature",
      "geometry": {
        "type": "Point",
        "coordinates": [
          139.758514,
          35.667386
        ]
      },
      "properties": {
        "id": 199,
        "name": "Shimbashi (新橋)",
        "alternate_names": [
          "新橋",
          "shimbashi"
        ],
        "line": "TokyoMetroG",
        "order": 84,
        "display_name": "Shimbashi (新橋)"
      },
      "id": 199
    },
    {
      "type": "Feature",
      "geometry": {
        "type": "Point",
        "coordinates": [
          139.67952,
          35.74336
        ]
      },
      "properties": {
        "id": 60,
        "name": "Kotake-mukaihara (小竹向原)",
        "alternate_names": [
          "小竹向原",
          "kotake mukaihara"
        ],
        "line": "TokyoMetroF",
        "order": 81,
        "display_name": "Kotake-mukaihara (小竹向原)"
      },
      "id": 60
    },
    {
      "type": "Feature",
      "geometry": {
        "type": "Point",
        "coordinates": [
          139.782229,
          35.686371
        ]
      },
      "properties": {
        "id": 307,
        "name": "Ningyocho (人形町)",
        "alternate_names": [
          "人形町",
          "ningyocho"
        ],
        "line": "ToeiSubwayA",
        "order": 81,
        "display_name": "Ningyocho (人形町)"
      },
      "id": 307
    },
    {
      "type": "Feature",
      "geometry": {
        "type": "Point",
        "coordinates": [
          139.746835,
          35.735897
        ]
      },
      "properties": {
        "id": 105,
        "name": "Komagome (駒込)",
        "alternate_names": [
          "駒込",
          "komagome"
        ],
        "line": "TokyoMetroN",
        "order": 79,
        "display_name": "Komagome (駒込)"
      },
      "id": 105
    },
    {
      "type": "Feature",
      "geometry": {
        "type": "Point",
        "coordinates": [
          139.736835,
          35.692585
        ]
      },
      "properties": {
        "id": 151,
        "name": "Ichigaya (市ケ谷)",
        "alternate_names": [
          "市ケ谷",
          "ichigaya"
        ],
        "line": "TokyoMetroY",
        "order": 79,
        "display_name": "Ichigaya (市ケ谷)"
      },
      "id": 151
    },
    {
      "type": "Feature",
      "geometry": {
        "type": "Point",
        "coordinates": [
          139.689442,
          35.738212
        ]
      },
      "properties": {
        "id": 59,
        "name": "Senkawa (千川)",
        "alternate_names": [
          "千川",
          "senkawa"
        ],
        "line": "TokyoMetroF",
        "order": 78,
        "display_name": "Senkawa (千川)"
      },
      "id": 59
    },
    {
      "type": "Feature",
      "geometry": {
        "type": "Point",
        "coordinates": [
          139.779275,
          35.680355
        ]
      },
      "properties": {
        "id": 175,
        "name": "Kayabacho (茅場町)",
        "alternate_names": [
          "茅場町",
          "kayabacho"
        ],
        "line": "TokyoMetroT",
        "order": 78,
        "display_name": "Kayabacho (茅場町)"
      },
      "id": 175
    },
    {
      "type": "Feature",
      "geometry": {
        "type": "Point",
        "coordinates": [
          139.782985,
          35.691915
        ]
      },
      "properties": {
        "id": 285,
        "name": "Bakuro-yokoyama (馬喰横山)",
        "alternate_names": [
          "馬喰横山",
          "bakuro yokoyama"
        ],
        "line": "ToeiSubwayS",
        "order": 78,
        "display_name": "Bakuro-yokoyama (馬喰横山)"
      },
      "id": 285
    },
    {
      "type": "Feature",
      "geometry": {
        "type": "Point",
        "coordinates": [
          139.760603,
          35.674275
        ]
      },
      "properties": {
        "id": 133,
        "name": "Hibiya (日比谷)",
        "alternate_names": [
          "日比谷",
          "hibiya"
        ],
        "line": "TokyoMetroH",
        "order": 77,
        "display_name": "Hibiya (日比谷)"
      },
      "id": 133
    },
    {
      "type": "Feature",
      "geometry": {
        "type": "Point",
        "coordinates": [
          139.774155,
          35.68245
        ]
      },
      "properties": {
        "id": 174,
        "name": "Nihombashi (日本橋)",
        "alternate_names": [
          "日本橋",
          "nihombashi"
        ],
        "line": "TokyoMetroT",
        "order": 76,
        "display_name": "Nihombashi (日本橋)"
      },
      "id": 174
    },
    {
      "type": "Feature",
      "geometry": {
        "type": "Point",
        "coordinates": [
          139.775791,
          35.681762
        ]
      },
      "properties": {
        "id": 306,
        "name": "Nihombashi (日本橋)",
        "alternate_names": [
          "日本橋",
          "nihombashi"
        ],
        "line": "ToeiSubwayA",
        "order": 76,
        "display_name": "Nihombashi (日本橋)"
      },
      "id": 306
    },
    {
      "type": "Feature",
      "geometry": {
        "type": "Point",
        "coordinates": [
          139.7373,
          35.67683
        ]
      },
      "properties": {
        "id": 8,
        "name": "Akasaka-mitsuke (赤坂見附)",
        "alternate_names": [
          "赤坂見附",
          "akasaka mitsuke"
        ],
        "line": "TokyoMetroM",
        "order": 75,
        "display_name": "Akasaka-mitsuke (赤坂見附)"
      },
      "id": 8
    },
    {
      "type": "Feature",
      "geometry": {
        "type": "Point",
        "coordinates": [
          139.763337,
          35.725739
        ]
      },
      "properties": {
        "id": 71,
        "name": "Sendagi (千駄木)",
        "alternate_names": [
          "千駄木",
          "sendagi"
        ],
        "line": "TokyoMetroC",
        "order": 75,
        "display_name": "Sendagi (千駄木)"
      },
      "id": 71
    },
    {
      "type": "Feature",
      "geometry": {
        "type": "Point",
        "coordinates": [
          139.766927,
          35.685927
        ]
      },
      "properties": {
        "id": 173,
        "name": "Otemachi (大手町)",
        "alternate_names": [
          "大手町",
          "otemachi"
        ],
        "line": "TokyoMetroT",
        "order": 75,
        "display_name": "Otemachi (大手町)"
      },
      "id": 173
    },
    {
      "type": "Feature",
      "geometry": {
        "type": "Point",
        "coordinates": [
          139.771986,
          35.675598
        ]
      },
      "properties": {
        "id": 305,
        "name": "Takaracho (宝町)",
        "alternate_names": [
          "宝町",
          "takaracho"
        ],
        "line": "ToeiSubwayA",
        "order": 75,
        "display_name": "Takaracho (宝町)"
      },
      "id": 305
    },
    {
      "type": "Feature",
      "geometry": {
        "type": "Point",
        "coordinates": [
          139.757637,
          35.690395
        ]
      },
      "properties": {
        "id": 172,
        "name": "Takebashi (竹橋)",
        "alternate_names": [
          "竹橋",
          "takebashi"
        ],
        "line": "TokyoMetroT",
        "order": 74,
        "display_name": "Takebashi (竹橋)"
      },
      "id": 172
    },
    {
      "type": "Feature",
      "geometry": {
        "type": "Point",
        "coordinates": [
          139.698493,
          35.733266
        ]
      },
      "properties": {
        "id": 58,
        "name": "Kanamecho (要町)",
        "alternate_names": [
          "要町",
          "kanamecho"
        ],
        "line": "TokyoMetroF",
        "order": 73,
        "display_name": "Kanamecho (要町)"
      },
      "id": 58
    },
    {
      "type": "Feature",
      "geometry": {
        "type": "Point",
        "coordinates": [
          139.765348,
          35.671513
        ]
      },
      "properties": {
        "id": 198,
        "name": "Ginza (銀座)",
        "alternate_names": [
          "銀座",
          "ginza"
        ],
        "line": "TokyoMetroG",
        "order": 73,
        "display_name": "Ginza (銀座)"
      },
      "id": 198
    },
    {
      "type": "Feature",
      "geometry": {
        "type": "Point",
        "coordinates": [
          139.683282,
          35.70711
        ]
      },
      "properties": {
        "id": 241,
        "name": "Higashi-Nakano (東中野)",
        "alternate_names": [
          "東中野",
          "higashi nakano"
        ],
        "line": "ToeiSubwayE",
        "order": 73,
        "display_name": "Higashi-Nakano (東中野)"
      },
      "id": 241
    },
    {
      "type": "Feature",
      "geometry": {
        "type": "Point",
        "coordinates": [
          139.787712,
          35.688577
        ]
      },
      "properties": {
        "id": 284,
        "name": "Hamacho (浜町)",
        "alternate_names": [
          "浜町",
          "hamacho"
        ],
        "line": "ToeiSubwayS",
        "order": 73,
        "display_name": "Hamacho (浜町)"
      },
      "id": 284
    },
    {
      "type": "Feature",
      "geometry": {
        "type": "Point",
        "coordinates": [
          139.764039,
          35.672002
        ]
      },
      "properties": {
        "id": 132,
        "name": "Ginza (銀座)",
        "alternate_names": [
          "銀座",
          "ginza"
        ],
        "line": "TokyoMetroH",
        "order": 72,
        "display_name": "Ginza (銀座)"
      },
      "id": 132
    },
    {
      "type": "Feature",
      "geometry": {
        "type": "Point",
        "coordinates": [
          139.764894,
          35.686699
        ]
      },
      "properties": {
        "id": 92,
        "name": "Otemachi (大手町)",
        "alternate_names": [
          "大手町",
          "otemachi"
        ],
        "line": "TokyoMetroZ",
        "order": 71,
        "display_name": "Otemachi (大手町)"
      },
      "id": 92
    },
    {
      "type": "Feature",
      "geometry": {
        "type": "Point",
        "coordinates": [
          139.737343,
          35.684783
        ]
      },
      "properties": {
        "id": 150,
        "name": "Kojimachi (麴町)",
        "alternate_names": [
          "麴町",
          "kojimachi"
        ],
        "line": "TokyoMetroY",
        "order": 71,
        "display_name": "Kojimachi (麴町)"
      },
      "id": 150
    },
    {
      "type": "Feature",
      "geometry": {
        "type": "Point",
        "coordinates": [
          139.767329,
          35.669928
        ]
      },
      "properties": {
        "id": 304,
        "name": "Higashi-ginza (東銀座)",
        "alternate_names": [
          "東銀座",
          "higashi ginza"
        ],
        "line": "ToeiSubwayA",
        "order": 71,
        "display_name": "Higashi-ginza (東銀座)"
      },
      "id": 304
    },
    {
      "type": "Feature",
      "geometry": {
        "type": "Point",
        "coordinates": [
          139.686443,
          35.713889
        ]
      },
      "properties": {
        "id": 240,
        "name": "Nakai (中井)",
        "alternate_names": [
          "中井",
          "nakai"
        ],
        "line": "ToeiSubwayE",
        "order": 70,
        "display_name": "Nakai (中井)"
      },
      "id": 240
    },
    {
      "type": "Feature",
      "geometry": {
        "type": "Point",
        "coordinates": [
          139.763002,
          35.684052
        ]
      },
      "properties": {
        "id": 215,
        "name": "Otemachi (大手町)",
        "alternate_names": [
          "大手町",
          "otemachi"
        ],
        "line": "ToeiSubwayI",
        "order": 68,
        "display_name": "Otemachi (大手町)"
      },
      "id": 215
    },
    {
      "type": "Feature",
      "geometry": {
        "type": "Point",
        "coordinates": [
          139.767616,
          35.669071
        ]
      },
      "properties": {
        "id": 131,
        "name": "Higashi-ginza (東銀座)",
        "alternate_names": [
          "東銀座",
          "higashi ginza"
        ],
        "line": "TokyoMetroH",
        "order": 67,
        "display_name": "Higashi-ginza (東銀座)"
      },
      "id": 131
    },
    {
      "type": "Feature",
      "geometry": {
        "type": "Point",
        "coordinates": [
          139.77258,
          35.6681
        ]
      },
      "properties": {
        "id": 130,
        "name": "Tsukiji (築地)",
        "alternate_names": [
          "築地",
          "tsukiji"
        ],
        "line": "TokyoMetroH",
        "order": 66,
        "display_name": "Tsukiji (築地)"
      },
      "id": 130
    },
    {
      "type": "Feature",
      "geometry": {
        "type": "Point",
        "coordinates": [
          139.770065,
          35.676722
        ]
      },
      "properties": {
        "id": 197,
        "name": "Kyobashi (京橋)",
        "alternate_names": [
          "京橋",
          "kyobashi"
        ],
        "line": "TokyoMetroG",
        "order": 66,
        "display_name": "Kyobashi (京橋)"
      },
      "id": 197
    },
    {
      "type": "Feature",
      "geometry": {
        "type": "Point",
        "coordinates": [
          139.796625,
          35.68792
        ]
      },
      "properties": {
        "id": 283,
        "name": "Morishita (森下)",
        "alternate_names": [
          "森下",
          "morishita"
        ],
        "line": "ToeiSubwayS",
        "order": 66,
        "display_name": "Morishita (森下)"
      },
      "id": 283
    },
    {
      "type": "Feature",
      "geometry": {
        "type": "Point",
        "coordinates": [
          139.751152,
          35.696023
        ]
      },
      "properties": {
        "id": 171,
        "name": "Kudanshita (九段下)",
        "alternate_names": [
          "九段下",
          "kudanshita"
        ],
        "line": "TokyoMetroT",
        "order": 65,
        "display_name": "Kudanshita (九段下)"
      },
      "id": 171
    },
    {
      "type": "Feature",
      "geometry": {
        "type": "Point",
        "coordinates": [
          139.760471,
          35.67654
        ]
      },
      "properties": {
        "id": 214,
        "name": "Hibiya (日比谷)",
        "alternate_names": [
          "日比谷",
          "hibiya"
        ],
        "line": "ToeiSubwayI",
        "order": 65,
        "display_name": "Hibiya (日比谷)"
      },
      "id": 214
    },
    {
      "type": "Feature",
      "geometry": {
        "type": "Point",
        "coordinates": [
          139.711117,
          35.730285
        ]
      },
      "properties": {
        "id": 57,
        "name": "Ikebukuro (池袋)",
        "alternate_names": [
          "池袋",
          "ikebukuro"
        ],
        "line": "TokyoMetroF",
        "order": 64,
        "display_name": "Ikebukuro (池袋)"
      },
      "id": 57
    },
    {
      "type": "Feature",
      "geometry": {
        "type": "Point",
        "coordinates": [
          139.766863,
          35.732392
        ]
      },
      "properties": {
        "id": 70,
        "name": "Nishi-nippori (西日暮里)",
        "alternate_names": [
          "西日暮里",
          "nishi nippori"
        ],
        "line": "TokyoMetroC",
        "order": 64,
        "display_name": "Nishi-nippori (西日暮里)"
      },
      "id": 70
    },
    {
      "type": "Feature",
      "geometry": {
        "type": "Point",
        "coordinates": [
          139.773113,
          35.684917
        ]
      },
      "properties": {
        "id": 91,
        "name": "Mitsukoshimae (三越前)",
        "alternate_names": [
          "三越前",
          "mitsukoshimae"
        ],
        "line": "TokyoMetroZ",
        "order": 64,
        "display_name": "Mitsukoshimae (三越前)"
      },
      "id": 91
    },
    {
      "type": "Feature",
      "geometry": {
        "type": "Point",
        "coordinates": [
          139.746346,
          35.701298
        ]
      },
      "properties": {
        "id": 170,
        "name": "Iidabashi (飯田橋)",
        "alternate_names": [
          "飯田橋",
          "iidabashi"
        ],
        "line": "TokyoMetroT",
        "order": 64,
        "display_name": "Iidabashi (飯田橋)"
      },
      "id": 170
    },
    {
      "type": "Feature",
      "geometry": {
        "type": "Point",
        "coordinates": [
          139.806108,
          35.688348
        ]
      },
      "properties": {
        "id": 282,
        "name": "Kikukawa (菊川)",
        "alternate_names": [
          "菊川",
          "kikukawa"
        ],
        "line": "ToeiSubwayS",
        "order": 64,
        "display_name": "Kikukawa (菊川)"
      },
      "id": 282
    },
    {
      "type": "Feature",
      "geometry": {
        "type": "Point",
        "coordinates": [
          139.773302,
          35.681892
        ]
      },
      "properties": {
        "id": 196,
        "name": "Nihombashi (日本橋)",
        "alternate_names": [
          "日本橋",
          "nihombashi"
        ],
        "line": "TokyoMetroG",
        "order": 62,
        "display_name": "Nihombashi (日本橋)"
      },
      "id": 196
    },
    {
      "type": "Feature",
      "geometry": {
        "type": "Point",
        "coordinates": [
          139.74173,
          35.677807
        ]
      },
      "properties": {
        "id": 149,
        "name": "Nagatacho (永田町)",
        "alternate_names": [
          "永田町",
          "nagatacho"
        ],
        "line": "TokyoMetroY",
        "order": 61,
        "display_name": "Nagatacho (永田町)"
      },
      "id": 149
    },
    {
      "type": "Feature",
      "geometry": {
        "type": "Point",
        "coordinates": [
          139.759352,
          35.665378
        ]
      },
      "properties": {
        "id": 303,
        "name": "Shimbashi (新橋)",
        "alternate_names": [
          "新橋",
          "shimbashi"
        ],
        "line": "ToeiSubwayA",
        "order": 61,
        "display_name": "Shimbashi (新橋)"
      },
      "id": 303
    },
    {
      "type": "Feature",
      "geometry": {
        "type": "Point",
        "coordinates": [
          139.815758,
          35.688954
        ]
      },
      "properties": {
        "id": 281,
        "name": "Sumiyoshi (住吉)",
        "alternate_names": [
          "住吉",
          "sumiyoshi"
        ],
        "line": "ToeiSubwayS",
        "order": 60,
        "display_name": "Sumiyoshi (住吉)"
      },
      "id": 281
    },
    {
      "type": "Feature",
      "geometry": {
        "type": "Point",
        "coordinates": [
          139.777253,
          35.675402
        ]
      },
      "properties": {
        "id": 129,
        "name": "Hatchobori (八丁堀)",
        "alternate_names": [
          "八丁堀",
          "hatchobori"
        ],
        "line": "TokyoMetroH",
        "order": 58,
        "display_name": "Hatchobori (八丁堀)"
      },
      "id": 129
    },
    {
      "type": "Feature",
      "geometry": {
        "type": "Point",
        "coordinates": [
          139.779597,
          35.679087
        ]
      },
      "properties": {
        "id": 128,
        "name": "Kayabacho (茅場町)",
        "alternate_names": [
          "茅場町",
          "kayabacho"
        ],
        "line": "TokyoMetroH",
        "order": 57,
        "display_name": "Kayabacho (茅場町)"
      },
      "id": 128
    },
    {
      "type": "Feature",
      "geometry": {
        "type": "Point",
        "coordinates": [
          139.826234,
          35.689322
        ]
      },
      "properties": {
        "id": 280,
        "name": "Nishi-ojima (西大島)",
        "alternate_names": [
          "西大島",
          "nishi ojima"
        ],
        "line": "ToeiSubwayS",
        "order": 57,
        "display_name": "Nishi-ojima (西大島)"
      },
      "id": 280
    },
    {
      "type": "Feature",
      "geometry": {
        "type": "Point",
        "coordinates": [
          139.7555,
          35.669281
        ]
      },
      "properties": {
        "id": 213,
        "name": "Uchisaiwaicho (内幸町)",
        "alternate_names": [
          "内幸町",
          "uchisaiwaicho"
        ],
        "line": "ToeiSubwayI",
        "order": 56,
        "display_name": "Uchisaiwaicho (内幸町)"
      },
      "id": 213
    },
    {
      "type": "Feature",
      "geometry": {
        "type": "Point",
        "coordinates": [
          139.683511,
          35.723485
        ]
      },
      "properties": {
        "id": 239,
        "name": "Ochiai-minami-nagasaki (落合南長崎)",
        "alternate_names": [
          "落合南長崎",
          "ochiai minami nagasaki"
        ],
        "line": "ToeiSubwayE",
        "order": 56,
        "display_name": "Ochiai-minami-nagasaki (落合南長崎)"
      },
      "id": 239
    },
    {
      "type": "Feature",
      "geometry": {
        "type": "Point",
        "coordinates": [
          139.75464,
          35.656873
        ]
      },
      "properties": {
        "id": 302,
        "name": "Daimon (大門)",
        "alternate_names": [
          "大門",
          "daimon"
        ],
        "line": "ToeiSubwayA",
        "order": 56,
        "display_name": "Daimon (大門)"
      },
      "id": 302
    },
    {
      "type": "Feature",
      "geometry": {
        "type": "Point",
        "coordinates": [
          139.742276,
          35.745955
        ]
      },
      "properties": {
        "id": 104,
        "name": "Nishigahara (西ケ原)",
        "alternate_names": [
          "西ケ原",
          "nishigahara"
        ],
        "line": "TokyoMetroN",
        "order": 55,
        "display_name": "Nishigahara (西ケ原)"
      },
      "id": 104
    },
    {
      "type": "Feature",
      "geometry": {
        "type": "Point",
        "coordinates": [
          139.734506,
          35.703817
        ]
      },
      "properties": {
        "id": 169,
        "name": "Kagurazaka (神楽坂)",
        "alternate_names": [
          "神楽坂",
          "kagurazaka"
        ],
        "line": "TokyoMetroT",
        "order": 54,
        "display_name": "Kagurazaka (神楽坂)"
      },
      "id": 169
    },
    {
      "type": "Feature",
      "geometry": {
        "type": "Point",
        "coordinates": [
          139.773588,
          35.687175
        ]
      },
      "properties": {
        "id": 195,
        "name": "Mitsukoshimae (三越前)",
        "alternate_names": [
          "三越前",
          "mitsukoshimae"
        ],
        "line": "TokyoMetroG",
        "order": 54,
        "display_name": "Mitsukoshimae (三越前)"
      },
      "id": 195
    },
    {
      "type": "Feature",
      "geometry": {
        "type": "Point",
        "coordinates": [
          139.729979,
          35.684195
        ]
      },
      "properties": {
        "id": 7,
        "name": "Yotsuya (四ツ谷)",
        "alternate_names": [
          "四ツ谷",
          "yotsuya"
        ],
        "line": "TokyoMetroM",
        "order": 53,
        "display_name": "Yotsuya (四ツ谷)"
      },
      "id": 7
    },
    {
      "type": "Feature",
      "geometry": {
        "type": "Point",
        "coordinates": [
          139.780061,
          35.742062
        ]
      },
      "properties": {
        "id": 69,
        "name": "Machiya (町屋)",
        "alternate_names": [
          "町屋",
          "machiya"
        ],
        "line": "TokyoMetroC",
        "order": 53,
        "display_name": "Machiya (町屋)"
      },
      "id": 69
    },
    {
      "type": "Feature",
      "geometry": {
        "type": "Point",
        "coordinates": [
          139.751512,
          35.660727
        ]
      },
      "properties": {
        "id": 212,
        "name": "Onarimon (御成門)",
        "alternate_names": [
          "御成門",
          "onarimon"
        ],
        "line": "ToeiSubwayI",
        "order": 52,
        "display_name": "Onarimon (御成門)"
      },
      "id": 212
    },
    {
      "type": "Feature",
      "geometry": {
        "type": "Point",
        "coordinates": [
          139.714713,
          35.720201
        ]
      },
      "properties": {
        "id": 56,
        "name": "Zoshigaya (雑司が谷)",
        "alternate_names": [
          "雑司が谷",
          "zoshigaya"
        ],
        "line": "TokyoMetroF",
        "order": 51,
        "display_name": "Zoshigaya (雑司が谷)"
      },
      "id": 56
    },
    {
      "type": "Feature",
      "geometry": {
        "type": "Point",
        "coordinates": [
          139.751903,
          35.677366
        ]
      },
      "properties": {
        "id": 148,
        "name": "Sakuradamon (桜田門)",
        "alternate_names": [
          "桜田門",
          "sakuradamon"
        ],
        "line": "TokyoMetroY",
        "order": 51,
        "display_name": "Sakuradamon (桜田門)"
      },
      "id": 148
    },
    {
      "type": "Feature",
      "geometry": {
        "type": "Point",
        "coordinates": [
          139.83471,
          35.689718
        ]
      },
      "properties": {
        "id": 279,
        "name": "Ojima (大島)",
        "alternate_names": [
          "大島",
          "ojima"
        ],
        "line": "ToeiSubwayS",
        "order": 51,
        "display_name": "Ojima (大島)"
      },
      "id": 279
    },
    {
      "type": "Feature",
      "geometry": {
        "type": "Point",
        "coordinates": [
          139.770887,
          35.693714
        ]
      },
      "properties": {
        "id": 194,
        "name": "Kanda (神田)",
        "alternate_names": [
          "神田",
          "kanda"
        ],
        "line": "TokyoMetroG",
        "order": 49,
        "display_name": "Kanda (神田)"
      },