{
  "type": "FeatureCollection",
  "features": [
    {
      "type": "Feature",
      "geometry": {
        "type": "Point",
        "coordinates": [
          -122.304897,
          49.133726
        ]
      },
      "properties": {
        "id": 73,
        "name": "Mission City",
        "line": "VancouverWestCoastExpressWce",
        "order": 654
      },
      "id": 73
    },
    {
      "type": "Feature",
      "geometry": {
        "type": "Point",
        "coordinates": [
          -122.605267,
          49.212154
        ]
      },
      "properties": {
        "id": 72,
        "name": "Port Haney",
        "line": "VancouverWestCoastExpressWce",
        "order": 300
      },
      "id": 72
    },
    {
      "type": "Feature",
      "geometry": {
        "type": "Point",
        "coordinates": [
          -122.918222,
          49.253418
        ]
      },
      "properties": {
        "id": 36,
        "name": "Production Way-University",
        "line": "VancouverSkytrainExpoLine",
        "order": 277
      },
      "id": 36
    },
    {
      "type": "Feature",
      "geometry": {
        "type": "Point",
        "coordinates": [
          -122.844736,
          49.182791
        ]
      },
      "properties": {
        "id": 40,
        "name": "King George",
        "line": "VancouverSkytrainExpoLine",
        "order": 270
      },
      "id": 40
    },
    {
      "type": "Feature",
      "geometry": {
        "type": "Point",
        "coordinates": [
          -122.666308,
          49.216501
        ]
      },
      "properties": {
        "id": 71,
        "name": "Maple Meadows",
        "line": "VancouverWestCoastExpressWce",
        "order": 270
      },
      "id": 71
    },
    {
      "type": "Feature",
      "geometry": {
        "type": "Point",
        "coordinates": [
          -122.896845,
          49.248482
        ]
      },
      "properties": {
        "id": 35,
        "name": "Lougheed Town Centre",
        "line": "VancouverSkytrainExpoLine",
        "order": 264
      },
      "id": 35
    },
    {
      "type": "Feature",
      "geometry": {
        "type": "Point",
        "coordinates": [
          -122.688319,
          49.225856
        ]
      },
      "properties": {
        "id": 70,
        "name": "Pitt Meadows",
        "line": "VancouverWestCoastExpressWce",
        "order": 264
      },
      "id": 70
    },
    {
      "type": "Feature",
      "geometry": {
        "type": "Point",
        "coordinates": [
          -122.847869,
          49.189562
        ]
      },
      "properties": {
        "id": 39,
        "name": "Surrey Central",
        "line": "VancouverSkytrainExpoLine",
        "order": 256
      },
      "id": 39
    },
    {
      "type": "Feature",
      "geometry": {
        "type": "Point",
        "coordinates": [
          -122.850601,
          49.198955
        ]
      },
      "properties": {
        "id": 38,
        "name": "Gateway",
        "line": "VancouverSkytrainExpoLine",
        "order": 246
      },
      "id": 38
    },
    {
      "type": "Feature",
      "geometry": {
        "type": "Point",
        "coordinates": [
          -122.882794,
          49.23324
        ]
      },
      "properties": {
        "id": 34,
        "name": "Braid",
        "line": "VancouverSkytrainExpoLine",
        "order": 241
      },
      "id": 34
    },
    {
      "type": "Feature",
      "geometry": {
        "type": "Point",
        "coordinates": [
          -122.773989,
          49.261503
        ]
      },
      "properties": {
        "id": 69,
        "name": "Port Coquitlam",
        "line": "VancouverWestCoastExpressWce",
        "order": 240
      },
      "id": 69
    },
    {
      "type": "Feature",
      "geometry": {
        "type": "Point",
        "coordinates": [
          -122.889388,
          49.22466
        ]
      },
      "properties": {
        "id": 33,
        "name": "Sapperton",
        "line": "VancouverSkytrainExpoLine",
        "order": 231
      },
      "id": 33
    },
    {
      "type": "Feature",
      "geometry": {
        "type": "Point",
        "coordinates": [
          -122.80052,
          49.274259
        ]
      },
      "properties": {
        "id": 68,
        "name": "Coquitlam Central",
        "line": "VancouverWestCoastExpressWce",
        "order": 226
      },
      "id": 68
    },
    {
      "type": "Feature",
      "geometry": {
        "type": "Point",
        "coordinates": [
          -122.874199,
          49.204428
        ]
      },
      "properties": {
        "id": 37,
        "name": "Scott Road",
        "line": "VancouverSkytrainExpoLine",
        "order": 223
      },
      "id": 37
    },
    {
      "type": "Feature",
      "geometry": {
        "type": "Point",
        "coordinates": [
          -122.791567,
          49.285724
        ]
      },
      "properties": {
        "id": 63,
        "name": "Lafarge Lake-Douglas",
        "line": "VancouverSkytrainMillenniumLine",
        "order": 212
      },
      "id": 63
    },
    {
      "type": "Feature",
      "geometry": {
        "type": "Point",
        "coordinates": [
          -122.906137,
          49.204794
        ]
      },
      "properties": {
        "id": 32,
        "name": "Columbia",
        "line": "VancouverSkytrainExpoLine",
        "order": 207
      },
      "id": 32
    },
    {
      "type": "Feature",
      "geometry": {
        "type": "Point",
        "coordinates": [
          -122.84603,
          49.278111
        ]
      },
      "properties": {
        "id": 67,
        "name": "Moody Centre",
        "line": "VancouverWestCoastExpressWce",
        "order": 207
      },
      "id": 67
    },
    {
      "type": "Feature",
      "geometry": {
        "type": "Point",
        "coordinates": [
          -122.912612,
          49.201435
        ]
      },
      "properties": {
        "id": 31,
        "name": "New Westminster",
        "line": "VancouverSkytrainExpoLine",
        "order": 205
      },
      "id": 31
    },
    {
      "type": "Feature",
      "geometry": {
        "type": "Point",
        "coordinates": [
          -122.793963,
          49.280439
        ]
      },
      "properties": {
        "id": 62,
        "name": "Lincoln",
        "line": "VancouverSkytrainMillenniumLine",
        "order": 204
      },
      "id": 62
    },
    {
      "type": "Feature",
      "geometry": {
        "type": "Point",
        "coordinates": [
          -122.8009,
          49.2749
        ]
      },
      "properties": {
        "id": 61,
        "name": "Coquitlam Central",
        "line": "VancouverSkytrainMillenniumLine",
        "order": 194
      },
      "id": 61
    },
    {
      "type": "Feature",
      "geometry": {
        "type": "Point",
        "coordinates": [
          -122.828194,
          49.27719
        ]
      },
      "properties": {
        "id": 60,
        "name": "Inlet Centre",
        "line": "VancouverSkytrainMillenniumLine",
        "order": 180
      },
      "id": 60
    },
    {
      "type": "Feature",
      "geometry": {
        "type": "Point",
        "coordinates": [
          -122.948974,
          49.200049
        ]
      },
      "properties": {
        "id": 30,
        "name": "22nd Street",
        "line": "VancouverSkytrainExpoLine",
        "order": 170
      },
      "id": 30
    },
    {
      "type": "Feature",
      "geometry": {
        "type": "Point",
        "coordinates": [
          -122.846034,
          49.278014
        ]
      },
      "properties": {
        "id": 59,
        "name": "Moody Centre",
        "line": "VancouverSkytrainMillenniumLine",
        "order": 168
      },
      "id": 59
    },
    {
      "type": "Feature",
      "geometry": {
        "type": "Point",
        "coordinates": [
          -122.889821,
          49.261394
        ]
      },
      "properties": {
        "id": 58,
        "name": "Burquitlam",
        "line": "VancouverSkytrainMillenniumLine",
        "order": 139
      },
      "id": 58
    },
    {
      "type": "Feature",
      "geometry": {
        "type": "Point",
        "coordinates": [
          -122.959095,
          49.211939
        ]
      },
      "properties": {
        "id": 29,
        "name": "Edmonds",
        "line": "VancouverSkytrainExpoLine",
        "order": 133
      },
      "id": 29
    },
    {
      "type": "Feature",
      "geometry": {
        "type": "Point",
        "coordinates": [
          -122.896856,
          49.248573
        ]
      },
      "properties": {
        "id": 57,
        "name": "Lougheed Town Centre",
        "line": "VancouverSkytrainMillenniumLine",
        "order": 124
      },
      "id": 57
    },
    {
      "type": "Feature",
      "geometry": {
        "type": "Point",
        "coordinates": [
          -122.918224,
          49.253413
        ]
      },
      "properties": {
        "id": 56,
        "name": "Production Way-University",
        "line": "VancouverSkytrainMillenniumLine",
        "order": 112
      },
      "id": 56
    },
    {
      "type": "Feature",
      "geometry": {
        "type": "Point",
        "coordinates": [
          -122.988477,
          49.220074
        ]
      },
      "properties": {
        "id": 28,
        "name": "Royal Oak",
        "line": "VancouverSkytrainExpoLine",
        "order": 109
      },
      "id": 28
    },
    {
      "type": "Feature",
      "geometry": {
        "type": "Point",
        "coordinates": [
          -123.003926,
          49.22582
        ]
      },
      "properties": {
        "id": 27,
        "name": "Metrotown",
        "line": "VancouverSkytrainExpoLine",
        "order": 101
      },
      "id": 27
    },
    {
      "type": "Feature",
      "geometry": {
        "type": "Point",
        "coordinates": [
          -122.939193,
          49.254631
        ]
      },
      "properties": {
        "id": 55,
        "name": "Lake City Way",
        "line": "VancouverSkytrainMillenniumLine",
        "order": 101
      },
      "id": 55
    },
    {
      "type": "Feature",
      "geometry": {
        "type": "Point",
        "coordinates": [
          -123.012671,
          49.229761
        ]
      },
      "properties": {
        "id": 26,
        "name": "Patterson",
        "line": "VancouverSkytrainExpoLine",
        "order": 96
      },
      "id": 26
    },
    {
      "type": "Feature",
      "geometry": {
        "type": "Point",
        "coordinates": [
          -122.964002,
          49.259176
        ]
      },
      "properties": {
        "id": 54,
        "name": "Sperling-Burnaby Lake",
        "line": "VancouverSkytrainMillenniumLine",
        "order": 89
      },
      "id": 54
    },
    {
      "type": "Feature",
      "geometry": {
        "type": "Point",
        "coordinates": [
          -123.031808,
          49.238401
        ]
      },
      "properties": {
        "id": 25,
        "name": "Joyce-Collingwood",
        "line": "VancouverSkytrainExpoLine",
        "order": 88
      },
      "id": 25
    },
    {
      "type": "Feature",
      "geometry": {
        "type": "Point",
        "coordinates": [
          -123.046118,
          49.244278
        ]
      },
      "properties": {
        "id": 24,
        "name": "29th Avenue",
        "line": "VancouverSkytrainExpoLine",
        "order": 84
      },
      "id": 24
    },
    {
      "type": "Feature",
      "geometry": {
        "type": "Point",
        "coordinates": [
          -123.055908,
          49.248321
        ]
      },
      "properties": {
        "id": 23,
        "name": "Nanaimo",
        "line": "VancouverSkytrainExpoLine",
        "order": 82
      },
      "id": 23
    },
    {
      "type": "Feature",
      "geometry": {
        "type": "Point",
        "coordinates": [
          -122.98217,
          49.264727
        ]
      },
      "properties": {
        "id": 53,
        "name": "Holdom",
        "line": "VancouverSkytrainMillenniumLine",
        "order": 75
      },
      "id": 53
    },
    {
      "type": "Feature",
      "geometry": {
        "type": "Point",
        "coordinates": [
          -123.069115,
          49.262317
        ]
      },
      "properties": {
        "id": 22,
        "name": "Commercial-Broadway",
        "line": "VancouverSkytrainExpoLine",
        "order": 69
      },
      "id": 22
    },
    {
      "type": "Feature",
      "geometry": {
        "type": "Point",
        "coordinates": [
          -123.00183,
          49.266382
        ]
      },
      "properties": {
        "id": 52,
        "name": "Brentwood Town Centre",
        "line": "VancouverSkytrainMillenniumLine",
        "order": 64
      },
      "id": 52
    },
    {
      "type": "Feature",
      "geometry": {
        "type": "Point",
        "coordinates": [
          -123.013518,
          49.264945
        ]
      },
      "properties": {
        "id": 51,
        "name": "Gilmore",
        "line": "VancouverSkytrainMillenniumLine",
        "order": 54
      },
      "id": 51
    },
    {
      "type": "Feature",
      "geometry": {
        "type": "Point",
        "coordinates": [
          -123.100381,
          49.273164
        ]
      },
      "properties": {
        "id": 21,
        "name": "Main Street-Science World",
        "line": "VancouverSkytrainExpoLine",
        "order": 44
      },
      "id": 21
    },
    {
      "type": "Feature",
      "geometry": {
        "type": "Point",
        "coordinates": [
          -123.032855,
          49.260766
        ]
      },
      "properties": {
        "id": 50,
        "name": "Rupert",
        "line": "VancouverSkytrainMillenniumLine",
        "order": 35
      },
      "id": 50
    },
    {
      "type": "Feature",
      "geometry": {
        "type": "Point",
        "coordinates": [
          -123.045382,
          49.258922
        ]
      },
      "properties": {
        "id": 49,
        "name": "Renfrew",
        "line": "VancouverSkytrainMillenniumLine",
        "order": 29
      },
      "id": 49
    },
    {
      "type": "Feature",
      "geometry": {
        "type": "Point",
        "coordinates": [
          -123.109125,
          49.27926
        ]
      },
      "properties": {
        "id": 20,
        "name": "Stadium-Chinatown",
        "line": "VancouverSkytrainExpoLine",
        "order": 25
      },
      "id": 20
    },
    {
      "type": "Feature",
      "geometry": {
        "type": "Point",
        "coordinates": [
          -123.115703,
          49.283185
        ]
      },
      "properties": {
        "id": 19,
        "name": "Granville",
        "line": "VancouverSkytrainExpoLine",
        "order": 17
      },
      "id": 19
    },
    {
      "type": "Feature",
      "geometry": {
        "type": "Point",
        "coordinates": [
          -123.0685,
          49.263
        ]
      },
      "properties": {
        "id": 48,
        "name": "Commercial-Broadway",
        "line": "VancouverSkytrainMillenniumLine",
        "order": 14
      },
      "id": 48
    },
    {
      "type": "Feature",
      "geometry": {
        "type": "Point",
        "coordinates": [
          -123.1136,
          49.2855
        ]
      },
      "properties": {
        "id": 13,
        "name": "Waterfront",
        "line": "VancouverSkytrainCanadaLine",
        "order": 12
      },
      "id": 13
    },
    {
      "type": "Feature",
      "geometry": {
        "type": "Point",
        "coordinates": [
          -123.118227,
          49.282415
        ]
      },
      "properties": {
        "id": 12,
        "name": "Vancouver City Centre",
        "line": "VancouverSkytrainCanadaLine",
        "order": 11
      },
      "id": 12
    },
    {
      "type": "Feature",
      "geometry": {
        "type": "Point",
        "coordinates": [
          -123.119386,
          49.285675
        ]
      },
      "properties": {
        "id": 18,
        "name": "Burrard",
        "line": "VancouverSkytrainExpoLine",
        "order": 11
      },
      "id": 18
    },
    {
      "type": "Feature",
      "geometry": {
        "type": "Point",
        "coordinates": [
          -123.122079,
          49.274492
        ]
      },
      "properties": {
        "id": 11,
        "name": "Yaletown-Roundhouse",
        "line": "VancouverSkytrainCanadaLine",
        "order": 10
      },
      "id": 11
    },
    {
      "type": "Feature",
      "geometry": {
        "type": "Point",
        "coordinates": [
          -123.083883,
          49.309536
        ]
      },
      "properties": {
        "id": 65,
        "name": "Lonsdale Quay",
        "line": "VancouverSeabusSeabus",
        "order": 10
      },
      "id": 65
    },
    {
      "type": "Feature",
      "geometry": {
        "type": "Point",
        "coordinates": [
          -123.115348,
          49.266596
        ]
      },
      "properties": {
        "id": 10,
        "name": "Olympic Village",
        "line": "VancouverSkytrainCanadaLine",
        "order": 9
      },
      "id": 10
    },
    {
      "type": "Feature",
      "geometry": {
        "type": "Point",
        "coordinates": [
          -123.114822,
          49.262717
        ]
      },
      "properties": {
        "id": 9,
        "name": "Broadway-City Hall",
        "line": "VancouverSkytrainCanadaLine",
        "order": 8
      },
      "id": 9
    },
    {
      "type": "Feature",
      "geometry": {
        "type": "Point",
        "coordinates": [
          -123.11545,
          49.249175
        ]
      },
      "properties": {
        "id": 8,
        "name": "King Edward",
        "line": "VancouverSkytrainCanadaLine",
        "order": 7
      },
      "id": 8
    },
    {
      "type": "Feature",
      "geometry": {
        "type": "Point",
        "coordinates": [
          -123.116295,
          49.233739
        ]
      },
      "properties": {
        "id": 7,
        "name": "Oakridge-41st Avenue",
        "line": "VancouverSkytrainCanadaLine",
        "order": 6
      },
      "id": 7
    },
    {
      "type": "Feature",
      "geometry": {
        "type": "Point",
        "coordinates": [
          -123.079053,
          49.265802
        ]
      },
      "properties": {
        "id": 47,
        "name": "VCC-Clark",
        "line": "VancouverSkytrainMillenniumLine",
        "order": 6
      },
      "id": 47
    },
    {
      "type": "Feature",
      "geometry": {
        "type": "Point",
        "coordinates": [
          -123.116523,
          49.22573
        ]
      },
      "properties": {
        "id": 6,
        "name": "Langara-49th Avenue",
        "line": "VancouverSkytrainCanadaLine",
        "order": 5
      },
      "id": 6
    },
    {
      "type": "Feature",
      "geometry": {
        "type": "Point",
        "coordinates": [
          -123.09513621279113,
          49.267179447377636
        ]
      },
      "properties": {
        "id": 46,
        "name": "Great Northern Way-Emily Carr",
        "line": "VancouverSkytrainMillenniumLine",
        "order": 5
      },
      "id": 46
    },
    {
      "type": "Feature",
      "geometry": {
        "type": "Point",
        "coordinates": [
          -123.117015,
          49.209666
        ]
      },
      "properties": {
        "id": 5,
        "name": "Marine Drive",
        "line": "VancouverSkytrainCanadaLine",
        "order": 4
      },
      "id": 5
    },
    {
      "type": "Feature",
      "geometry": {
        "type": "Point",
        "coordinates": [
          -123.10061381947656,
          49.262681878656274
        ]
      },
      "properties": {
        "id": 45,
        "name": "Mount Pleasant",
        "line": "VancouverSkytrainMillenniumLine",
        "order": 4
      },
      "id": 45
    },
    {
      "type": "Feature",
      "geometry": {
        "type": "Point",
        "coordinates": [
          -123.126062,
          49.195538
        ]
      },
      "properties": {
        "id": 4,
        "name": "Bridgeport",
        "line": "VancouverSkytrainCanadaLine",
        "order": 3
      },
      "id": 4
    },
    {
      "type": "Feature",
      "geometry": {
        "type": "Point",
        "coordinates": [
          -123.1144,
          49.2632
        ]
      },
      "properties": {
        "id": 44,
        "name": "Broadway-City Hall",
        "line": "VancouverSkytrainMillenniumLine",
        "order": 3
      },
      "id": 44
    },
    {
      "type": "Feature",
      "geometry": {
        "type": "Point",
        "coordinates": [
          -123.136325,
          49.184
        ]
      },
      "properties": {
        "id": 3,
        "name": "Aberdeen",
        "line": "VancouverSkytrainCanadaLine",
        "order": 2
      },
      "id": 3
    },
    {
      "type": "Feature",
      "geometry": {
        "type": "Point",
        "coordinates": [
          -123.146337,
          49.196688
        ]
      },
      "properties": {
        "id": 16,
        "name": "Templeton",
        "line": "VancouverSkytrainCanadaLine",
        "order": 2
      },
      "id": 16
    },
    {
      "type": "Feature",
      "geometry": {
        "type": "Point",
        "coordinates": [
          -123.1245663909718,
          49.263342404761666
        ]
      },
      "properties": {
        "id": 43,
        "name": "Oak-VGH",
        "line": "VancouverSkytrainMillenniumLine",
        "order": 2
      },
      "id": 43
    },
    {
      "type": "Feature",
      "geometry": {
        "type": "Point",
        "coordinates": [
          -123.136475,
          49.174665
        ]
      },
      "properties": {
        "id": 2,
        "name": "Lansdowne",
        "line": "VancouverSkytrainCanadaLine",
        "order": 1
      },
      "id": 2
    },
    {
      "type": "Feature",
      "geometry": {
        "type": "Point",
        "coordinates": [
          -123.157887,
          49.192986
        ]
      },
      "properties": {
        "id": 15,
        "name": "Sea Island Centre",
        "line": "VancouverSkytrainCanadaLine",
        "order": 1
      },
      "id": 15
    },
    {
      "type": "Feature",
      "geometry": {
        "type": "Point",
        "coordinates": [
          -123.13822894101378,
          49.26370979753404
        ]
      },
      "properties": {
        "id": 42,
        "name": "South Granville",
        "line": "VancouverSkytrainMillenniumLine",
        "order": 1
      },
      "id": 42
    },
    {
      "type": "Feature",
      "geometry": {
        "type": "Point",
        "coordinates": [
          -123.136372,
          49.167943
        ]
      },
      "properties": {
        "id": 1,
        "name": "Richmond-Brighouse",
        "line": "VancouverSkytrainCanadaLine",
        "order": 0
      },
      "id": 1
    },
    {
      "type": "Feature",
      "geometry": {
        "type": "Point",
        "coordinates": [
          -123.178269,
          49.194174
        ]
      },
      "properties": {
        "id": 14,
        "name": "YVR-Airport",
        "line": "VancouverSkytrainCanadaLine",
        "order": 0
      },
      "id": 14
    },
    {
      "type": "Feature",
      "geometry": {
        "type": "Point",
        "coordinates": [
          -123.1122,
          49.2862
        ]
      },
      "properties": {
        "id": 17,
        "name": "Waterfront",
        "line": "VancouverSkytrainExpoLine",
        "order": 0
      },
      "id": 17
    },
    {
      "type": "Feature",
      "geometry": {
        "type": "Point",
        "coordinates": [
          -123.15286076823101,
          49.263931569001095
        ]
      },
      "properties": {
        "id": 41,
        "name": "Arbutus",
        "line": "VancouverSkytrainMillenniumLine",
        "order": 0
      },
      "id": 41
    },
    {
      "type": "Feature",
      "geometry": {
        "type": "Point",
        "coordinates": [
          -123.10865,
          49.287147
        ]
      },
      "properties": {
        "id": 64,
        "name": "Waterfront Seabus Terminal",
        "line": "VancouverSeabusSeabus",
        "order": 0
      },
      "id": 64
    },
    {
      "type": "Feature",
      "geometry": {
        "type": "Point",
        "coordinates": [
          -123.111184,
          49.28621
        ]
      },
      "properties": {
        "id": 66,
        "name": "Waterfront",
        "line": "VancouverWestCoastExpressWce",
        "order": 0
      },
      "id": 66
    },
    {
      "type": "Feature",
      "geometry": {
        "type": "Point",
        "coordinates": [
          -122.8339467,
          49.1786215
        ]
      },
      "properties": {
        "id": 74,
        "name": "Green Timbers",
        "line": "VancouverSkytrainExpoLine",
        "order": 282
      },
      "id": 74
    },
    {
      "type": "Feature",
      "geometry": {
        "type": "Point",
        "coordinates": [
          -122.8008789,
          49.1660719
        ]
      },
      "properties": {
        "id": 75,
        "name": "152 Street",
        "line": "VancouverSkytrainExpoLine",
        "order": 287
      },
      "id": 75
    },
    {
      "type": "Feature",
      "geometry": {
        "type": "Point",
        "coordinates": [
          -122.7779123,
          49.1571885
        ]
      },
      "properties": {
        "id": 76,
        "name": "Fleetwood",
        "line": "VancouverSkytrainExpoLine",
        "order": 292
      },
      "id": 76
    },
    {
      "type": "Feature",
      "geometry": {
        "type": "Point",
        "coordinates": [
          -122.762541,
          49.1511711
        ]
      },
      "properties": {
        "id": 77,
        "name": "Bakerview-166 Street",
        "line": "VancouverSkytrainExpoLine",
        "order": 297
      },
      "id": 77
    },
    {
      "type": "Feature",
      "geometry": {
        "type": "Point",
        "coordinates": [
          -122.7131469,
          49.1291743
        ]
      },
      "properties": {
        "id": 78,
        "name": "Hillcrest-184 Street",
        "line": "VancouverSkytrainExpoLine",
        "order": 302
      },
      "id": 78
    },
    {
      "type": "Feature",
      "geometry": {
        "type": "Point",
        "coordinates": [
          -122.6962219,
          49.1214918
        ]
      },
      "properties": {
        "id": 79,
        "name": "Clayton",
        "line": "VancouverSkytrainExpoLine",
        "order": 307
      },
      "id": 79
    },
    {
      "type": "Feature",
      "geometry": {
        "type": "Point",
        "coordinates": [
          -122.6788837,
          49.1138355
        ]
      },
      "properties": {
        "id": 80,
        "name": "Willowbrook",
        "line": "VancouverSkytrainExpoLine",
        "order": 312
      },
      "id": 80
    },
    {
      "type": "Feature",
      "geometry": {
        "type": "Point",
        "coordinates": [
          -122.6586098,
          49.1060399
        ]
      },
      "properties": {
        "id": 81,
        "name": "Langley City Centre",
        "line": "VancouverSkytrainExpoLine",
        "order": 317
      },
      "id": 81
    }
  ],
  "properties": {
    "totalStations": 81,
    "stationsPerLine": {
      "VancouverWestCoastExpressWce": 8,
      "VancouverSkytrainExpoLine": 32,
      "VancouverSkytrainMillenniumLine": 23,
      "VancouverSkytrainCanadaLine": 16,
      "VancouverSeabusSeabus": 2
    }
  }
}