{
"type": "FeatureCollection",
"name": "LightrailStations",
"crs": { "type": "name", "properties": { "name": "urn:ogc:def:crs:OGC:1.3:CRS84" } },
"features": [
{ "type": "Feature", "properties": { "OBJECTID": 1, "PID": 229, "NAME": "Florida Station", "ADDRESS": "1490 S Abilene St", "CITY": "Aurora", "ZIPCODE": "80012", "CLASS": "STN", "PARCEL_ID_NUMBER": "Stop#: 34578 (South)<br />Stop#: 34577 (North)", "SPECIAL_RTS": "D-E-H-R", "RAIL_LINE": "D-E-H-R", "LOCAL_RTS": "11", "REGIONAL_RTS": null, "SKYRIDE_RTS": null, "CNRS": null, "VMAP": null, "INFO_REPORT": " " }, "geometry": { "type": "Point", "coordinates": [ -104.828405528469006, 39.690013347362203 ] } },
{ "type": "Feature", "properties": { "OBJECTID": 2, "PID": 230, "NAME": "2nd Ave / Abilene Station", "ADDRESS": "14051 E Ellsworth Ave", "CITY": "Aurora", "ZIPCODE": "80111", "CLASS": "LRT", "PARCEL_ID_NUMBER": "Stop#: 34582 (South)<br />Stop#: 34581 (North)", "SPECIAL_RTS": "R", "RAIL_LINE": "R", "LOCAL_RTS": "6", "REGIONAL_RTS": null, "SKYRIDE_RTS": null, "CNRS": null, "VMAP": null, "INFO_REPORT": " " }, "geometry": { "type": "Point", "coordinates": [ -104.825551510742997, 39.719519244881802 ] } },
{ "type": "Feature", "properties": { "OBJECTID": 3, "PID": 231, "NAME": "13th Avenue Station", "ADDRESS": "14110 E 13th Ave", "CITY": "Aurora", "ZIPCODE": "80111", "CLASS": "LRT", "PARCEL_ID_NUMBER": "Stop#: 34584 (South)<br />Stop#: 34583 (North)", "SPECIAL_RTS": "R", "RAIL_LINE": "R", "LOCAL_RTS": null, "REGIONAL_RTS": null, "SKYRIDE_RTS": null, "CNRS": null, "VMAP": null, "INFO_REPORT": " " }, "geometry": { "type": "Point", "coordinates": [ -104.823528631385997, 39.734940379561202 ] } },
{ "type": "Feature", "properties": { "OBJECTID": 4, "PID": 232, "NAME": "Colfax Station", "ADDRESS": "13800 E Colfax Ave", "CITY": "Aurora", "ZIPCODE": "80111", "CLASS": "STN", "PARCEL_ID_NUMBER": "Stop#: 34586 (South)<br />Stop#: 34585 (North)", "SPECIAL_RTS": "R", "RAIL_LINE": "R", "LOCAL_RTS": "10-15-15L-20", "REGIONAL_RTS": "FF1-FF2-FF3-FF4-FF5", "SKYRIDE_RTS": null, "CNRS": null, "VMAP": null, "INFO_REPORT": " " }, "geometry": { "type": "Point", "coordinates": [ -104.827024147735003, 39.740458275348701 ] } },
{ "type": "Feature", "properties": { "OBJECTID": 5, "PID": 235, "NAME": "Fitzsimons Station", "ADDRESS": "2550 N Fitzsimons Pkwy", "CITY": "Aurora", "ZIPCODE": "80045", "CLASS": "STN", "PARCEL_ID_NUMBER": "Stop#: 34588 (South)<br />Stop#: 34587 (North)", "SPECIAL_RTS": "R", "RAIL_LINE": "R", "LOCAL_RTS": null, "REGIONAL_RTS": null, "SKYRIDE_RTS": null, "CNRS": null, "VMAP": null, "INFO_REPORT": " " }, "geometry": { "type": "Point", "coordinates": [ -104.839375727770005, 39.7549808397943 ] } },
{ "type": "Feature", "properties": { "OBJECTID": 6, "PID": 221, "NAME": "Denver Airport Station", "ADDRESS": "26800 E 84th Ave", "CITY": "Denver", "ZIPCODE": "80249", "CLASS": "STN", "PARCEL_ID_NUMBER": "Stop#: 34476", "SPECIAL_RTS": "A", "RAIL_LINE": "A", "LOCAL_RTS": "104L-169L", "REGIONAL_RTS": "145X", "SKYRIDE_RTS": "AB1-AB2-AB3-AT-ATA", "CNRS": null, "VMAP": null, "INFO_REPORT": " " }, "geometry": { "type": "Point", "coordinates": [ -104.673926030068003, 39.846259488450301 ] } },
{ "type": "Feature", "properties": { "OBJECTID": 7, "PID": 220, "NAME": "Peoria Station", "ADDRESS": "11501 E 33rd Ave", "CITY": "Aurora", "ZIPCODE": "80010", "CLASS": "LRT", "PARCEL_ID_NUMBER": "Stop#: 34471 (East)<br />Stop#: 34472 (West)", "SPECIAL_RTS": "R-A", "RAIL_LINE": "R-A", "LOCAL_RTS": "37-45-121-153", "REGIONAL_RTS": null, "SKYRIDE_RTS": null, "CNRS": null, "VMAP": null, "INFO_REPORT": " " }, "geometry": { "type": "Point", "coordinates": [ -104.850493361269002, 39.767454122331898 ] } },
{ "type": "Feature", "properties": { "OBJECTID": 8, "PID": 218, "NAME": "40th / Colorado Station", "ADDRESS": "4220 Garfield St", "CITY": "Denver", "ZIPCODE": "80216", "CLASS": "LRT", "PARCEL_ID_NUMBER": "Stop#: 34467 (East)<br />Stop#: 34468 (West)", "SPECIAL_RTS": "A", "RAIL_LINE": "A", "LOCAL_RTS": "24-37-40-49-ART", "REGIONAL_RTS": null, "SKYRIDE_RTS": null, "CNRS": null, "VMAP": null, "INFO_REPORT": " " }, "geometry": { "type": "Point", "coordinates": [ -104.942714723646006, 39.776010493038299 ] } },
{ "type": "Feature", "properties": { "OBJECTID": 9, "PID": 64, "NAME": "Littleton / Mineral Station", "ADDRESS": "3203 W Mineral Ave", "CITY": "Littleton", "ZIPCODE": "80120", "CLASS": "LRT", "PARCEL_ID_NUMBER": "Stop#: 24896", "SPECIAL_RTS": "D-E-H", "RAIL_LINE": "D-E-H", "LOCAL_RTS": "402L", "REGIONAL_RTS": null, "SKYRIDE_RTS": null, "CNRS": "SJFX", "VMAP": "South Jeffco", "INFO_REPORT": " " }, "geometry": { "type": "Point", "coordinates": [ -105.025031567126007, 39.580093282819597 ] } },
{ "type": "Feature", "properties": { "OBJECTID": 10, "PID": 63, "NAME": "Littleton / Downtown Station", "ADDRESS": "5777 S Prince St", "CITY": "Littleton", "ZIPCODE": "80120", "CLASS": "LRT", "PARCEL_ID_NUMBER": "Stop#: 25438 (South)<br />Stop#: 24894 (North)", "SPECIAL_RTS": "D-E-H", "RAIL_LINE": "D-E-H", "LOCAL_RTS": "30-36-59-66", "REGIONAL_RTS": null, "SKYRIDE_RTS": null, "CNRS": "SJFX", "VMAP": "South Jeffco", "INFO_REPORT": "261 spots at station, 100 spots at S. Powers on Rio Grande" }, "geometry": { "type": "Point", "coordinates": [ -105.014877056968999, 39.611974857842597 ] } },
{ "type": "Feature", "properties": { "OBJECTID": 11, "PID": 65, "NAME": "Oxford-City of Sheridan Station", "ADDRESS": "4101 Windermere St", "CITY": "Englewood", "ZIPCODE": "80110", "CLASS": "STN", "PARCEL_ID_NUMBER": "Stop#: 25437 (South)<br />Stop#: 24892 (North)", "SPECIAL_RTS": "D-E-H", "RAIL_LINE": "D-E-H", "LOCAL_RTS": "51", "REGIONAL_RTS": null, "SKYRIDE_RTS": null, "CNRS": null, "VMAP": null, "INFO_REPORT": " " }, "geometry": { "type": "Point", "coordinates": [ -105.004822071161996, 39.642897191581298 ] } },
{ "type": "Feature", "properties": { "OBJECTID": 12, "PID": 1, "NAME": "Alameda Station", "ADDRESS": "499 S Cherokee St", "CITY": "Denver", "ZIPCODE": "80223", "CLASS": "STN", "PARCEL_ID_NUMBER": "Stop#: 23060 (South)<br />Stop#: 23042 (North)", "SPECIAL_RTS": "D-E-H", "RAIL_LINE": "D-E-H", "LOCAL_RTS": "3-4-52-ART", "REGIONAL_RTS": null, "SKYRIDE_RTS": null, "CNRS": "PLFX", "VMAP": "Platte Valley", "INFO_REPORT": null }, "geometry": { "type": "Point", "coordinates": [ -104.993171351320996, 39.708681239077002 ] } },
{ "type": "Feature", "properties": { "OBJECTID": 13, "PID": 71, "NAME": "18th St / California Station", "ADDRESS": "1776 California St", "CITY": "Denver", "ZIPCODE": "80202", "CLASS": "DWT", "PARCEL_ID_NUMBER": "Stop#: 23047", "SPECIAL_RTS": "D-E-H", "RAIL_LINE": "D-E-H", "LOCAL_RTS": null, "REGIONAL_RTS": null, "SKYRIDE_RTS": null, "CNRS": null, "VMAP": null, "INFO_REPORT": " " }, "geometry": { "type": "Point", "coordinates": [ -104.990288311723006, 39.7465977851544 ] } },
{ "type": "Feature", "properties": { "OBJECTID": 14, "PID": 74, "NAME": "25th St / Welton Station", "ADDRESS": "2550 Welton St", "CITY": "Denver", "ZIPCODE": "80205", "CLASS": "DWT", "PARCEL_ID_NUMBER": "Stop#: 23053 (South)<br />Stop#: 23049 (North)", "SPECIAL_RTS": null, "RAIL_LINE": null, "LOCAL_RTS": null, "REGIONAL_RTS": null, "SKYRIDE_RTS": null, "CNRS": null, "VMAP": null, "INFO_REPORT": " " }, "geometry": { "type": "Point", "coordinates": [ -104.980068794082001, 39.753163305527799 ] } },
{ "type": "Feature", "properties": { "OBJECTID": 15, "PID": 75, "NAME": "27th St / Welton Station", "ADDRESS": "2720 Welton St", "CITY": "Denver", "ZIPCODE": "80205", "CLASS": "DWT", "PARCEL_ID_NUMBER": "Stop#: 23709 (South)<br />Stop#: 23708 (North)", "SPECIAL_RTS": null, "RAIL_LINE": null, "LOCAL_RTS": null, "REGIONAL_RTS": null, "SKYRIDE_RTS": null, "CNRS": null, "VMAP": null, "INFO_REPORT": " " }, "geometry": { "type": "Point", "coordinates": [ -104.977342355990004, 39.755242921878903 ] } },
{ "type": "Feature", "properties": { "OBJECTID": 16, "PID": 86, "NAME": "Empower Field at Mile High", "ADDRESS": "1499 4th Street", "CITY": "Denver", "ZIPCODE": "80204", "CLASS": "DWT", "PARCEL_ID_NUMBER": "Stop#: 25432 (South)<br />Stop#: 25428 (North)", "SPECIAL_RTS": "D-E-H-W", "RAIL_LINE": "D-E-H-W", "LOCAL_RTS": null, "REGIONAL_RTS": null, "SKYRIDE_RTS": null, "CNRS": null, "VMAP": null, "INFO_REPORT": " " }, "geometry": { "type": "Point", "coordinates": [ -105.013276259132994, 39.743444829337399 ] } },
{ "type": "Feature", "properties": { "OBJECTID": 17, "PID": 57, "NAME": "30th / Downing Station", "ADDRESS": "2999 Downing St", "CITY": "Denver", "ZIPCODE": "80205", "CLASS": "LRT", "PARCEL_ID_NUMBER": "Stop#: 23051", "SPECIAL_RTS": null, "RAIL_LINE": null, "LOCAL_RTS": "12-28-38", "REGIONAL_RTS": null, "SKYRIDE_RTS": null, "CNRS": null, "VMAP": null, "INFO_REPORT": null }, "geometry": { "type": "Point", "coordinates": [ -104.973570339096, 39.7586567715299 ] } },
{ "type": "Feature", "properties": { "OBJECTID": 18, "PID": 72, "NAME": "18th St / Stout Station", "ADDRESS": "1816 Stout St", "CITY": "Denver", "ZIPCODE": "80202", "CLASS": "DWT", "PARCEL_ID_NUMBER": "Stop#: 23055", "SPECIAL_RTS": "D-E-H", "RAIL_LINE": "D-E-H", "LOCAL_RTS": null, "REGIONAL_RTS": null, "SKYRIDE_RTS": null, "CNRS": null, "VMAP": null, "INFO_REPORT": " " }, "geometry": { "type": "Point", "coordinates": [ -104.990497781778998, 39.747943320584099 ] } },
{ "type": "Feature", "properties": { "OBJECTID": 19, "PID": 2, "NAME": "Arapahoe at Village Center Station", "ADDRESS": "8800 E Caley Ave", "CITY": "Greenwood Village", "ZIPCODE": "80111", "CLASS": "LRT", "PARCEL_ID_NUMBER": "Stop#: 25990 (South)<br />Stop#: 34008 (North)", "SPECIAL_RTS": "D-E-H-R", "RAIL_LINE": "D-E-H-R", "LOCAL_RTS": "66-153-169", "REGIONAL_RTS": null, "SKYRIDE_RTS": "AT-ATA", "CNRS": "APFX", "VMAP": "Arapahoe - Orchard", "INFO_REPORT": " " }, "geometry": { "type": "Point", "coordinates": [ -104.888566410918997, 39.600310334481101 ] } },
{ "type": "Feature", "properties": { "OBJECTID": 20, "PID": 119, "NAME": "County Line Station", "ADDRESS": "8340 S Valley Hwy", "CITY": "Meridian", "ZIPCODE": "80112", "CLASS": "LRT", "PARCEL_ID_NUMBER": "Stop#: 25988 (South)<br />Stop#: 34006 (North)", "SPECIAL_RTS": "D-E-H-R", "RAIL_LINE": "D-E-H-R", "LOCAL_RTS": "402L", "REGIONAL_RTS": null, "SKYRIDE_RTS": null, "CNRS": "SIFX", "VMAP": "Lone Tree - South Inverness", "INFO_REPORT": " " }, "geometry": { "type": "Point", "coordinates": [ -104.872285896275997, 39.561818293979798 ] } },
{ "type": "Feature", "properties": { "OBJECTID": 21, "PID": 121, "NAME": "Lincoln Station", "ADDRESS": "10203 Station Way", "CITY": "Lone Tree", "ZIPCODE": "80124", "CLASS": "LRT", "PARCEL_ID_NUMBER": "Stop#: 25973 (South)<br />Stop#: 34005 (North)", "SPECIAL_RTS": "D-E-H-R", "RAIL_LINE": "D-E-H-R", "LOCAL_RTS": "483", "REGIONAL_RTS": null, "SKYRIDE_RTS": null, "CNRS": "LNFX - MDFX", "VMAP": "Lone Tree - Meridian", "INFO_REPORT": " " }, "geometry": { "type": "Point", "coordinates": [ -104.869648049139002, 39.545792750565802 ] } },
{ "type": "Feature", "properties": { "OBJECTID": 22, "PID": 62, "NAME": "I-25 / Broadway Station", "ADDRESS": "901 S Broadway", "CITY": "Denver", "ZIPCODE": "80209", "CLASS": "LRT", "PARCEL_ID_NUMBER": "Stop#: 23061 (South)<br />Stop#: 23041 (North)", "SPECIAL_RTS": "D-E-H", "RAIL_LINE": "D-E-H", "LOCAL_RTS": "0-0L-11-14", "REGIONAL_RTS": null, "SKYRIDE_RTS": null, "CNRS": null, "VMAP": null, "INFO_REPORT": " " }, "geometry": { "type": "Point", "coordinates": [ -104.990179885068002, 39.701969033187403 ] } },
{ "type": "Feature", "properties": { "OBJECTID": 23, "PID": 73, "NAME": "20th St / Welton Station", "ADDRESS": "1960 Welton St", "CITY": "Denver", "ZIPCODE": "80202", "CLASS": "DWT", "PARCEL_ID_NUMBER": "Stop#: 23054 (South)<br />Stop#: 23048 (North)", "SPECIAL_RTS": null, "RAIL_LINE": null, "LOCAL_RTS": null, "REGIONAL_RTS": null, "SKYRIDE_RTS": null, "CNRS": null, "VMAP": null, "INFO_REPORT": " " }, "geometry": { "type": "Point", "coordinates": [ -104.98674059068, 39.748064257687702 ] } },
{ "type": "Feature", "properties": { "OBJECTID": 24, "PID": 7, "NAME": "40th / Airport - Gateway Park Station", "ADDRESS": "3900 N Salida St", "CITY": "Aurora", "ZIPCODE": "80111", "CLASS": "LRT", "PARCEL_ID_NUMBER": "Stop#: 34474 (South)<br />Stop#: 34473 (North)", "SPECIAL_RTS": "A", "RAIL_LINE": "A", "LOCAL_RTS": "37-42-45-121-169", "REGIONAL_RTS": null, "SKYRIDE_RTS": "AT-ATA", "CNRS": null, "VMAP": null, "INFO_REPORT": " " }, "geometry": { "type": "Point", "coordinates": [ -104.787512613244004, 39.769941878451 ] } },
{ "type": "Feature", "properties": { "OBJECTID": 25, "PID": 219, "NAME": "Central Park Station", "ADDRESS": "8200 Smith Rd", "CITY": "Denver", "ZIPCODE": "80207", "CLASS": "LRT", "PARCEL_ID_NUMBER": "Stop#: 34469 (East)<br />Stop#: 34470 (West)", "SPECIAL_RTS": "A", "RAIL_LINE": "A", "LOCAL_RTS": "28-37-38-42-43-65-73-88-105", "REGIONAL_RTS": null, "SKYRIDE_RTS": "AT-ATA", "CNRS": null, "VMAP": null, "INFO_REPORT": " " }, "geometry": { "type": "Point", "coordinates": [ -104.89164109171, 39.770596697448603 ] } },
{ "type": "Feature", "properties": { "OBJECTID": 26, "PID": 34, "NAME": "Olde Town Arvada Station", "ADDRESS": "5575 Vance St", "CITY": "Arvada", "ZIPCODE": "80002", "CLASS": "LRT", "PARCEL_ID_NUMBER": "Stop#: 34541 (East)<br />Stop#: 34542 (West)", "SPECIAL_RTS": "B-G", "RAIL_LINE": "B-G", "LOCAL_RTS": "28-32-52-72-76", "REGIONAL_RTS": null, "SKYRIDE_RTS": null, "CNRS": null, "VMAP": null, "INFO_REPORT": "Effective 4/26/19 - The new parking garage at Olde Town Arvada is not owned or operated by RTD. <br /><a href=\"https://arvada.org/explore/olde-town-arvada/parking-in-olde-town\">Get more info</a>" }, "geometry": { "type": "Point", "coordinates": [ -105.080267735169997, 39.799032968140999 ] } },
{ "type": "Feature", "properties": { "OBJECTID": 27, "PID": 176, "NAME": "Knox Station", "ADDRESS": "1245 N Knox Ct", "CITY": "Denver", "ZIPCODE": "80204", "CLASS": "STN", "PARCEL_ID_NUMBER": "Stop#: 33941 (East)<br />Stop#: 33559 (West)", "SPECIAL_RTS": "W", "RAIL_LINE": "W", "LOCAL_RTS": "1", "REGIONAL_RTS": null, "SKYRIDE_RTS": null, "CNRS": null, "VMAP": null, "INFO_REPORT": " " }, "geometry": { "type": "Point", "coordinates": [ -105.032806800320998, 39.735675671815699 ] } },
{ "type": "Feature", "properties": { "OBJECTID": 28, "PID": 178, "NAME": "Sheridan Station", "ADDRESS": "1198 Sheridan Blvd", "CITY": "Denver", "ZIPCODE": "80204", "CLASS": "LRT", "PARCEL_ID_NUMBER": "Stop#: 33967 (East)<br />Stop#: 33561 (West)", "SPECIAL_RTS": "W", "RAIL_LINE": "W", "LOCAL_RTS": "51", "REGIONAL_RTS": null, "SKYRIDE_RTS": null, "CNRS": null, "VMAP": null, "INFO_REPORT": null }, "geometry": { "type": "Point", "coordinates": [ -105.052922444795996, 39.735150687685703 ] } },
{ "type": "Feature", "properties": { "OBJECTID": 29, "PID": 210, "NAME": "Lamar Station", "ADDRESS": "6363 W 13th Ave", "CITY": "Lakewood", "ZIPCODE": "80214", "CLASS": "STN", "PARCEL_ID_NUMBER": "Stop#: 33959 (East)<br />Stop#: 33562 (West)", "SPECIAL_RTS": "W", "RAIL_LINE": "W", "LOCAL_RTS": "9", "REGIONAL_RTS": null, "SKYRIDE_RTS": null, "CNRS": null, "VMAP": null, "INFO_REPORT": " " }, "geometry": { "type": "Point", "coordinates": [ -105.067018086887998, 39.736761391241103 ] } },
{ "type": "Feature", "properties": { "OBJECTID": 30, "PID": 179, "NAME": "Lakewood-Wadsworth Station", "ADDRESS": "1298 Wadsworth Blvd", "CITY": "Lakewood", "ZIPCODE": "80214", "CLASS": "LRT", "PARCEL_ID_NUMBER": "Stop#: 33970 (East)<br />Stop#: 33563 (West)", "SPECIAL_RTS": "W", "RAIL_LINE": "W", "LOCAL_RTS": "9-76", "REGIONAL_RTS": null, "SKYRIDE_RTS": null, "CNRS": null, "VMAP": null, "INFO_REPORT": " " }, "geometry": { "type": "Point", "coordinates": [ -105.08153871655, 39.736668703058903 ] } },
{ "type": "Feature", "properties": { "OBJECTID": 31, "PID": 180, "NAME": "Garrison Station", "ADDRESS": "9091 W 13th Ave", "CITY": "Lakewood", "ZIPCODE": "80215", "CLASS": "STN", "PARCEL_ID_NUMBER": "Stop#: 33957 (East)<br />Stop#: 33564 (West)", "SPECIAL_RTS": "W", "RAIL_LINE": "W", "LOCAL_RTS": null, "REGIONAL_RTS": null, "SKYRIDE_RTS": null, "CNRS": null, "VMAP": null, "INFO_REPORT": " " }, "geometry": { "type": "Point", "coordinates": [ -105.099483486021995, 39.736578900210802 ] } },
{ "type": "Feature", "properties": { "OBJECTID": 32, "PID": 181, "NAME": "Oak Station", "ADDRESS": "1311 Oak St", "CITY": "Lakewood", "ZIPCODE": "80215", "CLASS": "LRT", "PARCEL_ID_NUMBER": "Stop#: 33960 (East)<br />Stop#: 33565 (West)", "SPECIAL_RTS": "W", "RAIL_LINE": "W", "LOCAL_RTS": "16-17", "REGIONAL_RTS": null, "SKYRIDE_RTS": null, "CNRS": null, "VMAP": null, "INFO_REPORT": " " }, "geometry": { "type": "Point", "coordinates": [ -105.119734993497005, 39.737296001001702 ] } },
{ "type": "Feature", "properties": { "OBJECTID": 33, "PID": 182, "NAME": "Federal Center Station", "ADDRESS": "11601 W 2nd Place", "CITY": "Lakewood", "ZIPCODE": "80225", "CLASS": "LRT", "PARCEL_ID_NUMBER": "Stop#: 33955 (East)<br />Stop#: 33566 (West)", "SPECIAL_RTS": "W", "RAIL_LINE": "W", "LOCAL_RTS": "3-16-17-21-99-100", "REGIONAL_RTS": "116X-CV-EV-GS", "SKYRIDE_RTS": null, "CNRS": "GMFX", "VMAP": "Green Mountain", "INFO_REPORT": " " }, "geometry": { "type": "Point", "coordinates": [ -105.128962398263994, 39.720002906174301 ] } },
{ "type": "Feature", "properties": { "OBJECTID": 34, "PID": 183, "NAME": "Red Rocks College Station", "ADDRESS": "13400 W 6th Ave", "CITY": "Lakewood", "ZIPCODE": "80228", "CLASS": "STN", "PARCEL_ID_NUMBER": "Stop#: 33966 (East)<br />Stop#: 33567 (West)", "SPECIAL_RTS": "W", "RAIL_LINE": "W", "LOCAL_RTS": null, "REGIONAL_RTS": null, "SKYRIDE_RTS": null, "CNRS": null, "VMAP": null, "INFO_REPORT": " " }, "geometry": { "type": "Point", "coordinates": [ -105.152115386852998, 39.725065802208398 ] } },
{ "type": "Feature", "properties": { "OBJECTID": 35, "PID": 184, "NAME": "Jefferson CO Government-Golden Station", "ADDRESS": "605 Johnson Rd", "CITY": "Golden", "ZIPCODE": "80401", "CLASS": "LRT", "PARCEL_ID_NUMBER": "Stop#: 33948", "SPECIAL_RTS": "W", "RAIL_LINE": "W", "LOCAL_RTS": null, "REGIONAL_RTS": null, "SKYRIDE_RTS": null, "CNRS": "GDFX", "VMAP": "Golden", "INFO_REPORT": " " }, "geometry": { "type": "Point", "coordinates": [ -105.201348157870001, 39.726457530770098 ] } },
{ "type": "Feature", "properties": { "OBJECTID": 36, "PID": 59, "NAME": "Auraria West Campus Station", "ADDRESS": "1250 5th Street", "CITY": "Denver", "ZIPCODE": "80204", "CLASS": "DWT", "PARCEL_ID_NUMBER": "Stop#: 25431 (South)<br />Stop#: 25427 (North)", "SPECIAL_RTS": "D-E-H-W", "RAIL_LINE": "D-E-H-W", "LOCAL_RTS": null, "REGIONAL_RTS": null, "SKYRIDE_RTS": null, "CNRS": null, "VMAP": "Platte Valley", "INFO_REPORT": " " }, "geometry": { "type": "Point", "coordinates": [ -105.010774352252, 39.741684487714402 ] } },
{ "type": "Feature", "properties": { "OBJECTID": 37, "PID": 87, "NAME": "Ball Arena / Elitch Gardens Station", "ADDRESS": "1700 9th Street", "CITY": "Denver", "ZIPCODE": "80204", "CLASS": "DWT", "PARCEL_ID_NUMBER": "Stop#: 25433 (South)<br />Stop#: 25429 (North)", "SPECIAL_RTS": "D-E-H-W", "RAIL_LINE": "D-E-H-W", "LOCAL_RTS": null, "REGIONAL_RTS": null, "SKYRIDE_RTS": null, "CNRS": null, "VMAP": null, "INFO_REPORT": " " }, "geometry": { "type": "Point", "coordinates": [ -105.009742885083, 39.748608020324603 ] } },
{ "type": "Feature", "properties": { "OBJECTID": 38, "PID": 89, "NAME": "Union Station Transit Center", "ADDRESS": "1700 Wewatta St", "CITY": "Denver", "ZIPCODE": "80202", "CLASS": "STN", "PARCEL_ID_NUMBER": "Stop#: 25434", "SPECIAL_RTS": "D-E-H-W-A-B-G-N", "RAIL_LINE": "D-E-H-W-A-B-G-N", "LOCAL_RTS": "0-9-10-15-19-20-MALL-FMR", "REGIONAL_RTS": "120X-LD1-LD3-LX2-FF1-FF2-FF3-FF4-FF5", "SKYRIDE_RTS": null, "CNRS": null, "VMAP": null, "INFO_REPORT": " " }, "geometry": { "type": "Point", "coordinates": [ -105.003481093952999, 39.754907600997598 ] } },
{ "type": "Feature", "properties": { "OBJECTID": 39, "PID": 127, "NAME": "Colorado Station", "ADDRESS": "4300 E Colorado Center Dr", "CITY": "Denver", "ZIPCODE": "80222", "CLASS": "LRT", "PARCEL_ID_NUMBER": "Stop#: 25980 (South)<br />Stop#: 34013 (North)", "SPECIAL_RTS": "D-E-H", "RAIL_LINE": "D-E-H", "LOCAL_RTS": "21-40-46", "REGIONAL_RTS": null, "SKYRIDE_RTS": null, "CNRS": null, "VMAP": null, "INFO_REPORT": null }, "geometry": { "type": "Point", "coordinates": [ -104.937681418192994, 39.679645542003897 ] } },
{ "type": "Feature", "properties": { "OBJECTID": 40, "PID": 69, "NAME": "16th Street / California Station", "ADDRESS": "1516 California St", "CITY": "Denver", "ZIPCODE": "80202", "CLASS": "DWT", "PARCEL_ID_NUMBER": "Stop#: 23046", "SPECIAL_RTS": "D-E-H", "RAIL_LINE": "D-E-H", "LOCAL_RTS": "MALL", "REGIONAL_RTS": null, "SKYRIDE_RTS": null, "CNRS": null, "VMAP": null, "INFO_REPORT": " " }, "geometry": { "type": "Point", "coordinates": [ -104.992331293579994, 39.744972444591298 ] } },
{ "type": "Feature", "properties": { "OBJECTID": 41, "PID": 58, "NAME": "Colfax at Auraria Station", "ADDRESS": "1101 W Colfax Ave", "CITY": "Denver", "ZIPCODE": "80204", "CLASS": "STN", "PARCEL_ID_NUMBER": "Stop#: 23058 (South)<br />Stop#: 23044 (North)", "SPECIAL_RTS": "D-E-H", "RAIL_LINE": "D-E-H", "LOCAL_RTS": "16", "REGIONAL_RTS": null, "SKYRIDE_RTS": null, "CNRS": "PLFX", "VMAP": "Platte Valley", "INFO_REPORT": " " }, "geometry": { "type": "Point", "coordinates": [ -105.001977096774993, 39.740350831999599 ] } },
{ "type": "Feature", "properties": { "OBJECTID": 42, "PID": 60, "NAME": "Englewood Station", "ADDRESS": "899 W Floyd Ave", "CITY": "Englewood", "ZIPCODE": "80110", "CLASS": "LRT", "PARCEL_ID_NUMBER": "Stop#: 25436 (South)<br />Stop#: 24890 (North)", "SPECIAL_RTS": "D-E-H", "RAIL_LINE": "D-E-H", "LOCAL_RTS": "0-0B-12-35-51", "REGIONAL_RTS": null, "SKYRIDE_RTS": null, "CNRS": null, "VMAP": null, "INFO_REPORT": " " }, "geometry": { "type": "Point", "coordinates": [ -105.000012348298, 39.655453730296003 ] } },
{ "type": "Feature", "properties": { "OBJECTID": 43, "PID": 61, "NAME": "Evans Station", "ADDRESS": "2151 S Delaware St", "CITY": "Denver", "ZIPCODE": "80223", "CLASS": "LRT", "PARCEL_ID_NUMBER": "Stop#: 25435 (South)<br />Stop#: 24882 (North)", "SPECIAL_RTS": "D-E-H", "RAIL_LINE": "D-E-H", "LOCAL_RTS": "21", "REGIONAL_RTS": null, "SKYRIDE_RTS": null, "CNRS": null, "VMAP": null, "INFO_REPORT": " " }, "geometry": { "type": "Point", "coordinates": [ -104.992850697681007, 39.677672423082797 ] } },
{ "type": "Feature", "properties": { "OBJECTID": 44, "PID": 130, "NAME": "Dayton Station", "ADDRESS": "4151 S Dallas St", "CITY": "Aurora", "ZIPCODE": "80111", "CLASS": "LRT", "PARCEL_ID_NUMBER": "Stop#: 25974 (South)<br />Stop#: 34004 (North)", "SPECIAL_RTS": "D-E-H-R", "RAIL_LINE": "D-E-H-R", "LOCAL_RTS": null, "REGIONAL_RTS": null, "SKYRIDE_RTS": null, "CNRS": null, "VMAP": null, "INFO_REPORT": " " }, "geometry": { "type": "Point", "coordinates": [ -104.877680771832999, 39.6431236472378 ] } },
{ "type": "Feature", "properties": { "OBJECTID": 45, "PID": 32, "NAME": "Nine Mile Station", "ADDRESS": "3181 S Parker Rd", "CITY": "Aurora", "ZIPCODE": "80014", "CLASS": "LRT", "PARCEL_ID_NUMBER": "Stop#: 34003", "SPECIAL_RTS": "D-E-H-R", "RAIL_LINE": "D-E-H-R", "LOCAL_RTS": "35-83D-83L-121-130-133-135-139-483", "REGIONAL_RTS": null, "SKYRIDE_RTS": "AT-ATA", "CNRS": null, "VMAP": null, "INFO_REPORT": " " }, "geometry": { "type": "Point", "coordinates": [ -104.845103082391006, 39.657562327054599 ] } },
{ "type": "Feature", "properties": { "OBJECTID": 46, "PID": 70, "NAME": "16th Street / Stout Station", "ADDRESS": "1617 Stout St", "CITY": "Denver", "ZIPCODE": "80202", "CLASS": "DWT", "PARCEL_ID_NUMBER": "Stop#: 23056", "SPECIAL_RTS": "D-E-H", "RAIL_LINE": "D-E-H", "LOCAL_RTS": "MALL", "REGIONAL_RTS": null, "SKYRIDE_RTS": null, "CNRS": null, "VMAP": null, "INFO_REPORT": " " }, "geometry": { "type": "Point", "coordinates": [ -104.992909396296, 39.746063735187697 ] } },
{ "type": "Feature", "properties": { "OBJECTID": 47, "PID": 129, "NAME": "University of Denver Station", "ADDRESS": "1901 E Buchtel Blvd", "CITY": "Denver", "ZIPCODE": "80210", "CLASS": "LRT", "PARCEL_ID_NUMBER": "Stop#: 25981 (South)<br />Stop#: 34014 (North)", "SPECIAL_RTS": "D-E-H", "RAIL_LINE": "D-E-H", "LOCAL_RTS": "24", "REGIONAL_RTS": null, "SKYRIDE_RTS": null, "CNRS": null, "VMAP": null, "INFO_REPORT": "No Overnight Parking Allowed." }, "geometry": { "type": "Point", "coordinates": [ -104.964702651208995, 39.685237269016397 ] } },
{ "type": "Feature", "properties": { "OBJECTID": 48, "PID": 126, "NAME": "Yale Station", "ADDRESS": "5315 E Yale Cir", "CITY": "Denver", "ZIPCODE": "80222", "CLASS": "LRT", "PARCEL_ID_NUMBER": "Stop#: 25979 (South)<br />Stop#: 34012 (North)", "SPECIAL_RTS": "D-E-H", "RAIL_LINE": "D-E-H", "LOCAL_RTS": "46", "REGIONAL_RTS": null, "SKYRIDE_RTS": null, "CNRS": null, "VMAP": null, "INFO_REPORT": null }, "geometry": { "type": "Point", "coordinates": [ -104.927180908428994, 39.6686340120539 ] } },
{ "type": "Feature", "properties": { "OBJECTID": 49, "PID": 67, "NAME": "Theatre District / Convention Center", "ADDRESS": "1325 Stout St", "CITY": "Denver", "ZIPCODE": "80204", "CLASS": "DWT", "PARCEL_ID_NUMBER": "Stop#: 25884 (South)<br />Stop#: 29104 (North)", "SPECIAL_RTS": "D-E-H", "RAIL_LINE": "D-E-H", "LOCAL_RTS": null, "REGIONAL_RTS": null, "SKYRIDE_RTS": null, "CNRS": null, "VMAP": null, "INFO_REPORT": " " }, "geometry": { "type": "Point", "coordinates": [ -104.99647871194, 39.7438804086879 ] } },
{ "type": "Feature", "properties": { "OBJECTID": 50, "PID": 128, "NAME": "Louisiana / Pearl Station", "ADDRESS": "755 E Louisiana Ave", "CITY": "Denver", "ZIPCODE": "80210", "CLASS": "STN", "PARCEL_ID_NUMBER": "Stop#: 25982 (South)<br />Stop#: 34015 (North)", "SPECIAL_RTS": "D-E-H", "RAIL_LINE": "D-E-H", "LOCAL_RTS": "11-12", "REGIONAL_RTS": null, "SKYRIDE_RTS": null, "CNRS": null, "VMAP": null, "INFO_REPORT": " " }, "geometry": { "type": "Point", "coordinates": [ -104.978220914625993, 39.692837919654004 ] } },
{ "type": "Feature", "properties": { "OBJECTID": 51, "PID": 43, "NAME": "Southmoor Station", "ADDRESS": "3737 S Monaco Pkwy", "CITY": "Denver", "ZIPCODE": "80237", "CLASS": "LRT", "PARCEL_ID_NUMBER": "Stop#: 25978 (South)<br />Stop#: 34011 (North)", "SPECIAL_RTS": "D-E-H", "RAIL_LINE": "D-E-H", "LOCAL_RTS": "35-40-46-65-105", "REGIONAL_RTS": null, "SKYRIDE_RTS": null, "CNRS": null, "VMAP": null, "INFO_REPORT": " " }, "geometry": { "type": "Point", "coordinates": [ -104.916088478063003, 39.648216465171302 ] } },
{ "type": "Feature", "properties": { "OBJECTID": 52, "PID": 124, "NAME": "Orchard Station", "ADDRESS": "5652 Greenwood Plaza Blvd", "CITY": "Greenwood Village", "ZIPCODE": "80111", "CLASS": "LRT", "PARCEL_ID_NUMBER": "Stop#: 25983 (South)<br />Stop#: 34009 (North)", "SPECIAL_RTS": "D-E-H-R", "RAIL_LINE": "D-E-H-R", "LOCAL_RTS": null, "REGIONAL_RTS": null, "SKYRIDE_RTS": null, "CNRS": "ORFX", "VMAP": "Orchard", "INFO_REPORT": " " }, "geometry": { "type": "Point", "coordinates": [ -104.896077977798001, 39.613377556187601 ] } },
{ "type": "Feature", "properties": { "OBJECTID": 53, "PID": 248, "NAME": "Sky Ridge Station", "ADDRESS": "9941 Trainstation Circle", "CITY": "Lone Tree", "ZIPCODE": "80124", "CLASS": "STN", "PARCEL_ID_NUMBER": "Stop#: 35204 (South)<br />Stop#: 35205 (North)", "SPECIAL_RTS": "D-E-H-R", "RAIL_LINE": "D-E-H-R", "LOCAL_RTS": null, "REGIONAL_RTS": null, "SKYRIDE_RTS": null, "CNRS": null, "VMAP": "Lone Tree", "INFO_REPORT": " " }, "geometry": { "type": "Point", "coordinates": [ -104.870453302553003, 39.532288426639802 ] } },
{ "type": "Feature", "properties": { "OBJECTID": 54, "PID": 249, "NAME": "Lone Tree City Center Station", "ADDRESS": "11023 RidgeGate Pkwy", "CITY": "Lone Tree", "ZIPCODE": "80134", "CLASS": "STN", "PARCEL_ID_NUMBER": "Stop#: 35207 (South)<br />Stop#: 35209 (North)", "SPECIAL_RTS": "D-E-H-R", "RAIL_LINE": "D-E-H-R", "LOCAL_RTS": null, "REGIONAL_RTS": null, "SKYRIDE_RTS": null, "CNRS": null, "VMAP": null, "INFO_REPORT": " " }, "geometry": { "type": "Point", "coordinates": [ -104.863321193033997, 39.527657207408197 ] } },
{ "type": "Feature", "properties": { "OBJECTID": 55, "PID": 250, "NAME": "RidgeGate Parkway Station", "ADDRESS": "10791 S Havana Street", "CITY": "Lone Tree", "ZIPCODE": "80134", "CLASS": "LRT", "PARCEL_ID_NUMBER": "Stop#: 35211 (South)<br />Stop#: 35212 (North)", "SPECIAL_RTS": "D-E-H-R", "RAIL_LINE": "D-E-H-R", "LOCAL_RTS": null, "REGIONAL_RTS": null, "SKYRIDE_RTS": null, "CNRS": null, "VMAP": null, "INFO_REPORT": " " }, "geometry": { "type": "Point", "coordinates": [ -104.865403911867006, 39.520470560887802 ] } },
{ "type": "Feature", "properties": { "OBJECTID": 56, "PID": 251, "NAME": "48th Ave/Brighton Blvd@Nat'l Western Ctr", "ADDRESS": "4903 N Brighton Blvd", "CITY": "Denver", "ZIPCODE": "80216", "CLASS": "STN", "PARCEL_ID_NUMBER": "Stop#: 35246 (South)<br />Stop#: 35247 (North)", "SPECIAL_RTS": "N", "RAIL_LINE": "N", "LOCAL_RTS": "48", "REGIONAL_RTS": null, "SKYRIDE_RTS": null, "CNRS": null, "VMAP": null, "INFO_REPORT": null }, "geometry": { "type": "Point", "coordinates": [ -104.968244363422002, 39.784839922615198 ] } },
{ "type": "Feature", "properties": { "OBJECTID": 57, "PID": 252, "NAME": "Commerce City / 72nd Ave", "ADDRESS": "3838 E 72nd Ave", "CITY": "Commerce City", "ZIPCODE": "80022", "CLASS": "LRT", "PARCEL_ID_NUMBER": "Stop#: 35248 (South)<br />Stop#: 35249 (North)", "SPECIAL_RTS": "N", "RAIL_LINE": "N", "LOCAL_RTS": "49-72-88-88L", "REGIONAL_RTS": null, "SKYRIDE_RTS": null, "CNRS": null, "VMAP": null, "INFO_REPORT": null }, "geometry": { "type": "Point", "coordinates": [ -104.942979589212001, 39.826349113222598 ] } },
{ "type": "Feature", "properties": { "OBJECTID": 58, "PID": 253, "NAME": "Original Thornton / 88th Ave", "ADDRESS": "8989 Welby Rd", "CITY": "Thornton", "ZIPCODE": "80229", "CLASS": "LRT", "PARCEL_ID_NUMBER": "Stop#: 35250 (South)<br />Stop#: 35251 (North)", "SPECIAL_RTS": "N", "RAIL_LINE": "N", "LOCAL_RTS": "88L-92", "REGIONAL_RTS": null, "SKYRIDE_RTS": null, "CNRS": null, "VMAP": "Thornton", "INFO_REPORT": null }, "geometry": { "type": "Point", "coordinates": [ -104.95307155866, 39.8587786445947 ] } },
{ "type": "Feature", "properties": { "OBJECTID": 59, "PID": 254, "NAME": "Thornton Crossroads / 104th Ave", "ADDRESS": "10375 Colorado Blvd", "CITY": "Thornton", "ZIPCODE": "80229", "CLASS": "LRT", "PARCEL_ID_NUMBER": "Stop#: 35252 (South)<br />Stop#: 35253 (North)", "SPECIAL_RTS": "N", "RAIL_LINE": "N", "LOCAL_RTS": "93L-104L", "REGIONAL_RTS": null, "SKYRIDE_RTS": null, "CNRS": null, "VMAP": "Thornton", "INFO_REPORT": null }, "geometry": { "type": "Point", "coordinates": [ -104.942237787400003, 39.8821847743462 ] } },
{ "type": "Feature", "properties": { "OBJECTID": 60, "PID": 255, "NAME": "Northglenn / 112th Ave", "ADDRESS": "11355 York St", "CITY": "Northglenn", "ZIPCODE": "80233", "CLASS": "LRT", "PARCEL_ID_NUMBER": "Stop#: 35254 (South)<br />Stop#: 35255 (North)", "SPECIAL_RTS": "N", "RAIL_LINE": "N", "LOCAL_RTS": "7-112", "REGIONAL_RTS": null, "SKYRIDE_RTS": null, "CNRS": null, "VMAP": "Thornton", "INFO_REPORT": null }, "geometry": { "type": "Point", "coordinates": [ -104.960076382292996, 39.902735966516303 ] } },
{ "type": "Feature", "properties": { "OBJECTID": 61, "PID": 256, "NAME": "Eastlake / 124th Ave", "ADDRESS": "12500 Claude Ct", "CITY": "Thornton", "ZIPCODE": "80241", "CLASS": "LRT", "PARCEL_ID_NUMBER": "Stop#: 35256 (South)<br />Stop#: 35257 (North)", "SPECIAL_RTS": "N", "RAIL_LINE": "N", "LOCAL_RTS": "120-120L", "REGIONAL_RTS": null, "SKYRIDE_RTS": null, "CNRS": null, "VMAP": "Thornton", "INFO_REPORT": null }, "geometry": { "type": "Point", "coordinates": [ -104.962120975727998, 39.9229035398943 ] } },
{ "type": "Feature", "properties": { "OBJECTID": 62, "PID": 122, "NAME": "Dry Creek Station", "ADDRESS": "9450 E Dry Creek Rd", "CITY": "Centennial", "ZIPCODE": "80112", "CLASS": "LRT", "PARCEL_ID_NUMBER": "Stop#: 25989 (South)<br />Stop#: 34007 (North)", "SPECIAL_RTS": "D-E-H-R", "RAIL_LINE": "D-E-H-R", "LOCAL_RTS": null, "REGIONAL_RTS": null, "SKYRIDE_RTS": null, "CNRS": "DRFX - NIFX", "VMAP": "Dry Creek - North Inverness", "INFO_REPORT": null }, "geometry": { "type": "Point", "coordinates": [ -104.876794802096001, 39.579060919379501 ] } },
{ "type": "Feature", "properties": { "OBJECTID": 63, "PID": 227, "NAME": "41st / Fox Station", "ADDRESS": "4105 N Fox St", "CITY": "Denver", "ZIPCODE": "80216", "CLASS": "LRT", "PARCEL_ID_NUMBER": "Stop#: 34559 (East)<br />Stop#: 34558 (West)", "SPECIAL_RTS": "B-G", "RAIL_LINE": "B-G", "LOCAL_RTS": null, "REGIONAL_RTS": null, "SKYRIDE_RTS": null, "CNRS": null, "VMAP": null, "INFO_REPORT": " " }, "geometry": { "type": "Point", "coordinates": [ -104.996880807742997, 39.773542410374503 ] } },
{ "type": "Feature", "properties": { "OBJECTID": 64, "PID": 228, "NAME": "Westminster Station", "ADDRESS": "6995 Grove Street", "CITY": "Westminster", "ZIPCODE": "80030", "CLASS": "LRT", "PARCEL_ID_NUMBER": "Stop#: 34560 (South)<br />Stop#: 34561 (North)", "SPECIAL_RTS": "B-G", "RAIL_LINE": "B-G", "LOCAL_RTS": "31-72", "REGIONAL_RTS": null, "SKYRIDE_RTS": null, "CNRS": null, "VMAP": null, "INFO_REPORT": "accessible via 71st Ave and Hooker St" }, "geometry": { "type": "Point", "coordinates": [ -105.028973835428999, 39.822690609473199 ] } },
{ "type": "Feature", "properties": { "OBJECTID": 65, "PID": 226, "NAME": "Pecos Junction Station", "ADDRESS": "6096 Pecos St", "CITY": "Denver", "ZIPCODE": "80221", "CLASS": "LRT", "PARCEL_ID_NUMBER": "Stop#: 34543 (East)<br />Stop#: 34544 (West) ", "SPECIAL_RTS": "B-G", "RAIL_LINE": "B-G", "LOCAL_RTS": "19", "REGIONAL_RTS": null, "SKYRIDE_RTS": null, "CNRS": null, "VMAP": null, "INFO_REPORT": " " }, "geometry": { "type": "Point", "coordinates": [ -105.005087875468007, 39.805071775235803 ] } },
{ "type": "Feature", "properties": { "OBJECTID": 66, "PID": 225, "NAME": "Clear Creek / Federal Station", "ADDRESS": "2870 W 60th Ave", "CITY": "Denver", "ZIPCODE": "80221", "CLASS": "LRT", "PARCEL_ID_NUMBER": "Stop#: 34529 (East)<br />Stop#: 34530 (West)", "SPECIAL_RTS": "B-G", "RAIL_LINE": "B-G", "LOCAL_RTS": "31", "REGIONAL_RTS": null, "SKYRIDE_RTS": null, "CNRS": null, "VMAP": null, "INFO_REPORT": " " }, "geometry": { "type": "Point", "coordinates": [ -105.023336124587999, 39.803927896782 ] } },
{ "type": "Feature", "properties": { "OBJECTID": 67, "PID": 224, "NAME": "60th/Sheridan-Arvada Gold Strike Station", "ADDRESS": "5980 Sheridan Blvd", "CITY": "Arvada", "ZIPCODE": "80003", "CLASS": "LRT", "PARCEL_ID_NUMBER": "Stop#: 34525 (East)<br />Stop#: 34526 (West)", "SPECIAL_RTS": "B-G", "RAIL_LINE": "B-G", "LOCAL_RTS": "51", "REGIONAL_RTS": null, "SKYRIDE_RTS": null, "CNRS": null, "VMAP": null, "INFO_REPORT": " " }, "geometry": { "type": "Point", "coordinates": [ -105.049171080169998, 39.803671561748502 ] } },
{ "type": "Feature", "properties": { "OBJECTID": 68, "PID": 223, "NAME": "Arvada Ridge Station", "ADDRESS": "10189 W 53rd Ave", "CITY": "Arvada", "ZIPCODE": "80033", "CLASS": "LRT", "PARCEL_ID_NUMBER": "Stop#: 34519 (East)<br />Stop#: 34520 (West)", "SPECIAL_RTS": "B-G", "RAIL_LINE": "B-G", "LOCAL_RTS": "100", "REGIONAL_RTS": null, "SKYRIDE_RTS": null, "CNRS": null, "VMAP": null, "INFO_REPORT": " " }, "geometry": { "type": "Point", "coordinates": [ -105.111279208322003, 39.792646588537302 ] } },
{ "type": "Feature", "properties": { "OBJECTID": 69, "PID": 222, "NAME": "Wheat Ridge / Ward Road Station", "ADDRESS": "12000 Ridge Road", "CITY": "Wheat Ridge", "ZIPCODE": "80033", "CLASS": "LRT", "PARCEL_ID_NUMBER": "Stop#: 34510 (East)<br />Stop#: 34511 (West)", "SPECIAL_RTS": "B-G", "RAIL_LINE": "B-G", "LOCAL_RTS": "38-44", "REGIONAL_RTS": null, "SKYRIDE_RTS": null, "CNRS": null, "VMAP": null, "INFO_REPORT": " " }, "geometry": { "type": "Point", "coordinates": [ -105.133020944497005, 39.788043148668301 ] } },
{ "type": "Feature", "properties": { "OBJECTID": 70, "PID": 236, "NAME": "38th / Blake Station", "ADDRESS": "3737 Blake St", "CITY": "Denver", "ZIPCODE": "80205", "CLASS": "LRT", "PARCEL_ID_NUMBER": "Stop#: 34466 (South)<br />Stop#: 34465 (North)", "SPECIAL_RTS": "A", "RAIL_LINE": "A", "LOCAL_RTS": "7-12", "REGIONAL_RTS": null, "SKYRIDE_RTS": null, "CNRS": null, "VMAP": null, "INFO_REPORT": " " }, "geometry": { "type": "Point", "coordinates": [ -104.973788967475997, 39.770492995047199 ] } },
{ "type": "Feature", "properties": { "OBJECTID": 71, "PID": 237, "NAME": "61st / Pena Station", "ADDRESS": "6045 N Richfield St", "CITY": "Denver", "ZIPCODE": "80249", "CLASS": "LRT", "PARCEL_ID_NUMBER": "Stop#: 34606 (South)<br />Stop#: 34605 (North)", "SPECIAL_RTS": "A", "RAIL_LINE": "A", "LOCAL_RTS": null, "REGIONAL_RTS": null, "SKYRIDE_RTS": null, "CNRS": null, "VMAP": null, "INFO_REPORT": " " }, "geometry": { "type": "Point", "coordinates": [ -104.783889171408006, 39.806806738014103 ] } },
{ "type": "Feature", "properties": { "OBJECTID": 72, "PID": 177, "NAME": "Perry Station", "ADDRESS": "1199 N Perry St", "CITY": "Denver", "ZIPCODE": "80204", "CLASS": "STN", "PARCEL_ID_NUMBER": "Stop#: 33965 (East)<br />Stop#: 33560 (West)", "SPECIAL_RTS": "W", "RAIL_LINE": "W", "LOCAL_RTS": null, "REGIONAL_RTS": null, "SKYRIDE_RTS": null, "CNRS": null, "VMAP": null, "INFO_REPORT": " " }, "geometry": { "type": "Point", "coordinates": [ -105.039897270232004, 39.734833389764397 ] } },
{ "type": "Feature", "properties": { "OBJECTID": 73, "PID": 234, "NAME": "Aurora Metro Center Station", "ADDRESS": "14555 E Centrepoint Dr", "CITY": "Aurora", "ZIPCODE": "80012", "CLASS": "LRT", "PARCEL_ID_NUMBER": "Stop#: 34580 (South)<br />Stop#: 34579 (North)", "SPECIAL_RTS": "R", "RAIL_LINE": "R", "LOCAL_RTS": "3-3L-6-11-15L-21-130-133-153", "REGIONAL_RTS": null, "SKYRIDE_RTS": null, "CNRS": null, "VMAP": null, "INFO_REPORT": " " }, "geometry": { "type": "Point", "coordinates": [ -104.819152994231004, 39.7087423917121 ] } },
{ "type": "Feature", "properties": { "OBJECTID": 74, "PID": 125, "NAME": "Belleview Station", "ADDRESS": "4855 S Quebec St", "CITY": "Denver", "ZIPCODE": "80237", "CLASS": "LRT", "PARCEL_ID_NUMBER": "Stop#: 25991 (South)<br />Stop#: 34010 (North)", "SPECIAL_RTS": "D-E-H-R", "RAIL_LINE": "D-E-H-R", "LOCAL_RTS": "73", "REGIONAL_RTS": null, "SKYRIDE_RTS": null, "CNRS": "BWFX", "VMAP": "Belleview", "INFO_REPORT": " " }, "geometry": { "type": "Point", "coordinates": [ -104.904571186788004, 39.627686800803197 ] } },
{ "type": "Feature", "properties": { "OBJECTID": 75, "PID": 175, "NAME": "Decatur-Federal Station", "ADDRESS": "1310 N Federal Blvd", "CITY": "Denver", "ZIPCODE": "80204", "CLASS": "LRT", "PARCEL_ID_NUMBER": "Stop#: 33958 (East)<br />Stop#: 33558 (West)", "SPECIAL_RTS": "W", "RAIL_LINE": "W", "LOCAL_RTS": "15L-16-30-31", "REGIONAL_RTS": null, "SKYRIDE_RTS": null, "CNRS": "PLFX", "VMAP": "Platte Valley", "INFO_REPORT": "No parking during major stadium events." }, "geometry": { "type": "Point", "coordinates": [ -105.024071006678, 39.737329658340798 ] } },
{ "type": "Feature", "properties": { "OBJECTID": 76, "PID": 233, "NAME": "Iliff Station", "ADDRESS": "14030 E Iliff Ave", "CITY": "Aurora", "ZIPCODE": "80014", "CLASS": "LRT", "PARCEL_ID_NUMBER": "Stop#: 34575 (South)<br />Stop#: 34574 (North)", "SPECIAL_RTS": "D-E-H-R", "RAIL_LINE": "D-E-H-R", "LOCAL_RTS": "21", "REGIONAL_RTS": null, "SKYRIDE_RTS": null, "CNRS": null, "VMAP": null, "INFO_REPORT": "This parking facility is privately owned and operated by the City of Aurora. Daily parking fees are $1.50/day and fees apply all vehicles <a href=\"http://www.parkaurora.com\">More Info</a>" }, "geometry": { "type": "Point", "coordinates": [ -104.826822731972996, 39.673338881927698 ] } },
{ "type": "Feature", "properties": { "OBJECTID": 77, "PID": 66, "NAME": "10th / Osage Station", "ADDRESS": "975 Osage St", "CITY": "Denver", "ZIPCODE": "80204", "CLASS": "STN", "PARCEL_ID_NUMBER": "Stop#: 23059 (South)<br />Stop#: 23043 (North)", "SPECIAL_RTS": "D-E-H", "RAIL_LINE": "D-E-H", "LOCAL_RTS": null, "REGIONAL_RTS": null, "SKYRIDE_RTS": null, "CNRS": null, "VMAP": "Platte Valley", "INFO_REPORT": " " }, "geometry": { "type": "Point", "coordinates": [ -105.005705010881002, 39.732146420323097 ] } }
]
}
