{
  "type": "FeatureCollection",
  "features": [
    {
      "type": "Feature",
      "geometry": {
        "type": "Point",
        "coordinates": [-115.15461443138132, 36.14232879413048]
      },
      "properties": {
        "name": "Sahara",
        "line": "LVM",
        "id": 0
      },
      "id": 0
    },
    {
      "type": "Feature",
      "geometry": {
        "type": "Point",
        "coordinates": [-115.15291122774558, 36.13707959246462]
      },
      "properties": {
        "name": "Westgate",
        "line": "LVM",
        "id": 1
      },
      "id": 1
    },
    {
      "type": "Feature",
      "geometry": {
        "type": "Point",
        "coordinates": [-115.15441915859896, 36.12953853220802]
      },
      "properties": {
        "name": "Convention Center",
        "line": "LVM",
        "id": 2
      },
      "id": 2
    },
    {
      "type": "Feature",
      "geometry": {
        "type": "Point",
        "coordinates": [-115.16854350414845, 36.118785550802876]
      },
      "properties": {
        "name": "Harrah's & The LINQ",
        "line": "LVM",
        "id": 3
      },
      "id": 3
    },
    {
      "type": "Feature",
      "geometry": {
        "type": "Point",
        "coordinates": [-115.16856753146851, 36.11604201424016]
      },
      "properties": {
        "name": "Flamingo & Caesars Palace",
        "line": "LVM",
        "id": 4
      },
      "id": 4
    },
    {
      "type": "Feature",
      "geometry": {
        "type": "Point",
        "coordinates": [-115.16744532772789, 36.1123474465473]
      },
      "properties": {
        "name": "Horseshoe & Paris",
        "line": "LVM",
        "id": 5
      },
      "id": 5
    },
    {
      "type": "Feature",
      "geometry": {
        "type": "Point",
        "coordinates": [-115.16781283653094, 36.10245324400629]
      },
      "properties": {
        "name": "MGM Grand",
        "line": "LVM",
        "id": 6
      },
      "id": 6
    },
    {
      "type": "Feature",
      "geometry": {
        "type": "Point",
        "coordinates": [-115.14704516667751, 36.081240617682646]
      },
      "properties": {
        "name": "Concourse C",
        "line": "LVGreen",
        "id": 7
      },
      "id": 7
    },
    {
      "type": "Feature",
      "geometry": {
        "type": "Point",
        "coordinates": [-115.14884092481046, 36.08441013910726]
      },
      "properties": {
        "name": "Terminal 1",
        "line": "LVGreen",
        "id": 8
      },
      "id": 8
    },
    {
      "type": "Feature",
      "geometry": {
        "type": "Point",
        "coordinates": [-115.14848222052063, 36.08446735154331]
      },
      "properties": {
        "name": "Terminal 1",
        "line": "LVBlue",
        "id": 9
      },
      "id": 9
    },
    {
      "type": "Feature",
      "geometry": {
        "type": "Point",
        "coordinates": [-115.13760222018054, 36.08168529198482]
      },
      "properties": {
        "name": "Concourse D",
        "line": "LVBlue",
        "id": 10
      },
      "id": 10
    },
    {
      "type": "Feature",
      "geometry": {
        "type": "Point",
        "coordinates": [-115.13760222018054, 36.08168529198482]
      },
      "properties": {
        "name": "Concourse D",
        "line": "LVRed",
        "id": 11
      },
      "id": 11
    },
    {
      "type": "Feature",
      "geometry": {
        "type": "Point",
        "coordinates": [-115.13698649206214, 36.086212540328034]
      },
      "properties": {
        "name": "Terminal 3",
        "line": "LVRed",
        "id": 12
      },
      "id": 12
    }
  ]
}
