{
  "type": "FeatureCollection",
  "features": [
    {
      "type": "Feature",
      "geometry": {
        "type": "Point",
        "coordinates": [
          -94.79028101660137,
          29.30611832665787
        ]
      },
      "properties": {
        "name": "Market & 20th",
        "line": "MAXRed",
        "id": 0
      },
      "id": 0
    },
    {
      "type": "Feature",
      "geometry": {
        "type": "Point",
        "coordinates": [
          -94.79193504298587,
          29.307856765324097
        ]
      },
      "properties": {
        "name": "Strand & Moody",
        "line": "MAXRed",
        "id": 1
      },
      "id": 1
    },
    {
      "type": "Feature",
      "geometry": {
        "type": "Point",
        "coordinates": [
          -94.79278420177349,
          29.309017064546428
        ]
      },
      "properties": {
        "name": "Pier 21",
        "line": "MAXRed",
        "id": 2
      },
      "id": 2
    },
    {
      "type": "Feature",
      "geometry": {
        "type": "Point",
        "coordinates": [
          -94.79461579453289,
          29.30713241560989
        ]
      },
      "properties": {
        "name": "Strand & 23rd",
        "line": "MAXRed",
        "id": 3
      },
      "id": 3
    },
    {
      "type": "Feature",
      "geometry": {
        "type": "Point",
        "coordinates": [
          -94.79673423270947,
          29.306379334544676
        ]
      },
      "properties": {
        "name": "Strand & 25th",
        "line": "MAXRed",
        "id": 4
      },
      "id": 4
    },
    {
      "type": "Feature",
      "geometry": {
        "type": "Point",
        "coordinates": [
          -94.79278480085016,
          29.294851667741067
        ]
      },
      "properties": {
        "name": "25th & Av N",
        "line": "MAXRed",
        "id": 5,
        "alternate_names": [
          "25th & Ursuline St",
          "25th & Ursuline"
        ]
      },
      "id": 5
    },
    {
      "type": "Feature",
      "geometry": {
        "type": "Point",
        "coordinates": [
          -94.79190487568351,
          29.292232006819244
        ]
      },
      "properties": {
        "name": "25th & Ave O 1/2",
        "line": "MAXRed",
        "id": 6
      },
      "id": 6
    },
    {
      "type": "Feature",
      "geometry": {
        "type": "Point",
        "coordinates": [
          -94.78680277367907,
          29.291363598996824
        ]
      },
      "properties": {
        "name": "Seawall & 21st",
        "line": "MAXRed",
        "id": 7
      },
      "id": 7
    }
  ]
}
