{"type":"FeatureCollection","features":[{"type":"Feature","geometry":{"type":"Point","coordinates":[130.3251041,33.5837095]},"properties":{"id":0,"name":"Meinohama (姪浜)","display_name":"Meinohama (姪浜)","line":"Kuko","order":0,"alternate_names":["姪浜","Meinohama"]},"id":0},{"type":"Feature","geometry":{"coordinates":[130.340033,33.580913],"type":"Point"},"properties":{"id":1,"name":"Muromi (室見)","display_name":"Muromi (室見)","line":"Kuko","order":1,"alternate_names":["室見","Muromi"]},"id":1},{"type":"Feature","geometry":{"coordinates":[130.3483351,33.5813608],"type":"Point"},"properties":{"id":2,"name":"Fujisaki (藤崎)","display_name":"Fujisaki (藤崎)","line":"Kuko","order":2,"alternate_names":["藤崎","Fujisaki"]},"id":2},{"type":"Feature","geometry":{"coordinates":[130.3594592,33.5837344],"type":"Point"},"properties":{"id":3,"name":"Nishijin (西新)","display_name":"Nishijin (西新)","line":"Kuko","order":3,"alternate_names":["西新","Nishijin"]},"id":3},{"type":"Feature","geometry":{"coordinates":[130.370243,33.5902206],"type":"Point"},"properties":{"id":4,"name":"Tojinmachi (唐人町)","display_name":"Tojinmachi (唐人町)","line":"Kuko","order":4,"alternate_names":["唐人町","Tojinmachi"]},"id":4},{"type":"Feature","geometry":{"coordinates":[130.3787604,33.590105],"type":"Point"},"properties":{"id":5,"name":"Ohorikoen (大濠公園)","display_name":"Ohorikoen (大濠公園)","line":"Kuko","order":5,"alternate_names":["大濠公園","Ohorikoen"]},"id":5},{"type":"Feature","geometry":{"coordinates":[130.390363,33.5890805],"type":"Point"},"properties":{"id":6,"name":"Akasaka (赤坂)","display_name":"Akasaka (赤坂)","line":"Kuko","order":6,"alternate_names":["赤坂","Akasaka"]},"id":6},{"type":"Feature","geometry":{"coordinates":[130.3986278,33.5912646],"type":"Point"},"properties":{"id":7,"name":"Tenjin (天神)","display_name":"Tenjin (天神)","line":"Kuko","order":7,"alternate_names":["天神","Tenjin"]},"id":7},{"type":"Feature","geometry":{"coordinates":[130.406413,33.5947319],"type":"Point"},"properties":{"id":8,"name":"Nakasu-Kawabata (中洲川端)","display_name":"Nakasu-Kawabata (中洲川端)","line":"Kuko","order":8,"alternate_names":["中洲川端","Nakasu-Kawabata"]},"id":8},{"type":"Feature","geometry":{"coordinates":[130.4143909,33.5943039],"type":"Point"},"properties":{"id":9,"name":"Gion (祇園)","display_name":"Gion (祇園)","line":"Kuko","order":9,"alternate_names":["祇園","Gion"]},"id":9},{"type":"Feature","geometry":{"coordinates":[130.4143171,33.5943367],"type":"Point"},"properties":{"id":10,"name":"Gion (祇園)","display_name":"Gion (祇園)","line":"Kuko","order":9,"alternate_names":["祇園","Gion"]},"id":10},{"type":"Feature","geometry":{"type":"Point","coordinates":[130.4206,33.5901]},"properties":{"id":11,"name":"Hakata (博多)","display_name":"Hakata (博多)","line":"Kuko","order":10,"alternate_names":["博多","Hakata"]},"id":11},{"type":"Feature","geometry":{"coordinates":[130.4312915,33.5898296],"type":"Point"},"properties":{"id":12,"name":"Higashi-Hi (東比恵)","display_name":"Higashi-Hi (東比恵)","line":"Kuko","order":11,"alternate_names":["東比恵","Higashi-Hi"]},"id":12},{"type":"Feature","geometry":{"coordinates":[130.448182,33.5973227],"type":"Point"},"properties":{"id":13,"name":"Fukuoka-kuko (福岡空港)","display_name":"Fukuoka-kuko (福岡空港)","line":"Kuko","order":12,"alternate_names":["福岡空港","Fukuoka-kuko","fukuoka airport","airport","fuk"]},"id":13},{"type":"Feature","geometry":{"type":"Point","coordinates":[130.3251041,33.5837095]},"properties":{"id":14,"name":"Meinohama (姪浜)","display_name":"Meinohama (姪浜)","line":"Hakozaki","order":0,"alternate_names":["姪浜","Meinohama"]},"id":14},{"type":"Feature","geometry":{"coordinates":[130.340033,33.580913],"type":"Point"},"properties":{"id":15,"name":"Muromi (室見)","display_name":"Muromi (室見)","line":"Hakozaki","order":1,"alternate_names":["室見","Muromi"]},"id":15},{"type":"Feature","geometry":{"coordinates":[130.3483351,33.5813608],"type":"Point"},"properties":{"id":16,"name":"Fujisaki (藤崎)","display_name":"Fujisaki (藤崎)","line":"Hakozaki","order":2,"alternate_names":["藤崎","Fujisaki"]},"id":16},{"type":"Feature","geometry":{"coordinates":[130.3594592,33.5837344],"type":"Point"},"properties":{"id":17,"name":"Nishijin (西新)","display_name":"Nishijin (西新)","line":"Hakozaki","order":3,"alternate_names":["西新","Nishijin"]},"id":17},{"type":"Feature","geometry":{"coordinates":[130.370243,33.5902206],"type":"Point"},"properties":{"id":18,"name":"Tojinmachi (唐人町)","display_name":"Tojinmachi (唐人町)","line":"Hakozaki","order":4,"alternate_names":["唐人町","Tojinmachi"]},"id":18},{"type":"Feature","geometry":{"coordinates":[130.3787604,33.590105],"type":"Point"},"properties":{"id":19,"name":"Ohorikoen (大濠公園)","display_name":"Ohorikoen (大濠公園)","line":"Hakozaki","order":5,"alternate_names":["大濠公園","Ohorikoen"]},"id":19},{"type":"Feature","geometry":{"coordinates":[130.390363,33.5890805],"type":"Point"},"properties":{"id":20,"name":"Akasaka (赤坂)","display_name":"Akasaka (赤坂)","line":"Hakozaki","order":6,"alternate_names":["赤坂","Akasaka"]},"id":20},{"type":"Feature","geometry":{"coordinates":[130.3986278,33.5912646],"type":"Point"},"properties":{"id":21,"name":"Tenjin (天神)","display_name":"Tenjin (天神)","line":"Hakozaki","order":7,"alternate_names":["天神","Tenjin"]},"id":21},{"type":"Feature","geometry":{"coordinates":[130.406413,33.5947319],"type":"Point"},"properties":{"id":22,"name":"Nakasu-Kawabata (中洲川端)","display_name":"Nakasu-Kawabata (中洲川端)","line":"Hakozaki","order":8,"alternate_names":["中洲川端","Nakasu-Kawabata"]},"id":22},{"type":"Feature","geometry":{"coordinates":[130.4097225,33.5979652],"type":"Point"},"properties":{"id":23,"name":"Gofukumachi (呉服町)","display_name":"Gofukumachi (呉服町)","line":"Hakozaki","order":9,"alternate_names":["呉服町","Gofukumachi"]},"id":23},{"type":"Feature","geometry":{"coordinates":[130.4140797,33.6022343],"type":"Point"},"properties":{"id":24,"name":"Chiyo-Kenchōguchi (千代県庁口)","display_name":"Chiyo-Kenchōguchi (千代県庁口)","line":"Hakozaki","order":10,"alternate_names":["千代県庁口","Chiyo-Kenchōguchi"]},"id":24},{"type":"Feature","geometry":{"coordinates":[130.4198612,33.6099223],"type":"Point"},"properties":{"id":25,"name":"Maidashi-Kyūdai-byōin-mae (馬出九大病院前)","display_name":"Maidashi-Kyūdai-byōin-mae (馬出九大病院前)","line":"Hakozaki","order":11,"alternate_names":["馬出九大病院前","Maidashi-Kyūdai-byōin-mae"]},"id":25},{"type":"Feature","geometry":{"coordinates":[130.4198606,33.6151878],"type":"Point"},"properties":{"id":26,"name":"Hakozaki-Miyamae (箱崎宮前)","display_name":"Hakozaki-Miyamae (箱崎宮前)","line":"Hakozaki","order":12,"alternate_names":["箱崎宮前","Hakozaki-Miyamae"]},"id":26},{"type":"Feature","geometry":{"coordinates":[130.4214457,33.6226418],"type":"Point"},"properties":{"id":27,"name":"Hakozaki-Kyūdai-mae (箱崎九大前)","display_name":"Hakozaki-Kyūdai-mae (箱崎九大前)","line":"Hakozaki","order":13,"alternate_names":["箱崎九大前","Hakozaki-Kyūdai-mae"]},"id":27},{"type":"Feature","geometry":{"coordinates":[130.4255947,33.6320356],"type":"Point"},"properties":{"id":28,"name":"Kaizuka (貝塚)","display_name":"Kaizuka (貝塚)","line":"Hakozaki","order":14,"alternate_names":["貝塚","Kaizuka"]},"id":28},{"type":"Feature","geometry":{"coordinates":[130.3211439,33.5551452],"type":"Point"},"properties":{"id":29,"name":"Hashimoto (橋本)","display_name":"Hashimoto (橋本)","line":"Nanakuma","order":0,"alternate_names":["橋本","Hashimoto"]},"id":29},{"type":"Feature","geometry":{"coordinates":[130.3210195,33.5550699],"type":"Point"},"properties":{"id":30,"name":"Hashimoto (橋本)","display_name":"Hashimoto (橋本)","line":"Nanakuma","order":0,"alternate_names":["橋本","Hashimoto"]},"id":30},{"type":"Feature","geometry":{"coordinates":[130.3210647,33.5551195],"type":"Point"},"properties":{"id":31,"name":"Hashimoto (橋本)","display_name":"Hashimoto (橋本)","line":"Nanakuma","order":0,"alternate_names":["橋本","Hashimoto"]},"id":31},{"type":"Feature","geometry":{"type":"Point","coordinates":[130.3294,33.5526]},"properties":{"id":32,"name":"Jirōmaru (次郎丸)","display_name":"Jirōmaru (次郎丸)","line":"Nanakuma","order":1,"alternate_names":["次郎丸","Jirōmaru"]},"id":32},{"type":"Feature","geometry":{"type":"Point","coordinates":[130.3379,33.5505]},"properties":{"id":33,"name":"Kamo (賀茂)","display_name":"Kamo (賀茂)","line":"Nanakuma","order":2,"alternate_names":["賀茂","Kamo"]},"id":33},{"type":"Feature","geometry":{"type":"Point","coordinates":[130.3465,33.5483]},"properties":{"id":34,"name":"Noke (野芥)","display_name":"Noke (野芥)","line":"Nanakuma","order":3,"alternate_names":["野芥","Noke"]},"id":34},{"type":"Feature","geometry":{"type":"Point","coordinates":[130.355,33.5459]},"properties":{"id":35,"name":"Umebayashi (梅林)","display_name":"Umebayashi (梅林)","line":"Nanakuma","order":4,"alternate_names":["梅林","Umebayashi"]},"id":35},{"type":"Feature","geometry":{"type":"Point","coordinates":[130.3624,33.5473]},"properties":{"id":36,"name":"Fukudaimae (福大前)","display_name":"Fukudaimae (福大前)","line":"Nanakuma","order":5,"alternate_names":["福大前","Fukudaimae"]},"id":36},{"type":"Feature","geometry":{"type":"Point","coordinates":[130.3617,33.5533]},"properties":{"id":37,"name":"Nanakuma (七隈)","display_name":"Nanakuma (七隈)","line":"Nanakuma","order":6,"alternate_names":["七隈","Nanakuma"]},"id":37},{"type":"Feature","geometry":{"coordinates":[130.3617227,33.559663],"type":"Point"},"properties":{"id":38,"name":"Kanayama (金山)","display_name":"Kanayama (金山)","line":"Nanakuma","order":7,"alternate_names":["金山","Kanayama"]},"id":38},{"type":"Feature","geometry":{"coordinates":[130.3617783,33.5596511],"type":"Point"},"properties":{"id":39,"name":"Kanayama (金山)","display_name":"Kanayama (金山)","line":"Nanakuma","order":7,"alternate_names":["金山","Kanayama"]},"id":39},{"type":"Feature","geometry":{"coordinates":[130.3617686,33.5596888],"type":"Point"},"properties":{"id":40,"name":"Kanayama (金山)","display_name":"Kanayama (金山)","line":"Nanakuma","order":7,"alternate_names":["金山","Kanayama"]},"id":40},{"type":"Feature","geometry":{"coordinates":[130.3654783,33.5662796],"type":"Point"},"properties":{"id":41,"name":"Chayama (茶山)","display_name":"Chayama (茶山)","line":"Nanakuma","order":8,"alternate_names":["茶山","Chayama"]},"id":41},{"type":"Feature","geometry":{"coordinates":[130.3655329,33.5662581],"type":"Point"},"properties":{"id":42,"name":"Chayama (茶山)","display_name":"Chayama (茶山)","line":"Nanakuma","order":8,"alternate_names":["茶山","Chayama"]},"id":42},{"type":"Feature","geometry":{"coordinates":[130.365513,33.5662866],"type":"Point"},"properties":{"id":43,"name":"Chayama (茶山)","display_name":"Chayama (茶山)","line":"Nanakuma","order":8,"alternate_names":["茶山","Chayama"]},"id":43},{"type":"Feature","geometry":{"coordinates":[130.3695717,33.574144],"type":"Point"},"properties":{"id":44,"name":"Befu (別府)","display_name":"Befu (別府)","line":"Nanakuma","order":9,"alternate_names":["別府","Befu"]},"id":44},{"type":"Feature","geometry":{"coordinates":[130.3695937,33.5741065],"type":"Point"},"properties":{"id":45,"name":"Befu (別府)","display_name":"Befu (別府)","line":"Nanakuma","order":9,"alternate_names":["別府","Befu"]},"id":45},{"type":"Feature","geometry":{"coordinates":[130.369553,33.5741102],"type":"Point"},"properties":{"id":46,"name":"Befu (別府)","display_name":"Befu (別府)","line":"Nanakuma","order":9,"alternate_names":["別府","Befu"]},"id":46},{"type":"Feature","geometry":{"coordinates":[130.3770852,33.5774505],"type":"Point"},"properties":{"id":47,"name":"Ropponmatsu (六本松)","display_name":"Ropponmatsu (六本松)","line":"Nanakuma","order":10,"alternate_names":["六本松","Ropponmatsu"]},"id":47},{"type":"Feature","geometry":{"coordinates":[130.3771092,33.5774171],"type":"Point"},"properties":{"id":48,"name":"Ropponmatsu (六本松)","display_name":"Ropponmatsu (六本松)","line":"Nanakuma","order":10,"alternate_names":["六本松","Ropponmatsu"]},"id":48},{"type":"Feature","geometry":{"coordinates":[130.3770659,33.5774198],"type":"Point"},"properties":{"id":49,"name":"Ropponmatsu (六本松)","display_name":"Ropponmatsu (六本松)","line":"Nanakuma","order":10,"alternate_names":["六本松","Ropponmatsu"]},"id":49},{"type":"Feature","geometry":{"coordinates":[130.3868726,33.5772939],"type":"Point"},"properties":{"id":50,"name":"Sakurazaka (桜坂)","display_name":"Sakurazaka (桜坂)","line":"Nanakuma","order":11,"alternate_names":["桜坂","Sakurazaka"]},"id":50},{"type":"Feature","geometry":{"coordinates":[130.3868756,33.5772495],"type":"Point"},"properties":{"id":51,"name":"Sakurazaka (桜坂)","display_name":"Sakurazaka (桜坂)","line":"Nanakuma","order":11,"alternate_names":["桜坂","Sakurazaka"]},"id":51},{"type":"Feature","geometry":{"coordinates":[130.3868573,33.5772712],"type":"Point"},"properties":{"id":52,"name":"Sakurazaka (桜坂)","display_name":"Sakurazaka (桜坂)","line":"Nanakuma","order":11,"alternate_names":["桜坂","Sakurazaka"]},"id":52},{"type":"Feature","geometry":{"coordinates":[130.3967747,33.5805689],"type":"Point"},"properties":{"id":53,"name":"Yakuin-ōdōri (薬院大通)","display_name":"Yakuin-ōdōri (薬院大通)","line":"Nanakuma","order":12,"alternate_names":["薬院大通","Yakuin-ōdōri"]},"id":53},{"type":"Feature","geometry":{"coordinates":[130.396796,33.5805272],"type":"Point"},"properties":{"id":54,"name":"Yakuin-ōdōri (薬院大通)","display_name":"Yakuin-ōdōri (薬院大通)","line":"Nanakuma","order":12,"alternate_names":["薬院大通","Yakuin-ōdōri"]},"id":54},{"type":"Feature","geometry":{"coordinates":[130.3967594,33.5805393],"type":"Point"},"properties":{"id":55,"name":"Yakuin-ōdōri (薬院大通)","display_name":"Yakuin-ōdōri (薬院大通)","line":"Nanakuma","order":12,"alternate_names":["薬院大通","Yakuin-ōdōri"]},"id":55},{"type":"Feature","geometry":{"coordinates":[130.4018282,33.5817275],"type":"Point"},"properties":{"id":56,"name":"Yakuin (薬院)","display_name":"Yakuin (薬院)","line":"Nanakuma","order":13,"alternate_names":["薬院","Yakuin"]},"id":56},{"type":"Feature","geometry":{"coordinates":[130.401824,33.5816793],"type":"Point"},"properties":{"id":57,"name":"Yakuin (薬院)","display_name":"Yakuin (薬院)","line":"Nanakuma","order":13,"alternate_names":["薬院","Yakuin"]},"id":57},{"type":"Feature","geometry":{"coordinates":[130.4018133,33.5817035],"type":"Point"},"properties":{"id":58,"name":"Yakuin (薬院)","display_name":"Yakuin (薬院)","line":"Nanakuma","order":13,"alternate_names":["薬院","Yakuin"]},"id":58},{"type":"Feature","geometry":{"coordinates":[130.4051403,33.5838644],"type":"Point"},"properties":{"id":59,"name":"Watanabe-dōri (渡辺通)","display_name":"Watanabe-dōri (渡辺通)","line":"Nanakuma","order":14,"alternate_names":["渡辺通","Watanabe-dōri"]},"id":59},{"type":"Feature","geometry":{"coordinates":[130.4051825,33.5838934],"type":"Point"},"properties":{"id":60,"name":"Watanabe-dōri (渡辺通)","display_name":"Watanabe-dōri (渡辺通)","line":"Nanakuma","order":14,"alternate_names":["渡辺通","Watanabe-dōri"]},"id":60},{"type":"Feature","geometry":{"coordinates":[130.4051299,33.5839062],"type":"Point"},"properties":{"id":61,"name":"Watanabe-dōri (渡辺通)","display_name":"Watanabe-dōri (渡辺通)","line":"Nanakuma","order":14,"alternate_names":["渡辺通","Watanabe-dōri"]},"id":61},{"type":"Feature","geometry":{"coordinates":[130.4024576,33.5886488],"type":"Point"},"properties":{"id":62,"name":"Tenjin-Minami (天神南)","display_name":"Tenjin-Minami (天神南)","line":"Nanakuma","order":15,"alternate_names":["天神南","Tenjin-Minami"]},"id":62},{"type":"Feature","geometry":{"coordinates":[130.4025452,33.5885608],"type":"Point"},"properties":{"id":63,"name":"Tenjin-Minami (天神南)","display_name":"Tenjin-Minami (天神南)","line":"Nanakuma","order":15,"alternate_names":["天神南","Tenjin-Minami"]},"id":63},{"type":"Feature","geometry":{"coordinates":[130.4023826,33.5886007],"type":"Point"},"properties":{"id":64,"name":"Tenjin-Minami (天神南)","display_name":"Tenjin-Minami (天神南)","line":"Nanakuma","order":15,"alternate_names":["天神南","Tenjin-Minami"]},"id":64},{"type":"Feature","geometry":{"coordinates":[130.4115938,33.591362],"type":"Point"},"properties":{"id":65,"name":"Kushida Shrine (櫛田神社前)","display_name":"Kushida Shrine (櫛田神社前)","line":"Nanakuma","order":16,"alternate_names":["櫛田神社前","Kushida Shrine"]},"id":65},{"type":"Feature","geometry":{"coordinates":[130.4115372,33.5913162],"type":"Point"},"properties":{"id":66,"name":"Kushida Shrine (櫛田神社前)","display_name":"Kushida Shrine (櫛田神社前)","line":"Nanakuma","order":16,"alternate_names":["櫛田神社前","Kushida Shrine"]},"id":66},{"type":"Feature","geometry":{"coordinates":[130.4115296,33.5912879],"type":"Point"},"properties":{"id":67,"name":"Kushida Shrine (櫛田神社前)","display_name":"Kushida Shrine (櫛田神社前)","line":"Nanakuma","order":16,"alternate_names":["櫛田神社前","Kushida Shrine"]},"id":67},{"type":"Feature","geometry":{"coordinates":[130.4185335,33.5897239],"type":"Point"},"properties":{"id":68,"name":"Hakata (博多)","display_name":"Hakata (博多)","line":"Nanakuma","order":17,"alternate_names":["博多","Hakata"]},"id":68},{"type":"Feature","geometry":{"coordinates":[130.4185261,33.5896075],"type":"Point"},"properties":{"id":69,"name":"Hakata (博多)","display_name":"Hakata (博多)","line":"Nanakuma","order":17,"alternate_names":["博多","Hakata"]},"id":69}]}