{
  "type": "FeatureCollection",
  "features": [
    {
      "type": "Feature",
      "geometry": {
        "type": "Point",
        "coordinates": [
          149.1354427,
          -35.1856325
        ]
      },
      "properties": {
        "name": "Gungahlin Place",
        "line": "CanberraR1",
        "id": 0
      },
      "id": 0
    },
    {
      "type": "Feature",
      "geometry": {
        "type": "Point",
        "coordinates": [
          149.1434088,
          -35.1869882
        ]
      },
      "properties": {
        "name": "Manning Clark North",
        "line": "CanberraR1",
        "id": 1
      },
      "id": 1
    },
    {
      "type": "Feature",
      "geometry": {
        "type": "Point",
        "coordinates": [
          149.1509706,
          -35.1934334
        ]
      },
      "properties": {
        "name": "Mapleton Avenue",
        "line": "CanberraR1",
        "id": 2
      },
      "id": 2
    },
    {
      "type": "Feature",
      "geometry": {
        "type": "Point",
        "coordinates": [
          149.1493346,
          -35.2003817
        ]
      },
      "properties": {
        "name": "Nullarbor Avenue",
        "line": "CanberraR1",
        "id": 3
      },
      "id": 3
    },
    {
      "type": "Feature",
      "geometry": {
        "type": "Point",
        "coordinates": [
          149.14735,
          -35.20905
        ]
      },
      "properties": {
        "name": "Well Station Drive",
        "line": "CanberraR1",
        "id": 4
      },
      "id": 4
    },
    {
      "type": "Feature",
      "geometry": {
        "type": "Point",
        "coordinates": [
          149.1446953,
          -35.221625
        ]
      },
      "properties": {
        "name": "Sandford Street",
        "line": "CanberraR1",
        "id": 5
      },
      "id": 5
    },
    {
      "type": "Feature",
      "geometry": {
        "type": "Point",
        "coordinates": [
          149.14422,
          -35.2284994
        ]
      },
      "properties": {
        "name": "EPIC and Racecourse",
        "line": "CanberraR1",
        "id": 6
      },
      "id": 6
    },
    {
      "type": "Feature",
      "geometry": {
        "type": "Point",
        "coordinates": [
          149.1439087,
          -35.2358185
        ]
      },
      "properties": {
        "name": "Phillip Avenue",
        "line": "CanberraR1",
        "id": 7
      },
      "id": 7
    },
    {
      "type": "Feature",
      "geometry": {
        "type": "Point",
        "coordinates": [
          149.1345618,
          -35.2444676
        ]
      },
      "properties": {
        "name": "Swinden Street",
        "line": "CanberraR1",
        "id": 8
      },
      "id": 8
    },
    {
      "type": "Feature",
      "geometry": {
        "type": "Point",
        "coordinates": [
          149.133739,
          -35.250558
        ]
      },
      "properties": {
        "name": "Dickson Interchange",
        "line": "CanberraR1",
        "id": 9
      },
      "id": 9
    },
    {
      "type": "Feature",
      "geometry": {
        "type": "Point",
        "coordinates": [
          149.1321796,
          -35.2601577
        ]
      },
      "properties": {
        "name": "Macarthur Avenue",
        "line": "CanberraR1",
        "id": 10
      },
      "id": 10
    },
    {
      "type": "Feature",
      "geometry": {
        "type": "Point",
        "coordinates": [
          149.1312575,
          -35.2658957
        ]
      },
      "properties": {
        "name": "Ipima Street",
        "line": "CanberraR1",
        "id": 11
      },
      "id": 11
    },
    {
      "type": "Feature",
      "geometry": {
        "type": "Point",
        "coordinates": [
          149.1301785,
          -35.2726165
        ]
      },
      "properties": {
        "name": "Elouera Street",
        "line": "CanberraR1",
        "id": 12
      },
      "id": 12
    },
    {
      "type": "Feature",
      "geometry": {
        "type": "Point",
        "coordinates": [
          149.1293252,
          -35.2779327
        ]
      },
      "properties": {
        "name": "Alinga Street",
        "line": "CanberraR1",
        "id": 13
      },
      "id": 13
    }
  ]
}