{
  "type": "FeatureCollection",
  "features": [
    {
      "type": "Feature",
      "geometry": {
        "type": "Point",
        "coordinates": [113.666568, 22.862261]
      },
      "properties": {
        "id": 1,
        "name": "Humen Railway Station (虎门火车站)",
        "alternate_names": [
          "Humen Railway Station",
          "Humen Station",
          "Humen",
          "虎门火车站",
          "虎門火車站",
          "humen huoche zhan",
          "fu2 mun4 fo2 ce1 zaam6"
        ],
        "line": "dongguanline2",
        "order": 0
      },
      "id": 1
    },
    {
      "type": "Feature",
      "geometry": {
        "type": "Point",
        "coordinates": [113.656526, 22.904898]
      },
      "properties": {
        "id": 2,
        "name": "Exhibition Center (展览中心)",
        "alternate_names": [
          "Exhibition Center",
          "Exhibition Centre",
          "Exhibition Center Station",
          "展览中心",
          "展覽中心",
          "zhanlan zhongxin",
          "zin2 laam5 zung1 sam1"
        ],
        "line": "dongguanline2",
        "order": 1
      },
      "id": 2
    },
    {
      "type": "Feature",
      "geometry": {
        "type": "Point",
        "coordinates": [113.659433, 22.929613]
      },
      "properties": {
        "id": 3,
        "name": "Shanmei (珊美)",
        "alternate_names": [
          "Shanmei",
          "Shanmei Station",
          "珊美",
          "shanmei",
          "saan1 mei5"
        ],
        "line": "dongguanline2",
        "order": 2
      },
      "id": 3
    },
    {
      "type": "Feature",
      "geometry": {
        "type": "Point",
        "coordinates": [113.668499, 22.94394]
      },
      "properties": {
        "id": 4,
        "name": "Liaoxia (寮厦)",
        "alternate_names": [
          "Liaoxia",
          "Liaoxia Station",
          "寮厦",
          "寮廈",
          "liaoxia",
          "liu4 haa6"
        ],
        "line": "dongguanline2",
        "order": 3
      },
      "id": 4
    },
    {
      "type": "Feature",
      "geometry": {
        "type": "Point",
        "coordinates": [113.68486, 22.960433]
      },
      "properties": {
        "id": 5,
        "name": "Chenwu (陈屋)",
        "alternate_names": [
          "Chenwu",
          "Chenwu Station",
          "陈屋",
          "陳屋",
          "chenwu",
          "can4 uk1"
        ],
        "line": "dongguanline2",
        "order": 4
      },
      "id": 5
    },
    {
      "type": "Feature",
      "geometry": {
        "type": "Point",
        "coordinates": [113.723828, 22.980827]
      },
      "properties": {
        "id": 6,
        "name": "Gedi (蛤地)",
        "alternate_names": [
          "Gedi",
          "Gedi Station",
          "蛤地",
          "gedi",
          "gaap3 dei6"
        ],
        "line": "dongguanline2",
        "order": 5
      },
      "id": 6
    },
    {
      "type": "Feature",
      "geometry": {
        "type": "Point",
        "coordinates": [113.741339, 22.996826]
      },
      "properties": {
        "id": 7,
        "name": "Xiping (西平)",
        "alternate_names": [
          "Xiping",
          "Xiping Station",
          "西平",
          "xiping",
          "sai1 ping4"
        ],
        "line": "dongguanline2",
        "order": 6
      },
      "id": 7
    },
    {
      "type": "Feature",
      "geometry": {
        "type": "Point",
        "coordinates": [113.755059, 23.01448]
      },
      "properties": {
        "id": 8,
        "name": "Civic Center (市民中心)",
        "alternate_names": [
          "Civic Center",
          "Civic Centre",
          "Civic Center Station",
          "市民中心",
          "shimin zhongxin",
          "si5 man4 zung1 sam1"
        ],
        "line": "dongguanline2",
        "order": 7
      },
      "id": 8
    },
    {
      "type": "Feature",
      "geometry": {
        "type": "Point",
        "coordinates": [113.762736, 23.022814]
      },
      "properties": {
        "id": 9,
        "name": "Qifeng Park (旗峰公园)",
        "alternate_names": [
          "Qifeng Park",
          "Qifeng",
          "旗峰公园",
          "旗峰公園",
          "qifeng gongyuan",
          "kei4 fung1 gung1 jyun4"
        ],
        "line": "dongguanline2",
        "order": 8
      },
      "id": 9
    },
    {
      "type": "Feature",
      "geometry": {
        "type": "Point",
        "coordinates": [113.771356, 23.035659]
      },
      "properties": {
        "id": 10,
        "name": "Dongcheng (东城)",
        "alternate_names": [
          "Dongcheng",
          "Dongcheng Station",
          "东城",
          "東城",
          "dongcheng",
          "dung1 sing4"
        ],
        "line": "dongguanline2",
        "order": 9
      },
      "id": 10
    },
    {
      "type": "Feature",
      "geometry": {
        "type": "Point",
        "coordinates": [113.773561, 23.050242]
      },
      "properties": {
        "id": 11,
        "name": "Tianbao (天宝)",
        "alternate_names": [
          "Tianbao",
          "Tianbao Station",
          "天宝",
          "天寶",
          "tianbao",
          "tin1 bou2"
        ],
        "line": "dongguanline2",
        "order": 10
      },
      "id": 11
    },
    {
      "type": "Feature",
      "geometry": {
        "type": "Point",
        "coordinates": [113.783416, 23.065891]
      },
      "properties": {
        "id": 12,
        "name": "Xiaqiao (下桥)",
        "alternate_names": [
          "Xiaqiao",
          "Xiaqiao Station",
          "下桥",
          "下橋",
          "xiaqiao",
          "haa6 kiu4"
        ],
        "line": "dongguanline2",
        "order": 11
      },
      "id": 12
    },
    {
      "type": "Feature",
      "geometry": {
        "type": "Point",
        "coordinates": [113.809385, 23.083068]
      },
      "properties": {
        "id": 13,
        "name": "Liuhua Park (榴花公园)",
        "alternate_names": [
          "Liuhua Park",
          "Liuhua",
          "榴花公园",
          "榴花公園",
          "liuhua gongyuan",
          "lau4 faa1 gung1 jyun4"
        ],
        "line": "dongguanline2",
        "order": 12
      },
      "id": 13
    },
    {
      "type": "Feature",
      "geometry": {
        "type": "Point",
        "coordinates": [113.84049, 23.082732]
      },
      "properties": {
        "id": 14,
        "name": "Chashan (茶山)",
        "alternate_names": [
          "Chashan",
          "Chashan Station",
          "茶山",
          "chashan",
          "caa4 saan1"
        ],
        "line": "dongguanline2",
        "order": 13
      },
      "id": 14
    },
    {
      "type": "Feature",
      "geometry": {
        "type": "Point",
        "coordinates": [113.855706, 23.091427]
      },
      "properties": {
        "id": 15,
        "name": "Dongguan Railway Station (东莞火车站)",
        "alternate_names": [
          "Dongguan Railway Station",
          "Dongguan Station",
          "Dongguan",
          "东莞火车站",
          "東莞火車站",
          "dongguan huoche zhan",
          "dung1 gun2 fo2 ce1 zaam6"
        ],
        "line": "dongguanline2",
        "order": 14
      },
      "id": 15
    }
  ]
}
